timestamp,rollspeed,pitchspeed,yawspeed,q[0],q[1],q[2],q[3],delta_q_reset[0],delta_q_reset[1],delta_q_reset[2],delta_q_reset[3],quat_reset_counter
52492743,0.00964192,0.00665839,0.00415379,0.999976,-0.0015178,0.002052,0.00650577,1.0,0.0,0.0,0.0,0
52610962,-0.00449594,0.00863732,0.0188571,0.999975,-0.00149608,0.00211036,0.00664622,1.0,0.0,0.0,0.0,0
52713730,-0.00229107,0.0112204,0.0103483,0.999975,-0.00142452,0.00215473,0.00660594,1.0,0.0,0.0,0.0,0
52812848,0.029732,0.0153102,0.00949009,0.999975,-0.0011956,0.00228411,0.00664097,1.0,0.0,0.0,0.0,0
52916885,-0.00171792,0.0129363,0.0236341,0.999975,-0.00108447,0.00217275,0.00660972,1.0,0.0,0.0,0.0,0
53017726,0.000505584,-0.00777076,-0.0107318,0.999975,-0.00106505,0.00215195,0.00666707,1.0,0.0,0.0,0.0,0
53115525,0.00653372,0.0136824,-0.0047562,0.999976,-0.000902955,0.00219835,0.00656237,1.0,0.0,0.0,0.0,0
53219873,-0.00184459,0.020052,0.00460602,0.999975,-0.000798127,0.00219195,0.00674335,1.0,0.0,0.0,0.0,0
53323811,-0.00792354,0.00444679,-0.00800028,0.999974,-0.00059288,0.00223018,0.00683203,1.0,0.0,0.0,0.0,0
53425751,-0.0137964,-0.00592517,-0.0257634,0.999974,-0.000606801,0.00241445,0.00681341,1.0,0.0,0.0,0.0,0
53525722,-0.0198587,-0.000184533,0.0115319,0.999975,-0.000619358,0.00227562,0.00669911,1.0,0.0,0.0,0.0,0
53628768,0.00478064,-0.0190902,0.00793755,0.999975,-0.00065997,0.00224985,0.00673018,1.0,0.0,0.0,0.0,0
53728797,0.000120938,-0.0201598,-0.00279169,0.999976,-0.000524235,0.0014581,0.00676568,1.0,0.0,0.0,0.0,0
53828781,-0.0095077,-0.0330817,-0.000971424,0.999977,-0.000251443,0.000281186,0.00674333,1.0,0.0,0.0,0.0,0
53932867,-0.0273851,-0.0238102,0.00379689,0.999978,-0.000184614,-0.000134344,0.00667859,1.0,0.0,0.0,0.0,0
54032731,-0.0135278,-0.0341363,0.00121084,0.999978,-0.000391383,-0.000284383,0.00658001,1.0,0.0,0.0,0.0,0
54136372,-0.0259356,-0.0174777,-0.00536493,0.999979,-0.000110716,0.000197387,0.00653232,1.0,0.0,0.0,0.0,0
54237721,-0.0304626,-0.0452831,-0.00728882,0.999979,0.000129726,-0.000178713,0.00652452,1.0,0.0,0.0,0.0,0
54337848,0.0250477,-0.035881,-0.00503067,0.999979,-0.000416945,-0.000926602,0.00639318,1.0,0.0,0.0,0.0,0
54440727,0.00792162,0.00244567,0.00837508,0.99998,-5.12325e-05,-0.00052647,0.00630434,1.0,0.0,0.0,0.0,0
54540770,-0.0363739,0.0793832,0.00478083,0.99998,7.83659e-05,0.000214997,0.00636023,1.0,0.0,0.0,0.0,0
54641737,-0.00195387,0.00981988,0.0103377,0.99998,2.59815e-05,0.000571996,0.00631299,1.0,0.0,0.0,0.0,0
54741730,0.00511011,0.0205711,0.00950172,0.999981,-9.62834e-05,0.000509856,0.00617376,1.0,0.0,0.0,0.0,0
54844733,0.0189387,4.1296e-05,-0.000923054,0.999981,8.64466e-06,-5.93802e-05,0.00613372,1.0,0.0,0.0,0.0,0
54944740,0.0161058,-0.014938,0.00945247,0.99998,5.75121e-05,4.90094e-05,0.00634593,1.0,0.0,0.0,0.0,0
55048844,0.00826901,-0.00795482,0.00699445,0.999979,1.92703e-05,-9.54786e-05,0.00650612,1.0,0.0,0.0,0.0,0
55148835,-0.0107326,-0.00607687,0.00901027,0.999979,0.000222163,-1.82889e-06,0.00654207,1.0,0.0,0.0,0.0,0
55248939,0.000152591,-0.0154009,-0.00428034,0.999979,0.000194544,0.00012393,0.00653083,1.0,0.0,0.0,0.0,0
55352733,-0.00137883,0.00155093,-0.0038325,0.999977,-2.48125e-06,8.68099e-05,0.00682005,1.0,0.0,0.0,0.0,0
55453801,-0.0141686,-0.00256808,0.0033873,0.999976,2.667e-07,0.00018663,0.00688606,1.0,0.0,0.0,0.0,0
55549852,-0.0160823,-0.00775416,-0.0050051,0.999976,-0.000208856,0.000208259,0.00696999,1.0,0.0,0.0,0.0,0
55656770,-0.0045742,-0.0149124,-0.00440038,0.999977,-0.000127473,0.000141104,0.00683958,1.0,0.0,0.0,0.0,0
55756745,-0.0050992,0.0104553,0.0117824,0.999974,-0.000182516,0.00016966,0.00715878,1.0,0.0,0.0,0.0,0
55860769,0.00341477,0.00227512,0.00973688,0.999972,-0.000283117,0.0001457,0.00742834,1.0,0.0,0.0,0.0,0
55960730,0.000804687,0.0112809,0.00315975,0.999972,-0.000197612,0.000233245,0.00751996,1.0,0.0,0.0,0.0,0
56064752,-0.00959021,-0.00585595,-0.0055392,0.99997,-0.000357233,0.000358014,0.00768833,1.0,0.0,0.0,0.0,0
56165740,0.0100982,0.0119143,-0.00932569,0.999969,-0.000239125,0.000539355,0.00782559,1.0,0.0,0.0,0.0,0
56265783,-0.00593963,-0.00156001,-0.00290896,0.999968,-0.000233026,0.000660386,0.00802303,1.0,0.0,0.0,0.0,0
56364765,0.018362,-0.0072991,-0.00566466,0.999967,-0.000263054,0.000642562,0.00813207,1.0,0.0,0.0,0.0,0
56469742,-0.00322005,0.000619154,0.00223605,0.999966,-0.000399222,0.000794558,0.00825013,1.0,0.0,0.0,0.0,0
56569725,0.00126481,0.0111856,0.0192775,0.999964,-0.000460547,0.000895575,0.00842064,1.0,0.0,0.0,0.0,0
56673729,0.0114625,0.0043437,0.0144278,0.999964,-0.000566341,0.000910345,0.00843828,1.0,0.0,0.0,0.0,0
56775199,-0.00796178,0.00392773,-0.00201476,0.999962,-0.000623719,0.000980486,0.00868916,1.0,0.0,0.0,0.0,0
56872735,-0.00294929,-0.00319082,-0.000467225,0.999961,-0.00062385,0.00101443,0.00875324,1.0,0.0,0.0,0.0,0
56977730,-0.00038253,-0.0162308,0.00948258,0.999958,-0.000762977,0.00106411,0.00911109,1.0,0.0,0.0,0.0,0
57077477,0.0119599,0.0030011,-0.00594801,0.999959,-0.00103524,0.000937273,0.00896826,1.0,0.0,0.0,0.0,0
57180776,-0.00279502,-0.00960397,0.0164668,0.999958,-0.000894109,0.000833274,0.00908122,1.0,0.0,0.0,0.0,0
57280732,-0.00590611,-0.00196273,0.00994107,0.999957,-0.0010667,0.000655039,0.00919499,1.0,0.0,0.0,0.0,0
57380735,-0.00410674,-0.00468909,0.0130302,0.999956,-0.00130206,0.000760643,0.00929191,1.0,0.0,0.0,0.0,0
57484873,0.00242958,0.0052247,-0.00686876,0.999954,-0.00133142,0.000714271,0.00944395,1.0,0.0,0.0,0.0,0
57585986,0.00481689,0.0162926,-0.0136121,0.999955,-0.00116346,0.000560693,0.0093738,1.0,0.0,0.0,0.0,0
57685793,-0.002935,0.0119463,-0.00229597,0.999954,-0.00128795,0.000553342,0.00952791,1.0,0.0,0.0,0.0,0
57788741,-0.000140262,-0.00243312,-0.0207394,0.999952,-0.00118895,0.000447141,0.00967177,1.0,0.0,0.0,0.0,0
57888816,-0.00596863,-0.00106249,0.0010745,0.999954,-0.000680985,0.000113149,0.00959255,1.0,0.0,0.0,0.0,0
57992734,-0.000684608,0.0232837,-0.00993439,0.999959,0.000172695,-0.000102953,0.0090852,1.0,0.0,0.0,0.0,0
58092805,0.0126347,0.0128432,-0.0192846,0.999965,0.000297455,3.27727e-05,0.00840012,1.0,0.0,0.0,0.0,0
58192900,0.0270556,0.0041923,0.0142149,0.999968,8.82848e-05,9.62913e-05,0.00802133,1.0,0.0,0.0,0.0,0
58295908,-0.00778298,-0.0186564,0.0759847,0.999946,-6.6408e-05,0.000367024,0.0103889,1.0,0.0,0.0,0.0,0
58396744,0.00385872,-0.0221846,0.0474449,0.999916,-0.000201348,0.000918086,0.012919,1.0,0.0,0.0,0.0,0
58496734,0.0151339,-0.015018,0.0333954,0.999883,-4.30116e-06,0.000686155,0.0153033,1.0,0.0,0.0,0.0,0
58600735,-0.00929574,0.00860683,-0.0219365,0.999858,-9.09507e-06,8.788e-05,0.0168746,1.0,0.0,0.0,0.0,0
58701795,0.00541573,0.00900817,-0.12678,0.999914,-0.000107294,-0.00025997,0.0131105,1.0,0.0,0.0,0.0,0
58800767,-0.0416333,-0.0165691,-0.116893,0.999975,-0.000680322,-0.000699343,0.00703142,1.0,0.0,0.0,0.0,0
58905761,-0.0756576,0.0262699,-0.108337,0.999999,-0.000744527,-0.000195613,0.000771838,1.0,0.0,0.0,0.0,0
59004778,-0.145767,0.138005,-0.101821,0.999919,-0.00535244,0.010752,-0.00426945,1.0,0.0,0.0,0.0,0
59108744,0.0331605,-0.113752,-0.0570257,0.999891,-0.00696422,0.00973666,-0.00861832,1.0,0.0,0.0,0.0,0
59208776,-0.0606918,-0.0944875,-0.159171,0.99988,-0.00393854,0.00454347,-0.0142934,1.0,0.0,0.0,0.0,0
59312864,-0.720552,0.0353805,-0.321844,0.999382,-0.0222672,0.00318201,-0.0270067,1.0,0.0,0.0,0.0,0
59413799,-0.689945,0.0717755,-0.269784,0.99724,-0.0610626,0.00563735,-0.0418598,1.0,0.0,0.0,0.0,0
59512788,0.587821,-0.014083,-0.237055,0.996578,-0.0621311,0.00480402,-0.0543121,1.0,0.0,0.0,0.0,0
59616775,0.574225,-0.0128059,-0.160695,0.997498,-0.0288855,0.0015126,-0.0645026,1.0,0.0,0.0,0.0,0
59716745,0.279302,-0.0160713,-0.104838,0.99742,-0.00968321,0.000388385,-0.0711305,1.0,0.0,0.0,0.0,0
59819866,0.059792,0.00342818,-0.0413119,0.997186,-0.00253219,0.000157376,-0.0749252,1.0,0.0,0.0,0.0,0
59920739,0.0293296,-0.00347561,-0.00435545,0.9971,0.000478236,-0.000772674,-0.0760984,1.0,0.0,0.0,0.0,0
60020748,-0.000302808,-0.00404813,0.0307708,0.997141,0.000840648,-0.000665869,-0.0755563,1.0,0.0,0.0,0.0,0
60120776,0.0102991,0.029761,0.0362903,0.99727,0.000495732,-0.000210419,-0.073847,1.0,0.0,0.0,0.0,0
60224737,-0.0259561,0.0196111,0.0480951,0.997436,0.000236575,-6.30142e-05,-0.0715666,1.0,0.0,0.0,0.0,0
60324809,0.000857984,-0.00573193,0.0457015,0.99759,0.000233408,-0.000274341,-0.0693821,1.0,0.0,0.0,0.0,0
60428735,-0.017548,-0.0264475,0.0367888,0.997735,0.000112565,-0.00022645,-0.067271,1.0,0.0,0.0,0.0,0
60529885,-0.0325585,-0.0219638,0.0463777,0.997839,0.00031531,9.60598e-05,-0.0657036,1.0,0.0,0.0,0.0,0
60628737,-0.00305628,0.00425118,0.00297575,0.997916,0.000215602,-7.44209e-05,-0.0645248,1.0,0.0,0.0,0.0,0
60732782,0.0239166,-0.00202345,-0.000232318,0.997967,0.000336698,-0.000109865,-0.0637265,1.0,0.0,0.0,0.0,0
60832854,0.030011,0.0465432,0.00272222,0.997989,0.000490754,-0.000119294,-0.0633878,1.0,0.0,0.0,0.0,0
60936761,-0.0109811,-0.00455379,-0.0109535,0.997993,0.000330989,-3.13512e-05,-0.0633302,1.0,0.0,0.0,0.0,0
61036734,-0.140058,-0.0021012,-0.00763714,0.997969,-0.00111675,7.49448e-05,-0.063691,1.0,0.0,0.0,0.0,0
61136786,0.0207929,-0.0150332,0.00589239,0.997944,-0.00541171,0.000158488,-0.0638562,1.0,0.0,0.0,0.0,0
61240739,-0.0338977,-0.219904,-0.00263034,0.997932,-0.00460848,-0.00157549,-0.0640973,1.0,0.0,0.0,0.0,0
61340891,0.0847923,-1.14396,-0.00861304,0.997177,-0.00540126,-0.0386993,-0.064121,1.0,0.0,0.0,0.0,0
61440763,0.0531082,-1.03693,-0.022664,0.993344,-0.00662078,-0.095462,-0.0641221,1.0,0.0,0.0,0.0,0
61545760,0.0543727,-0.514428,-0.00537545,0.988674,-0.00909582,-0.135351,-0.0641991,1.0,0.0,0.0,0.0,0
61644847,0.013405,-0.177697,-0.00168463,0.986387,-0.0100168,-0.151035,-0.0642536,1.0,0.0,0.0,0.0,0
61748850,0.0187035,-0.0340621,-0.0130217,0.985516,-0.0101101,-0.156534,-0.0644495,1.0,0.0,0.0,0.0,0
61847039,-0.00470096,-0.0120839,0.0170492,0.985203,-0.010661,-0.158367,-0.0646656,1.0,0.0,0.0,0.0,0
61951002,-0.0187365,-0.0245603,-0.0153363,0.984933,-0.0106739,-0.160024,-0.0646888,1.0,0.0,0.0,0.0,0
62052775,-0.0229272,-0.104965,0.00513476,0.984659,-0.010466,-0.161719,-0.0646922,1.0,0.0,0.0,0.0,0
62152732,-0.0107772,-0.445723,-0.00422392,0.982504,-0.0113395,-0.174395,-0.064374,1.0,0.0,0.0,0.0,0
62252736,0.00123596,-0.689486,-0.01076,0.976664,-0.0133925,-0.204554,-0.0640787,1.0,0.0,0.0,0.0,0
62356780,0.0446997,-0.673832,0.0142203,0.968709,-0.0158683,-0.239413,-0.0635034,1.0,0.0,0.0,0.0,0
62456743,0.00406809,-0.532084,0.000408618,0.961288,-0.0181245,-0.267619,-0.0630679,1.0,0.0,0.0,0.0,0
62556842,0.0058354,-0.27082,-0.00288462,0.955581,-0.0190761,-0.287345,-0.0627154,1.0,0.0,0.0,0.0,0
62660803,0.013099,-0.0795537,-0.0146788,0.952821,-0.0193576,-0.296429,-0.06235,1.0,0.0,0.0,0.0,0
62760953,-0.00246691,-0.0321076,-0.00265376,0.951969,-0.0195617,-0.299144,-0.0623322,1.0,0.0,0.0,0.0,0
62864735,0.00770456,-0.038718,0.00317215,0.951819,-0.0196081,-0.299639,-0.062225,1.0,0.0,0.0,0.0,0
62964766,-0.00479441,-0.0429193,0.0184989,0.951777,-0.0198464,-0.299749,-0.0622653,1.0,0.0,0.0,0.0,0
63064740,-0.0182527,-0.0109624,-0.00220788,0.951696,-0.0201757,-0.299955,-0.0624,1.0,0.0,0.0,0.0,0
63168937,0.000535256,0.00545019,0.0162925,0.951696,-0.020002,-0.299949,-0.0624978,1.0,0.0,0.0,0.0,0
63268739,0.00850486,-0.00431789,0.015247,0.951751,-0.019926,-0.299768,-0.06255,1.0,0.0,0.0,0.0,0
63372766,0.0103998,-0.00242574,-1.93182e-05,0.95174,-0.0200112,-0.299746,-0.0628009,1.0,0.0,0.0,0.0,0
63469751,0.00725398,-0.00305692,-0.00379542,0.951681,-0.0202325,-0.299868,-0.063038,1.0,0.0,0.0,0.0,0
63572934,0.00919431,-0.0276042,0.00688056,0.951676,-0.0200658,-0.299871,-0.0631527,1.0,0.0,0.0,0.0,0
63676722,-0.0212291,-0.020781,0.0105189,0.951739,-0.0200237,-0.299675,-0.0631384,1.0,0.0,0.0,0.0,0
63777743,-0.00889949,-0.0207782,0.00419195,0.951729,-0.0198122,-0.299707,-0.0632156,1.0,0.0,0.0,0.0,0
63875229,-0.000854831,-0.0279203,0.00418754,0.951616,-0.0198585,-0.300073,-0.0631608,1.0,0.0,0.0,0.0,0
63979125,-0.0413209,-0.0109245,-0.0107921,0.951608,-0.020005,-0.300033,-0.0634164,1.0,0.0,0.0,0.0,0
64080757,-0.0152222,-0.013749,0.00174005,0.951654,-0.0194545,-0.299945,-0.0633208,1.0,0.0,0.0,0.0,0
64184765,-0.0400211,-0.000508866,0.00273516,0.951783,-0.0187549,-0.299607,-0.0631899,1.0,0.0,0.0,0.0,0
64284760,0.0484387,0.00247383,-0.00544579,0.951684,-0.0186775,-0.299918,-0.0632302,1.0,0.0,0.0,0.0,0
64384787,-0.00566435,-0.0140522,0.0161006,0.951529,-0.0188805,-0.300363,-0.0633845,1.0,0.0,0.0,0.0,0
64488767,0.0282264,-0.0260709,0.0114666,0.951464,-0.0191889,-0.300506,-0.0635954,1.0,0.0,0.0,0.0,0
64588828,-0.0205975,0.00272771,0.00385242,0.951505,-0.0194495,-0.300349,-0.0636507,1.0,0.0,0.0,0.0,0
64688743,-0.0218171,0.0159818,-0.00104683,0.951594,-0.0209619,-0.299863,-0.0641158,1.0,0.0,0.0,0.0,0
64793812,-0.0226862,-0.0137852,0.00416144,0.951601,-0.0225841,-0.299725,-0.0641101,1.0,0.0,0.0,0.0,0
64892731,0.0210317,-0.0459414,0.0130877,0.951568,-0.0233506,-0.299828,-0.0638411,1.0,0.0,0.0,0.0,0
64996741,0.0279252,-0.0306961,0.0107773,0.951525,-0.022521,-0.300146,-0.0632801,1.0,0.0,0.0,0.0,0
65096734,0.051545,-0.0449495,0.0200652,0.951624,-0.0211697,-0.300063,-0.0626575,1.0,0.0,0.0,0.0,0
65198014,0.0115909,0.068869,-0.0120011,0.951962,-0.0204255,-0.299061,-0.062565,1.0,0.0,0.0,0.0,0
65300759,-0.238173,2.48441,0.00398232,0.968866,-0.0223096,-0.23775,-0.0653934,1.0,0.0,0.0,0.0,0
65401734,0.0452924,2.24996,0.0274877,0.991323,-0.0198577,-0.110181,-0.0688776,1.0,0.0,0.0,0.0,0
65500742,0.0997476,0.924396,0.0173789,0.996892,-0.00924163,-0.0374202,-0.0687053,1.0,0.0,0.0,0.0,0
65605978,0.0399506,0.245602,0.0197479,0.997648,-0.00290511,-0.00795046,-0.0680195,1.0,0.0,0.0,0.0,0
65706784,0.021908,-0.117984,0.0187913,0.997738,-0.000756429,0.00198786,-0.0671855,1.0,0.0,0.0,0.0,0
65807940,0.0174729,-0.198957,0.0260025,0.997779,0.0002153,0.0030642,-0.066546,1.0,0.0,0.0,0.0,0
65909730,-0.0126472,0.0659831,0.0146752,0.997833,0.000154216,0.000431213,-0.065801,1.0,0.0,0.0,0.0,0
66008797,-0.00548836,0.0444374,0.00374137,0.997859,-0.00032028,-0.00122536,-0.0653873,1.0,0.0,0.0,0.0,0
66111954,-0.0183231,0.0103744,-0.0091053,0.997872,-0.000241609,-0.00121639,-0.0651961,1.0,0.0,0.0,0.0,0
66212736,0.0232898,-0.0370161,-0.000392561,0.997878,9.62262e-05,-0.000858917,-0.0651091,1.0,0.0,0.0,0.0,0
66312823,0.0352025,-0.0164235,-0.00455568,0.99788,0.000299894,-0.000575831,-0.0650854,1.0,0.0,0.0,0.0,0
66416749,-0.0267202,0.0374382,-0.000155612,0.997875,7.7371e-05,-0.000717237,-0.0651497,1.0,0.0,0.0,0.0,0
66516763,-0.0165781,0.0467733,0.000819176,0.997872,1.42475e-05,-0.00108615,-0.0651979,1.0,0.0,0.0,0.0,0
66620793,0.0165605,0.0323621,0.00645317,0.997859,-2.23312e-05,-0.00103242,-0.0653918,1.0,0.0,0.0,0.0,0
66720767,0.0180541,0.0120357,0.0203631,0.997836,7.55188e-05,-0.000854895,-0.065749,1.0,0.0,0.0,0.0,0
66819723,0.0198537,0.0038503,0.0139751,0.997814,-5.56032e-05,-0.00088373,-0.0660763,1.0,0.0,0.0,0.0,0
66924638,-0.0499399,0.0701838,0.00902737,0.997793,0.000311884,0.000191603,-0.0664013,1.0,0.0,0.0,0.0,0
67026722,-0.253259,0.220498,0.0100324,0.997727,-0.00669558,0.00840795,-0.0665184,1.0,0.0,0.0,0.0,0
67128656,-0.439281,0.371196,0.0120239,0.997215,-0.0235826,0.0243523,-0.0664353,1.0,0.0,0.0,0.0,0
67227733,-0.654258,0.495456,0.0172557,0.995464,-0.0497785,0.0471773,-0.0659391,1.0,0.0,0.0,0.0,0
67327616,-0.85964,0.636759,-0.0048154,0.991135,-0.0856875,0.0776547,-0.0654173,1.0,0.0,0.0,0.0,0
67431624,-1.07364,0.80235,0.00664114,0.982008,-0.133107,0.117509,-0.0643034,1.0,0.0,0.0,0.0,0
67530652,-1.26516,0.914252,0.0126551,0.966825,-0.187204,0.162155,-0.0625339,1.0,0.0,0.0,0.0,0
67635614,-1.48097,1.0535,0.016459,0.941114,-0.253225,0.215847,-0.0599285,1.0,0.0,0.0,0.0,0
67735607,-1.686,1.20972,0.0201409,0.904577,-0.323046,0.272373,-0.0565178,1.0,0.0,0.0,0.0,0
67836637,-1.88293,1.33086,0.0369226,0.852786,-0.398731,0.3333,-0.0517825,1.0,0.0,0.0,0.0,0
67940633,-2.10309,1.45564,0.0206861,0.780898,-0.479306,0.397994,-0.0454488,1.0,0.0,0.0,0.0,0
68039604,-2.31258,1.59972,0.0264315,0.692246,-0.555458,0.459164,-0.0378268,1.0,0.0,0.0,0.0,0
68141601,-2.52312,1.73019,0.0301663,0.578369,-0.62956,0.518025,-0.0281907,1.0,0.0,0.0,0.0,0
68241614,-2.72653,1.85789,0.0446161,0.443478,-0.693083,0.568059,-0.016471,1.0,0.0,0.0,0.0,0
68344616,-2.90917,1.97951,0.030902,0.281045,-0.743087,0.607314,-0.00242602,1.0,0.0,0.0,0.0,0
68447603,-3.13862,2.1248,0.0258919,0.0976917,-0.771304,0.628774,0.0137644,1.0,0.0,0.0,0.0,0
68548618,-3.35608,2.25232,0.0291127,-0.0978754,-0.771596,0.627759,0.0312942,1.0,0.0,0.0,0.0,0
68648613,-3.56353,2.3507,0.0435255,-0.299097,-0.740037,0.600347,0.0496925,1.0,0.0,0.0,0.0,0
68752640,-3.77967,2.50331,0.0568242,-0.505669,-0.668839,0.540557,0.0689297,1.0,0.0,0.0,0.0,0
68851619,-4.00007,2.62281,0.0500735,-0.686887,-0.562559,0.452135,0.0853721,1.0,0.0,0.0,0.0,0
68955625,-4.20289,2.75852,0.039915,-0.84526,-0.410776,0.327042,0.0992081,1.0,0.0,0.0,0.0,0
69056633,-4.4247,2.87397,0.0578969,-0.951179,-0.228551,0.177701,0.106984,1.0,0.0,0.0,0.0,0
69156669,-4.6528,2.96388,0.0523216,-0.993884,-0.0229674,0.0106304,0.107492,1.0,0.0,0.0,0.0,0
69259614,-4.83608,3.09092,0.0356473,-0.959863,0.2004,-0.169462,0.0989206,1.0,0.0,0.0,0.0,0
69360652,-5.06165,3.19745,0.0774931,-0.841928,0.412514,-0.33833,0.0807587,1.0,0.0,0.0,0.0,0
69459640,-5.30296,3.31034,0.0749717,-0.645524,0.592377,-0.479071,0.0536564,1.0,0.0,0.0,0.0,0
69564704,-5.51365,3.42898,0.0694723,-0.361094,0.728454,-0.581959,0.0169855,1.0,0.0,0.0,0.0,0
69662936,-5.72741,3.52637,0.0647175,-0.0461727,0.783688,-0.619066,-0.0214172,1.0,0.0,0.0,0.0,0
69764664,-5.95814,3.62525,0.0498837,0.296208,0.75181,-0.58594,-0.0609626,1.0,0.0,0.0,0.0,0
69868616,-6.17217,3.74165,0.0741048,0.618612,0.619158,-0.47426,-0.0950805,1.0,0.0,0.0,0.0,0
69963612,-6.3923,3.84996,0.0774702,0.846816,0.415919,-0.310568,-0.116026,1.0,0.0,0.0,0.0,0
70071603,-6.6461,3.9351,0.0770909,0.983007,0.114005,-0.0742727,-0.123221,1.0,0.0,0.0,0.0,0
70172603,-6.86885,4.02355,0.0741278,0.959986,-0.197742,0.164156,-0.111259,1.0,0.0,0.0,0.0,0
70272651,-7.09164,4.11612,0.105123,0.78303,-0.48581,0.379754,-0.0814828,1.0,0.0,0.0,0.0,0
70376624,-7.32908,4.20072,0.0841728,0.454321,-0.70727,0.540512,-0.0347573,1.0,0.0,0.0,0.0,0
70475601,-7.54893,4.2897,0.0797843,0.0502612,-0.797702,0.600661,0.0187445,1.0,0.0,0.0,0.0,0
70579610,-7.81184,4.40012,0.104987,-0.394358,-0.735359,0.546064,0.0744471,1.0,0.0,0.0,0.0,0
70679690,-8.05095,4.45629,0.108565,-0.753428,-0.522415,0.381812,0.116823,1.0,0.0,0.0,0.0,0
70781613,-8.28312,4.54514,0.112582,-0.964035,-0.186161,0.129759,0.138357,1.0,0.0,0.0,0.0,0
70883624,-8.5109,4.61162,0.11261,-0.957869,0.202522,-0.156792,0.129955,1.0,0.0,0.0,0.0,0
70984725,-8.7561,4.65428,0.0896476,-0.722723,0.549865,-0.408914,0.0900524,1.0,0.0,0.0,0.0,0
71083654,-9.00198,4.73482,0.0958366,-0.312231,0.76522,-0.562361,0.0264613,1.0,0.0,0.0,0.0,0
71187757,-8.27991,4.05957,0.10124,0.206245,0.789475,-0.575688,-0.0526833,1.0,0.0,0.0,0.0,0
71287734,-4.18379,3.15322,-0.189006,0.490147,0.706782,-0.502557,-0.0874705,1.0,0.0,0.0,0.0,0
71388783,-3.42281,2.67585,-0.645486,0.679573,0.607694,-0.395189,-0.112758,1.0,0.0,0.0,0.0,0
71491731,-3.42377,1.62859,-1.12902,0.813844,0.486405,-0.27204,-0.164507,1.0,0.0,0.0,0.0,0
71592952,-3.2822,0.656828,-1.51998,0.89053,0.347141,-0.162606,-0.244968,1.0,0.0,0.0,0.0,0
71695736,-2.93853,0.0112288,-1.66655,0.918561,0.188629,-0.0747966,-0.339219,1.0,0.0,0.0,0.0,0
71794632,-1.60322,-0.244892,-1.59858,0.904063,0.0759942,-0.023922,-0.419908,1.0,0.0,0.0,0.0,0
71898618,-0.472437,-0.196068,-1.41089,0.871539,0.0285482,-0.0074111,-0.489438,1.0,0.0,0.0,0.0,0
71999772,-0.240786,-0.151993,-1.11098,0.839816,0.0144292,-0.00666965,-0.542639,1.0,0.0,0.0,0.0,0
72099862,-0.0181418,-0.0632157,-0.798162,0.813964,0.00809346,-0.00814271,-0.580802,1.0,0.0,0.0,0.0,0
72199735,0.0080134,-0.0194086,-0.504809,0.795554,0.00629276,-0.00935128,-0.605778,1.0,0.0,0.0,0.0,0
72304738,0.0744303,0.0350442,-0.237317,0.784285,0.00702987,-0.00961949,-0.620286,1.0,0.0,0.0,0.0,0
72404778,0.0747667,0.031504,-0.0656251,0.780233,0.00670288,-0.00919605,-0.625385,1.0,0.0,0.0,0.0,0
72507902,0.0268141,0.0370215,0.0758368,0.781371,0.00547537,-0.0088013,-0.623981,1.0,0.0,0.0,0.0,0
72608748,-0.0230442,-0.018587,0.157498,0.785646,0.00376162,-0.00847878,-0.618607,1.0,0.0,0.0,0.0,0
72707798,-0.0197042,-0.0373987,0.180659,0.791425,0.00279802,-0.00815154,-0.611206,1.0,0.0,0.0,0.0,0
72811732,-0.05222,-0.0534364,0.182666,0.797786,0.00179253,-0.00768844,-0.60289,1.0,0.0,0.0,0.0,0
72912775,0.00747763,0.0143723,0.167185,0.803587,0.00114266,-0.00739473,-0.59514,1.0,0.0,0.0,0.0,0
73012741,0.042702,0.0554594,0.144588,0.80822,0.00105123,-0.00708578,-0.588838,1.0,0.0,0.0,0.0,0
73115901,0.0765319,0.0341555,0.0963256,0.811631,0.00115207,-0.00690079,-0.584129,1.0,0.0,0.0,0.0,0
73215728,0.0284432,0.0199553,0.0478971,0.813809,0.00134324,-0.00662693,-0.581093,1.0,0.0,0.0,0.0,0
73315728,0.0297635,0.0177408,0.0149866,0.814765,0.000922147,-0.00632661,-0.579757,1.0,0.0,0.0,0.0,0
73420737,0.0331779,0.0494152,-0.000162535,0.815065,0.000907488,-0.00620709,-0.579336,1.0,0.0,0.0,0.0,0
73520879,0.0434251,0.0111688,-0.00610041,0.814684,0.000816546,-0.00603339,-0.579873,1.0,0.0,0.0,0.0,0
73623727,0.0515744,-0.00162001,-0.0241145,0.813792,0.000762919,-0.0058748,-0.581126,1.0,0.0,0.0,0.0,0
73725752,0.050492,-0.0119893,-0.0400474,0.812754,0.000844272,-0.00574732,-0.582579,1.0,0.0,0.0,0.0,0
73824830,0.0193285,0.0310276,-0.0403767,0.811705,0.000369991,-0.0052441,-0.584044,1.0,0.0,0.0,0.0,0
73928721,0.0440444,0.0557938,-0.0243436,0.810741,0.000556771,-0.0051166,-0.585383,1.0,0.0,0.0,0.0,0
74026909,0.0608571,0.0742635,-0.0227359,0.809964,0.000188744,-0.00518772,-0.586457,1.0,0.0,0.0,0.0,0
74130864,0.0507008,0.0798217,-0.012171,0.809389,-0.000307715,-0.00523285,-0.587249,1.0,0.0,0.0,0.0,0
74231727,0.0149646,0.0337899,-0.0124672,0.808851,-0.000528042,-0.00575092,-0.587986,1.0,0.0,0.0,0.0,0
74331792,0.0203649,0.0162077,-0.00854665,0.808429,0.000206334,-0.00483036,-0.588575,1.0,0.0,0.0,0.0,0
74431732,0.0145263,-0.032211,0.00267221,0.808238,0.000710265,-0.00429024,-0.58884,1.0,0.0,0.0,0.0,0
74536777,-0.0626967,-0.016476,-0.00931456,0.80812,0.00088627,-0.00429799,-0.589001,1.0,0.0,0.0,0.0,0
74635766,-0.426009,0.000357343,0.00496217,0.80816,-0.0105915,0.00414647,-0.588853,1.0,0.0,0.0,0.0,0
74739898,0.227793,-0.0176819,0.0235211,0.808222,-0.012831,0.00595201,-0.588709,1.0,0.0,0.0,0.0,0
74840741,0.144747,0.0843259,0.0188914,0.808458,-0.00518685,0.000430866,-0.58853,1.0,0.0,0.0,0.0,0
74939884,0.039605,0.0344517,0.0295793,0.808546,-0.000935371,-0.00208693,-0.588429,1.0,0.0,0.0,0.0,0
75044732,0.00566867,0.00968498,0.0155558,0.808532,0.00062795,-0.00346662,-0.588442,1.0,0.0,0.0,0.0,0
75143786,-0.00244342,-0.00470256,0.0075946,0.80857,0.00120927,-0.00360586,-0.588387,1.0,0.0,0.0,0.0,0
75247490,0.0304273,0.0295993,0.0269944,0.808703,0.0018088,-0.00369623,-0.588203,1.0,0.0,0.0,0.0,0
75348757,0.199999,0.173056,-0.00116511,0.808691,0.00206652,-0.00355646,-0.588219,1.0,0.0,0.0,0.0,0
75447075,0.264809,0.237113,-0.00104152,0.808796,0.000377581,-0.00367501,-0.588077,1.0,0.0,0.0,0.0,0
75550420,0.136761,0.142084,0.0122669,0.808791,-0.00108996,-0.00343511,-0.588085,1.0,0.0,0.0,0.0,0
75654416,0.093187,0.0788643,0.00853155,0.808765,0.00109646,-0.00309828,-0.588123,1.0,0.0,0.0,0.0,0
75752787,-0.149247,-0.127047,0.000320032,0.80882,0.00146775,-0.00307559,-0.588046,1.0,0.0,0.0,0.0,0
75851737,-0.130743,-0.0949976,0.00373051,0.808803,0.00163918,-0.00307076,-0.588069,1.0,0.0,0.0,0.0,0
75956741,-0.148532,-0.111118,-0.00846464,0.808791,0.00178973,-0.0031681,-0.588084,1.0,0.0,0.0,0.0,0
76059822,-0.134275,-0.0957139,-0.00765641,0.80885,0.000901633,-0.00312022,-0.588006,1.0,0.0,0.0,0.0,0
76159875,-0.0324236,0.00879982,-0.000647396,0.808856,0.00102019,-0.0030476,-0.587998,1.0,0.0,0.0,0.0,0
76259738,-0.0115933,0.0441386,1.95912e-05,0.808806,0.00066528,-0.00262198,-0.588069,1.0,0.0,0.0,0.0,0
76364740,-0.00738647,0.0148455,0.00468848,0.80881,0.000776868,-0.00225237,-0.588066,1.0,0.0,0.0,0.0,0
76463738,-0.0290713,0.0329533,0.0103648,0.808814,0.000718993,-0.0024633,-0.588058,1.0,0.0,0.0,0.0,0
76567740,-0.00645328,0.0342854,-0.0110925,0.808754,0.000584257,-0.00238344,-0.588142,1.0,0.0,0.0,0.0,0
76668807,0.000432909,0.0279424,-0.00223192,0.808779,0.000613605,-0.00217249,-0.588109,1.0,0.0,0.0,0.0,0
76767785,-0.0132105,0.0144584,0.0226017,0.808857,0.000716638,-0.00224968,-0.588001,1.0,0.0,0.0,0.0,0
76867896,-0.00103852,0.00361862,0.00205108,0.80895,0.000732599,-0.00223094,-0.587873,1.0,0.0,0.0,0.0,0
76971727,-0.0114295,-0.00580023,-0.00829357,0.808911,0.000964684,-0.0021284,-0.587927,1.0,0.0,0.0,0.0,0
77071741,0.0216095,0.000541619,0.000574742,0.80891,0.000981145,-0.00207631,-0.587929,1.0,0.0,0.0,0.0,0
77175753,-0.0111803,0.02099,-0.0122619,0.808811,0.000683359,-0.00214338,-0.588064,1.0,0.0,0.0,0.0,0
77274333,-0.0321288,-0.00023945,0.0037097,0.808858,0.000609249,-0.00206879,-0.588,1.0,0.0,0.0,0.0,0
77378400,0.0240845,0.0233415,-0.00907521,0.808844,0.000749143,-0.00218532,-0.588018,1.0,0.0,0.0,0.0,0
77480723,-0.00756405,0.00744973,-0.00703007,0.808694,0.000461073,-0.00223182,-0.588225,1.0,0.0,0.0,0.0,0
77579945,0.0243533,-0.0226458,0.0129561,0.808694,0.000389478,-0.00207819,-0.588225,1.0,0.0,0.0,0.0,0
77683724,0.00344914,0.000749785,-0.000246815,0.808855,0.000623671,-0.00140022,-0.588006,1.0,0.0,0.0,0.0,0
77783743,-0.00632611,0.00784976,0.0270543,0.808945,0.000896876,-0.00110712,-0.587883,1.0,0.0,0.0,0.0,0
77883738,-0.00871667,0.0294282,-3.98205e-05,0.808964,0.00102529,-0.00112539,-0.587856,1.0,0.0,0.0,0.0,0
77988914,-0.0213325,0.0378763,-0.004037,0.808927,0.000798338,-0.00140599,-0.587907,1.0,0.0,0.0,0.0,0
78087811,-0.0257224,-0.0451331,-0.00139915,0.808943,0.00052379,-0.00197895,-0.587883,1.0,0.0,0.0,0.0,0
78191749,0.0172361,-0.0957255,0.0104631,0.808976,0.000649887,-0.00169267,-0.587839,1.0,0.0,0.0,0.0,0
78291734,0.0296314,-0.131109,-0.0158152,0.808866,0.000429007,-0.00234577,-0.587988,1.0,0.0,0.0,0.0,0
78392734,0.00371632,-0.043513,0.000427571,0.808854,-0.000235297,-0.00327665,-0.588,1.0,0.0,0.0,0.0,0
78495731,-0.00748054,0.0216434,0.00423164,0.808862,-0.000413878,-0.00353643,-0.587987,1.0,0.0,0.0,0.0,0
78596766,0.00192487,0.0455764,-0.00207733,0.808766,-0.000320386,-0.00304512,-0.588122,1.0,0.0,0.0,0.0,0
78695768,-0.0186946,0.0300588,-0.00983039,0.80871,0.000237728,-0.00219317,-0.588204,1.0,0.0,0.0,0.0,0
78799738,-0.00227348,0.00886441,0.00511856,0.80876,0.000596802,-0.00145983,-0.588136,1.0,0.0,0.0,0.0,0
78899745,-0.0221187,0.0479055,-0.00387971,0.808812,0.00052663,-0.0012258,-0.588065,1.0,0.0,0.0,0.0,0
79003734,-0.0125352,0.0180414,0.0127362,0.808845,0.000819177,-0.0011869,-0.58802,1.0,0.0,0.0,0.0,0
79103924,-0.000867671,-0.0156174,-0.0100098,0.808758,0.000456837,-0.00094591,-0.588141,1.0,0.0,0.0,0.0,0
79202319,0.0409835,-0.00710725,-0.00695969,0.80863,0.000412519,-0.000932076,-0.588317,1.0,0.0,0.0,0.0,0
79307127,0.011862,-0.0223755,0.00357421,0.808668,0.000546574,-0.000761147,-0.588264,1.0,0.0,0.0,0.0,0
79407727,-0.0130584,-0.0151497,-0.0121069,0.808643,0.000656372,-0.000918907,-0.588298,1.0,0.0,0.0,0.0,0
79507737,-0.00328055,0.0265196,-0.00141305,0.808667,0.000872566,-0.000874445,-0.588266,1.0,0.0,0.0,0.0,0
79612782,-0.0076009,-0.0108807,-0.0161143,0.808697,0.000940454,-0.000785997,-0.588225,1.0,0.0,0.0,0.0,0
79711743,-0.0179177,-0.00364452,-0.00973408,0.80865,0.000613839,-0.0010176,-0.588288,1.0,0.0,0.0,0.0,0
79815728,-0.0150765,0.00367718,0.0104637,0.808676,0.000665834,-0.00101555,-0.588253,1.0,0.0,0.0,0.0,0
79915731,0.000329073,-0.0100396,0.00673604,0.808692,0.000635003,-0.000875989,-0.588232,1.0,0.0,0.0,0.0,0
80015787,0.0199919,0.00948191,-0.00844578,0.808694,0.00075361,-0.000670712,-0.588229,1.0,0.0,0.0,0.0,0
80115811,0.0141092,0.0103821,-0.00592017,0.808781,0.000650781,-0.000841586,-0.588108,1.0,0.0,0.0,0.0,0
80215747,0.0375849,-0.0152322,-0.0113301,0.808736,0.000637654,-0.000965179,-0.588171,1.0,0.0,0.0,0.0,0
80319732,-0.0221523,-0.00491618,-0.0134349,0.808685,0.000594618,-0.000673669,-0.588241,1.0,0.0,0.0,0.0,0
80423829,-0.00841408,-0.0313837,-0.0106784,0.808575,0.000541551,-0.000749697,-0.588392,1.0,0.0,0.0,0.0,0
80519794,-0.00989459,-0.000275011,0.0122458,0.808592,0.000660823,-0.000692322,-0.588369,1.0,0.0,0.0,0.0,0
80627735,0.00742348,-0.0279533,-0.012324,0.808574,0.000308699,-0.000578211,-0.588395,1.0,0.0,0.0,0.0,0
80727737,-0.000174698,0.02101,0.00402136,0.808566,0.000413264,-0.000274568,-0.588405,1.0,0.0,0.0,0.0,0
80827787,0.0201736,0.0205476,0.0089336,0.808595,0.000689365,-0.000210138,-0.588365,1.0,0.0,0.0,0.0,0
80931736,-0.00739813,0.0201766,-0.00369927,0.80865,0.0002699,-0.000506061,-0.588289,1.0,0.0,0.0,0.0,0
81030575,0.0104244,0.0368319,-0.0129073,0.808742,2.01775e-06,-0.00108083,-0.588162,1.0,0.0,0.0,0.0,0
81131823,0.0132,0.042404,-0.0113777,0.808764,0.000107754,-0.000978345,-0.588133,1.0,0.0,0.0,0.0,0
81235742,0.00269869,-0.025816,-0.00555226,0.808707,8.03572e-05,-0.000454215,-0.588212,1.0,0.0,0.0,0.0,0
81334466,0.0187459,-0.0346971,-0.00137811,0.808739,0.000366512,4.78791e-05,-0.588168,1.0,0.0,0.0,0.0,0
81438068,0.0327119,-0.0298915,-0.00996231,0.808723,0.000521404,0.000508882,-0.588189,1.0,0.0,0.0,0.0,0
81535623,0.280854,-0.228563,-0.00332009,0.808579,0.00295887,-0.00883673,-0.588314,1.0,0.0,0.0,0.0,0
81639645,0.544351,-0.446422,-0.0171968,0.808003,0.00976698,-0.0360153,-0.587996,1.0,0.0,0.0,0.0,0
81743617,0.805885,-0.680624,-0.00424606,0.805672,0.0205285,-0.0809418,-0.586447,1.0,0.0,0.0,0.0,0
81843675,1.06185,-0.913897,0.0140418,0.800017,0.0347332,-0.140589,-0.582239,1.0,0.0,0.0,0.0,0
81947621,1.33077,-1.1415,-0.011012,0.787686,0.0530121,-0.219076,-0.573363,1.0,0.0,0.0,0.0,0
82047614,1.56645,-1.3698,-0.0220631,0.766355,0.0740475,-0.308953,-0.558359,1.0,0.0,0.0,0.0,0
82147646,1.8146,-1.58102,0.0145319,0.73237,0.0976631,-0.410916,-0.534082,1.0,0.0,0.0,0.0,0
82251692,2.10351,-1.81416,-0.00336782,0.679394,0.124163,-0.526216,-0.496089,1.0,0.0,0.0,0.0,0
82351617,2.35302,-2.03506,0.00418933,0.607663,0.150379,-0.640744,-0.444499,1.0,0.0,0.0,0.0,0
82451624,2.61114,-2.25654,-0.0200145,0.512159,0.175857,-0.752063,-0.375725,1.0,0.0,0.0,0.0,0
82555601,2.8577,-2.51159,0.00382421,0.385831,0.198937,-0.854796,-0.284398,1.0,0.0,0.0,0.0,0
82657620,3.12865,-2.69484,0.0128342,0.235029,0.216058,-0.931323,-0.175266,1.0,0.0,0.0,0.0,0
82759631,3.37375,-2.96957,0.0029277,0.0603936,0.224464,-0.971391,-0.0486619,1.0,0.0,0.0,0.0,0
82859604,3.63805,-3.1564,-0.0181496,-0.127053,0.221798,-0.962838,0.0872113,1.0,0.0,0.0,0.0,0
82959619,3.88505,-3.38986,0.00103847,-0.320253,0.205425,-0.896405,0.227367,1.0,0.0,0.0,0.0,0
83063614,4.1554,-3.6318,-0.0252635,-0.511136,0.17249,-0.758063,0.366507,1.0,0.0,0.0,0.0,0
83163662,4.40292,-3.83773,-0.0226994,-0.666309,0.125341,-0.556678,0.480034,1.0,0.0,0.0,0.0,0
83263620,4.65469,-4.07104,-0.000774619,-0.772613,0.064653,-0.295457,0.558206,1.0,0.0,0.0,0.0,0
83367603,4.91404,-4.30365,-0.00396897,-0.809525,-0.00829448,0.0214286,0.586635,1.0,0.0,0.0,0.0,0
83465818,5.18617,-4.52602,-0.00898551,-0.759419,-0.0801056,0.334851,0.552034,1.0,0.0,0.0,0.0,0
83571626,5.43065,-4.75031,0.00793995,-0.605177,-0.150064,0.644939,0.441922,1.0,0.0,0.0,0.0,0
83671792,5.69815,-4.97115,0.00614182,-0.369743,-0.199435,0.865686,0.272218,1.0,0.0,0.0,0.0,0
83771716,5.94791,-5.19127,-0.00251575,-0.0711453,-0.221896,0.970863,0.0559079,1.0,0.0,0.0,0.0,0
83871783,6.20146,-5.43103,0.00218492,0.251043,-0.210898,0.927738,-0.17833,1.0,0.0,0.0,0.0,0
83975750,4.25049,-4.34946,-0.435604,0.475312,-0.191647,0.790336,-0.335737,1.0,0.0,0.0,0.0,0
84075871,3.5353,-3.24359,-1.12388,0.62549,-0.192698,0.606854,-0.450953,1.0,0.0,0.0,0.0,0
84179812,3.48663,-1.71437,-1.61939,0.698619,-0.173727,0.398812,-0.568066,1.0,0.0,0.0,0.0,0
84279736,3.55901,-0.684028,-2.09713,0.688842,-0.115965,0.222968,-0.679951,1.0,0.0,0.0,0.0,0
84379786,2.06774,-0.218324,-2.42087,0.621522,-0.0533851,0.093127,-0.776007,1.0,0.0,0.0,0.0,0
84483745,0.922406,-0.0449165,-2.40084,0.520446,-0.0199234,0.0287284,-0.853179,1.0,0.0,0.0,0.0,0
84583735,0.41299,0.00988594,-2.11902,0.420686,-0.00613453,0.0073812,-0.907155,1.0,0.0,0.0,0.0,0
84683738,0.165313,-0.00946418,-1.70653,0.332534,-0.00198698,-0.000507356,-0.943089,1.0,0.0,0.0,0.0,0
84787737,0.0921657,-0.104114,-1.20446,0.260801,-0.00305625,-0.007628,-0.965358,1.0,0.0,0.0,0.0,0
84887796,0.0831652,-0.102711,-0.674989,0.215562,-0.00637539,-0.0133787,-0.976378,1.0,0.0,0.0,0.0,0
84987743,-0.0704954,0.0596235,-0.264079,0.194641,-0.00595348,-0.0123821,-0.980778,1.0,0.0,0.0,0.0,0
85091788,-0.14212,0.097766,0.00699756,0.189137,-0.000915623,-0.00502996,-0.981937,1.0,0.0,0.0,0.0,0
85191737,-0.143454,0.0208388,0.144445,0.193388,0.00342174,0.0010946,-0.981116,1.0,0.0,0.0,0.0,0
85295742,-0.0558564,0.0239857,0.22322,0.203131,0.00576061,0.00494845,-0.979122,1.0,0.0,0.0,0.0,0
85395756,-0.0302055,-0.0338759,0.249003,0.214754,0.00639335,0.00615774,-0.976628,1.0,0.0,0.0,0.0,0
85499745,-0.055367,-0.0282172,0.243487,0.227102,0.00615179,0.00648144,-0.97383,1.0,0.0,0.0,0.0,0
85599735,-0.0198672,-0.00929224,0.172385,0.237593,0.00586152,0.00635335,-0.971326,1.0,0.0,0.0,0.0,0
85699890,0.0332348,0.343733,0.149811,0.246032,0.010735,0.00710358,-0.969176,1.0,0.0,0.0,0.0,0
85799734,0.0126562,0.811872,0.0881708,0.252147,0.0417595,0.0152609,-0.966667,1.0,0.0,0.0,0.0,0
85899735,-0.0228942,0.380451,0.0656138,0.255799,0.0781307,0.0251879,-0.963238,1.0,0.0,0.0,0.0,0
86003731,-0.00322958,-0.711321,0.00573934,0.258895,0.0608163,0.0201089,-0.963779,1.0,0.0,0.0,0.0,0
86107801,-0.00726478,-0.38114,-0.00437926,0.26062,0.0294218,0.0113541,-0.964926,1.0,0.0,0.0,0.0,0
86207753,0.00591983,-0.156447,-0.0110223,0.260821,0.011888,0.00614045,-0.965294,1.0,0.0,0.0,0.0,0
86311731,0.0466271,-0.0665677,-0.0266942,0.259937,0.00648298,0.00434556,-0.965594,1.0,0.0,0.0,0.0,0
86411743,-0.00960039,-0.114919,-0.0357943,0.258531,0.00529759,0.003801,-0.965981,1.0,0.0,0.0,0.0,0
86511776,-0.0415242,-0.00820542,-0.0419796,0.256992,0.00579725,0.00382496,-0.966389,1.0,0.0,0.0,0.0,0
86615736,-0.0252317,-0.00631807,-0.0303293,0.255619,0.00595245,0.00343271,-0.966753,1.0,0.0,0.0,0.0,0
86715770,-0.0206543,-0.0239059,-0.0177566,0.25451,0.00587216,0.00329732,-0.967047,1.0,0.0,0.0,0.0,0
86815721,-0.0296558,-0.058558,-0.00965066,0.253741,0.00558448,0.00308499,-0.967251,1.0,0.0,0.0,0.0,0
86919824,-0.0222215,-0.0438419,-0.0244256,0.253307,0.0052211,0.0028039,-0.967368,1.0,0.0,0.0,0.0,0
87021736,-0.00341595,-0.0329135,0.0170086,0.253219,0.005036,0.00253817,-0.967393,1.0,0.0,0.0,0.0,0
87123736,-0.0182584,-0.0346188,-0.00452009,0.253406,0.00496863,0.00263154,-0.967344,1.0,0.0,0.0,0.0,0
87223730,-0.0196376,-0.0627797,-0.00560255,0.253631,0.00491649,0.00244277,-0.967285,1.0,0.0,0.0,0.0,0
87321874,-0.107185,-0.26268,0.00328602,0.25399,0.00105687,0.00221884,-0.967204,1.0,0.0,0.0,0.0,0
87425781,-0.267686,-0.649084,0.0283319,0.254865,-0.0226591,0.00440428,-0.966701,1.0,0.0,0.0,0.0,0
87529701,-0.407582,-1.02348,0.0421177,0.255894,-0.0677771,0.00988434,-0.964275,1.0,0.0,0.0,0.0,0
87631623,-0.561654,-1.39174,0.0379942,0.256309,-0.132517,0.0178131,-0.957302,1.0,0.0,0.0,0.0,0
87731670,-0.737825,-1.76002,0.0610324,0.254892,-0.215047,0.0283012,-0.942329,1.0,0.0,0.0,0.0,0
87829662,-0.87217,-2.13105,0.0638259,0.250821,-0.312946,0.0405656,-0.915155,1.0,0.0,0.0,0.0,0
87935612,-1.0083,-2.51352,0.0897244,0.241577,-0.434428,0.0558869,-0.865904,1.0,0.0,0.0,0.0,0
88035646,-1.14662,-2.89909,0.086357,0.226743,-0.559117,0.070672,-0.794343,1.0,0.0,0.0,0.0,0
88134731,-1.30602,-3.26586,0.117003,0.204426,-0.685325,0.0852571,-0.693737,1.0,0.0,0.0,0.0,0
88239616,-1.41271,-3.68028,0.104937,0.171375,-0.811235,0.0988281,-0.550238,1.0,0.0,0.0,0.0,0
88339671,-1.54642,-4.0433,0.145353,0.130231,-0.911273,0.108876,-0.37519,1.0,0.0,0.0,0.0,0
88442601,-1.66978,-4.45814,0.132076,0.0784409,-0.97765,0.113983,-0.15829,1.0,0.0,0.0,0.0,0
88543619,-1.75552,-4.838,0.162559,0.0200256,-0.989939,0.112532,0.0833998,1.0,0.0,0.0,0.0,0
88643621,-1.84378,-5.21978,0.158477,-0.0419688,-0.935162,0.103658,0.336104,1.0,0.0,0.0,0.0,0
88747615,-1.92568,-5.62864,0.160012,-0.105168,-0.795589,0.0858182,0.590435,1.0,0.0,0.0,0.0,0
88846603,-2.02606,-6.05139,0.17737,-0.157788,-0.580733,0.0618147,0.796261,1.0,0.0,0.0,0.0,0
88946694,-2.07449,-6.44961,0.185693,-0.196171,-0.289903,0.0321391,0.936184,1.0,0.0,0.0,0.0,0
89050654,-2.15725,-6.8432,0.209432,-0.2131,0.0656756,-0.00104517,0.97482,1.0,0.0,0.0,0.0,0
89151603,-2.18151,-7.23372,0.214122,-0.20158,0.422645,-0.0312399,0.883041,1.0,0.0,0.0,0.0,0
89254813,-0.325978,-5.59188,0.221283,-0.16764,0.731379,-0.0492672,0.659208,1.0,0.0,0.0,0.0,0
89354738,3.44884,3.08789,0.405663,-0.257508,0.709445,0.0039867,0.65602,1.0,0.0,0.0,0.0,0
89455739,3.31516,4.08223,0.522305,-0.394681,0.513553,0.0542677,0.759964,1.0,0.0,0.0,0.0,0
89558283,1.91868,4.24632,0.478294,-0.484632,0.285794,0.055556,0.824844,1.0,0.0,0.0,0.0,0
89659573,0.832849,2.44368,0.371438,-0.524189,0.104109,0.0202749,0.844971,1.0,0.0,0.0,0.0,0
89761211,0.329757,0.841033,0.27217,-0.540716,0.0153723,-0.000969228,0.841064,1.0,0.0,0.0,0.0,0
89863773,0.136021,0.357319,0.165403,-0.5491,-0.0104459,-0.00651188,0.835666,1.0,0.0,0.0,0.0,0
89962832,0.0457548,0.0881132,0.0759012,-0.552943,-0.0163762,-0.00721702,0.833027,1.0,0.0,0.0,0.0,0
90064742,0.0500197,0.0158473,0.0130262,-0.554233,-0.0155343,-0.00663494,0.83219,1.0,0.0,0.0,0.0,0
90167738,0.0329857,0.0142595,-0.00782487,-0.553382,-0.0146006,-0.00624407,0.832777,1.0,0.0,0.0,0.0,0
90266738,-0.0135175,0.00706359,-0.0462597,-0.551227,-0.0139606,-0.0064107,0.834214,1.0,0.0,0.0,0.0,0
90371840,-0.00689162,-0.0278915,-0.0401962,-0.548593,-0.0135275,-0.00660676,0.835954,1.0,0.0,0.0,0.0,0
90471737,0.0163325,-0.0405499,-0.0463499,-0.545966,-0.0130107,-0.00641656,0.837682,1.0,0.0,0.0,0.0,0
90572907,0.00226216,0.00970525,-0.0363668,-0.543735,-0.012697,-0.00642793,0.839136,1.0,0.0,0.0,0.0,0
90675821,0.029985,0.0235183,-0.0183725,-0.5419,-0.0121941,-0.00601288,0.840333,1.0,0.0,0.0,0.0,0
90775764,0.0787994,0.0116503,-0.0161808,-0.540434,-0.0120358,-0.00571988,0.841281,1.0,0.0,0.0,0.0,0
90875277,0.0809692,0.0166554,-0.00130035,-0.539734,-0.0115898,-0.00561191,0.841737,1.0,0.0,0.0,0.0,0
90979811,0.0441254,0.0225523,-0.00608557,-0.539227,-0.010711,-0.00581717,0.842072,1.0,0.0,0.0,0.0,0
91079724,0.00960488,0.010816,-0.0010473,-0.539305,-0.0101574,-0.00585307,0.842029,1.0,0.0,0.0,0.0,0
91183738,-0.0154635,-0.00659224,0.00684492,-0.539624,-0.0100756,-0.00561767,0.841827,1.0,0.0,0.0,0.0,0
91283722,-0.0409972,0.0274031,0.00277385,-0.540142,-0.00989224,-0.00536985,0.841499,1.0,0.0,0.0,0.0,0
91383791,-0.0806624,0.0283539,0.00976738,-0.540601,-0.00961725,-0.00451715,0.841212,1.0,0.0,0.0,0.0,0
91487724,-0.0761214,0.019211,0.000403196,-0.541074,-0.00937921,-0.00357782,0.840915,1.0,0.0,0.0,0.0,0
91585637,-0.0926597,0.0337208,0.00317129,-0.541559,-0.00896601,-0.00368482,0.840607,1.0,0.0,0.0,0.0,0
91690045,-0.0522824,0.0211229,0.0124176,-0.542028,-0.0085392,-0.00401532,0.840307,1.0,0.0,0.0,0.0,0
91791744,0.0680669,-0.0603308,0.00540055,-0.542355,-0.00860336,-0.00327915,0.840099,1.0,0.0,0.0,0.0,0
91891741,0.0734102,0.0319155,0.0199723,-0.542715,-0.00828217,-0.0050532,0.839861,1.0,0.0,0.0,0.0,0
91995734,0.0265894,0.0154054,0.0106019,-0.542748,-0.00772728,-0.00574579,0.83984,1.0,0.0,0.0,0.0,0
92095734,-0.0287069,0.0329752,0.007287,-0.542826,-0.00761254,-0.00512457,0.839795,1.0,0.0,0.0,0.0,0
92198728,-0.00917405,0.0369193,0.0250752,-0.542869,-0.00707589,-0.00420678,0.839777,1.0,0.0,0.0,0.0,0
92299815,0.0284869,-0.0307019,-0.00036292,-0.542898,-0.00643249,-0.00373826,0.839766,1.0,0.0,0.0,0.0,0
92398776,0.0203133,-0.032522,-0.0053965,-0.543061,-0.00636123,-0.00343242,0.839662,1.0,0.0,0.0,0.0,0
92498724,0.000847633,-0.0133011,-0.00963702,-0.542983,-0.00670138,-0.00345839,0.83971,1.0,0.0,0.0,0.0,0
92603751,-0.0219623,-0.0206569,-0.000517307,-0.54288,-0.00600819,-0.00356086,0.839782,1.0,0.0,0.0,0.0,0
92703753,0.0320129,0.0258795,0.000792273,-0.542926,-0.00594198,-0.00364439,0.839752,1.0,0.0,0.0,0.0,0
92806737,-0.00111755,-0.0191385,-0.0157656,-0.543022,-0.00366464,-0.00167579,0.839709,1.0,0.0,0.0,0.0,0
92908967,0.012544,0.0386792,-0.00476365,-0.543242,-0.00377948,-0.00194298,0.839565,1.0,0.0,0.0,0.0,0
93007803,0.0174224,0.0277324,0.00959748,-0.543271,-0.00513329,-0.00250668,0.839538,1.0,0.0,0.0,0.0,0
93110742,-0.0339667,-0.00376306,0.000412561,-0.543259,-0.00566904,-0.00257287,0.839542,1.0,0.0,0.0,0.0,0
93211738,-0.050761,-0.0235567,0.0150438,-0.543309,-0.00519431,-0.00285261,0.839512,1.0,0.0,0.0,0.0,0
93314727,-0.0315734,-0.0170867,-0.00266395,-0.543412,-0.0052971,-0.00263085,0.839446,1.0,0.0,0.0,0.0,0
93414773,-0.0192949,-0.025387,-0.00604753,-0.543348,-0.00505975,-0.00260977,0.839488,1.0,0.0,0.0,0.0,0
93514871,-0.00947176,-0.0182628,0.00718007,-0.543359,-0.00504029,-0.00244102,0.839482,1.0,0.0,0.0,0.0,0
93619726,-0.00350844,-0.016299,-0.00554721,-0.54323,-0.00478846,-0.00243918,0.839567,1.0,0.0,0.0,0.0,0
93721537,-0.00845081,-0.000994523,0.0108307,-0.543241,-0.00486571,-0.00214501,0.83956,1.0,0.0,0.0,0.0,0
93821944,0.000674175,-0.00143107,-0.0158507,-0.543312,-0.00473042,-0.00211997,0.839515,1.0,0.0,0.0,0.0,0
93922855,-0.0129405,0.00159769,-0.0100575,-0.543371,-0.00463295,-0.00182069,0.839478,1.0,0.0,0.0,0.0,0
94025615,0.00165541,0.0145011,-0.00540086,-0.543358,-0.00442134,-0.00179824,0.839488,1.0,0.0,0.0,0.0,0
94126746,0.010353,-0.00297022,-0.0136815,-0.543347,-0.00426872,-0.00194571,0.839495,1.0,0.0,0.0,0.0,0
94226734,-0.0151232,-0.00979163,0.011729,-0.543606,-0.00397394,-0.00180985,0.83933,1.0,0.0,0.0,0.0,0
94326759,0.0276262,-0.0171583,0.00470429,-0.543692,-0.00398304,-0.00137547,0.839274,1.0,0.0,0.0,0.0,0
94430738,0.00679368,0.0133167,0.00212541,-0.543569,-0.003645,-0.00139354,0.839356,1.0,0.0,0.0,0.0,0
94530755,0.0200284,-0.0124368,0.0376217,-0.544083,-0.00348828,-0.00137736,0.839023,1.0,0.0,0.0,0.0,0
94632916,-0.0079466,-0.0233295,0.0154173,-0.545126,-0.0035965,-0.0019961,0.838344,1.0,0.0,0.0,0.0,0
94735721,0.0169793,-0.0278695,0.0378857,-0.546039,-0.00351303,-0.00194296,0.83775,1.0,0.0,0.0,0.0,0
94834822,-0.00173098,0.000965332,0.0328175,-0.546965,-0.00335073,-0.00143693,0.837148,1.0,0.0,0.0,0.0,0
94938781,0.0133601,-0.0456414,0.0314472,-0.547583,-0.00311264,-0.00137219,0.836744,1.0,0.0,0.0,0.0,0
95038723,0.0286602,-0.0201273,0.0193482,-0.547898,-0.00296104,-0.00126699,0.836539,1.0,0.0,0.0,0.0,0
95138741,-0.0038783,-0.00913371,0.0197008,-0.548073,-0.00300345,-0.00118085,0.836424,1.0,0.0,0.0,0.0,0
95242769,0.00627962,0.0146324,0.0247315,-0.548415,-0.00286934,-0.00136872,0.8362,1.0,0.0,0.0,0.0,0
95343851,0.014437,0.0214717,0.190756,-0.553036,-0.00259185,-0.00142743,0.833152,1.0,0.0,0.0,0.0,0
95443771,-0.0259291,0.0338252,0.447331,-0.567232,-0.00244186,-0.00135435,0.823554,1.0,0.0,0.0,0.0,0
95547735,0.00306342,0.0133728,0.585009,-0.589145,-0.00267454,-0.00130683,0.808022,1.0,0.0,0.0,0.0,0
95646826,0.00333854,-0.00839374,0.624096,-0.613584,-0.00248941,-0.00124362,0.789625,1.0,0.0,0.0,0.0,0
95745339,0.0186016,0.0180869,0.583026,-0.637237,-0.00231435,-0.00160813,0.770663,1.0,0.0,0.0,0.0,0
95850891,0.0231435,-0.0099396,0.49709,-0.659296,-0.00208258,-0.00165113,0.751879,1.0,0.0,0.0,0.0,0
95950719,-0.0132398,0.0291349,0.413985,-0.67581,-0.00219153,-0.00167012,0.73707,1.0,0.0,0.0,0.0,0
96055722,-0.0150175,0.0263682,0.275137,-0.688568,-0.00234485,-0.00165695,0.725166,1.0,0.0,0.0,0.0,0
96155736,-0.03972,-0.00909121,0.184799,-0.69683,-0.00229555,-0.00106004,0.717232,1.0,0.0,0.0,0.0,0
96255794,-0.00980959,0.0144874,0.103061,-0.701763,-0.00273601,-0.000597374,0.712405,1.0,0.0,0.0,0.0,0
96359724,0.0356385,0.0292263,0.0431669,-0.704201,-0.00240324,-0.00133108,0.709995,1.0,0.0,0.0,0.0,0
96458791,0.0290278,-0.00318445,-0.0128095,-0.70459,-0.00247975,-0.00137778,0.709609,1.0,0.0,0.0,0.0,0
96562742,0.0119116,-0.0215496,-0.0367827,-0.703758,-0.00205787,-0.00173741,0.710434,1.0,0.0,0.0,0.0,0
96662733,7.12288e-05,0.0166707,-0.0507189,-0.702259,-0.00200431,-0.00176275,0.711916,1.0,0.0,0.0,0.0,0
96762773,-0.0210512,0.0126016,-0.0532134,-0.700337,-0.00205958,-0.00161276,0.713808,1.0,0.0,0.0,0.0,0
96866733,-0.00697946,0.0340122,-0.0546416,-0.698536,-0.00219797,-0.00184761,0.715569,1.0,0.0,0.0,0.0,0
96967732,-0.0178659,0.0194879,-0.0631742,-0.696866,-0.00201215,-0.00245771,0.717195,1.0,0.0,0.0,0.0,0
97067784,0.0141674,-0.0326575,-0.0498427,-0.695499,-0.00211232,-0.00249082,0.71852,1.0,0.0,0.0,0.0,0
97170865,0.0392137,-0.0535297,-0.0117729,-0.694386,-0.00210344,-0.00224011,0.719596,1.0,0.0,0.0,0.0,0
97266767,0.0130133,0.0181745,-0.0579615,-0.693702,-0.00219425,-0.00181556,0.720257,1.0,0.0,0.0,0.0,0
97374770,-0.0193474,0.0104975,-0.0197119,-0.693373,-0.00159197,-0.00117595,0.720576,1.0,0.0,0.0,0.0,0
97475785,0.0153118,0.0311686,0.00871993,-0.693301,-0.00179048,-0.00117436,0.720645,1.0,0.0,0.0,0.0,0
97574745,-7.91851e-05,0.0315291,-0.00120508,-0.69336,-0.00209682,-0.001586,0.720587,1.0,0.0,0.0,0.0,0
97678812,-0.0193378,0.0024855,-0.00421276,-0.693446,-0.00207593,-0.0017077,0.720504,1.0,0.0,0.0,0.0,0
97778731,0.0196129,-0.0025871,0.00387426,-0.693605,-0.00205629,-0.00165526,0.720351,1.0,0.0,0.0,0.0,0
97882893,0.00333361,-0.00790846,0.0042107,-0.69373,-0.00196158,-0.00195795,0.72023,1.0,0.0,0.0,0.0,0
97987748,0.0209231,-0.00412249,0.0190064,-0.693891,-0.00209685,-0.00178197,0.720075,1.0,0.0,0.0,0.0,0
98085868,0.021678,-0.0153763,-0.00332067,-0.694022,-0.00215276,-0.00195267,0.719948,1.0,0.0,0.0,0.0,0
98189571,0.0076532,-0.015567,0.00119833,-0.694082,-0.00215313,-0.00196396,0.71989,1.0,0.0,0.0,0.0,0
98291757,-0.0158127,-0.00839027,0.00912047,-0.694103,-0.00228143,-0.00220686,0.719868,1.0,0.0,0.0,0.0,0
98391735,0.00696432,0.0354971,-0.00334206,-0.694191,-0.00247495,-0.00246437,0.719783,1.0,0.0,0.0,0.0,0
98494772,-0.0060207,-0.0124108,-0.0134114,-0.694226,-0.00262852,-0.00234129,0.719749,1.0,0.0,0.0,0.0,0
98595755,0.0187497,0.013184,-0.00677145,-0.694077,-0.00224189,-0.00204292,0.719894,1.0,0.0,0.0,0.0,0
98694831,0.0198737,0.0281132,-0.00746015,-0.694116,-0.00250993,-0.00197044,0.719856,1.0,0.0,0.0,0.0,0
98798800,0.00115355,-0.0100434,-0.012247,-0.69405,-0.00257558,-0.00191585,0.71992,1.0,0.0,0.0,0.0,0
98898766,-0.0326724,0.0117731,0.000963989,-0.693993,-0.00223261,-0.00217798,0.719975,1.0,0.0,0.0,0.0,0
98998722,-0.0190052,0.0232365,-0.00515464,-0.693923,-0.00225903,-0.00232131,0.720042,1.0,0.0,0.0,0.0,0
99103741,-0.0125948,0.0305593,0.00502878,-0.693957,-0.00249187,-0.00246096,0.720008,1.0,0.0,0.0,0.0,0
99203748,0.023388,0.0110666,0.00395369,-0.693854,-0.00247335,-0.00261291,0.720107,1.0,0.0,0.0,0.0,0
99306799,0.00081743,-0.0351025,-0.0124112,-0.693876,-0.00210238,-0.00210018,0.720088,1.0,0.0,0.0,0.0,0
99406806,-0.0141019,-0.0250869,0.00995745,-0.693901,-0.00185862,-0.00185858,0.720066,1.0,0.0,0.0,0.0,0
99507762,0.00440104,-0.0290079,0.0255932,-0.693991,-0.00178721,-0.00195058,0.719979,1.0,0.0,0.0,0.0,0
99611739,-0.00235716,0.0195356,-0.0228132,-0.693899,-0.00194524,-0.00191686,0.720067,1.0,0.0,0.0,0.0,0
99711750,0.0401621,0.0103564,-0.00298252,-0.693897,-0.00220203,-0.0018457,0.720068,1.0,0.0,0.0,0.0,0
99814733,0.0416193,-0.00620147,0.00761445,-0.69401,-0.0023166,-0.00180893,0.719959,1.0,0.0,0.0,0.0,0
99915753,0.0436976,0.00447628,-0.00730054,-0.694002,-0.00247582,-0.00179681,0.719967,1.0,0.0,0.0,0.0,0
100014878,0.0381013,-0.0147277,-0.0100487,-0.693953,-0.00219737,-0.00192024,0.720014,1.0,0.0,0.0,0.0,0
100113749,0.00794043,0.0291465,0.00794942,-0.693883,-0.0019416,-0.00224285,0.720082,1.0,0.0,0.0,0.0,0
100217300,0.0195829,0.0218185,-0.014058,-0.693826,-0.00120045,-0.00244374,0.720137,1.0,0.0,0.0,0.0,0
100321535,0.0241,0.0205466,0.00126004,-0.693751,-0.00112615,-0.00234971,0.72021,1.0,0.0,0.0,0.0,0
100422832,0.027556,0.00958827,0.0143781,-0.693685,-0.00171769,-0.00212361,0.720274,1.0,0.0,0.0,0.0,0
100522733,0.015065,0.014047,-0.000937016,-0.693686,-0.00216215,-0.00205033,0.720272,1.0,0.0,0.0,0.0,0
100626757,-0.000907525,0.000974935,0.0126725,-0.69384,-0.0021781,-0.00203348,0.720123,1.0,0.0,0.0,0.0,0
100726732,-0.0149315,0.0487298,0.0168153,-0.693835,-0.00202775,-0.00215439,0.720128,1.0,0.0,0.0,0.0,0
100826794,-0.0248448,0.0187243,0.00443687,-0.693811,-0.00220551,-0.00225478,0.72015,1.0,0.0,0.0,0.0,0
100930800,-0.0165631,0.00493443,0.00391514,-0.693974,-0.00213182,-0.00214632,0.719994,1.0,0.0,0.0,0.0,0
101030733,-0.000428547,0.0474276,-0.0122386,-0.693983,-0.0023042,-0.00224045,0.719984,1.0,0.0,0.0,0.0,0
101130759,-0.0381078,0.0664115,0.00418998,-0.693938,-0.00219828,-0.00177615,0.72003,1.0,0.0,0.0,0.0,0
101234740,-0.0522275,0.0337953,-0.0110778,-0.693808,-0.00215217,-0.00198437,0.720154,1.0,0.0,0.0,0.0,0
101334765,-0.0467436,0.0126004,0.0119291,-0.693825,-0.00201596,-0.00169497,0.720139,1.0,0.0,0.0,0.0,0
101438735,-0.0264322,0.0301677,-0.010492,-0.693816,-0.00212451,-0.00182081,0.720147,1.0,0.0,0.0,0.0,0
101539782,0.0221394,0.0136574,0.00866114,-0.693645,-0.00218098,-0.00217829,0.72031,1.0,0.0,0.0,0.0,0
101638784,0.0145786,-0.00110057,-0.00339003,-0.693709,-0.00215042,-0.00232225,0.720249,1.0,0.0,0.0,0.0,0
101742757,0.0352969,-0.011542,-0.0143294,-0.693619,-0.00228859,-0.00217353,0.720335,1.0,0.0,0.0,0.0,0
101842744,0.0256876,-0.00379895,0.00042068,-0.693661,-0.00230977,-0.00187458,0.720296,1.0,0.0,0.0,0.0,0
101943797,-0.0204686,-0.00587347,0.0105655,-0.693679,-0.00216395,-0.00194226,0.720279,1.0,0.0,0.0,0.0,0
102042762,0.00608827,-0.00603435,-9.63591e-05,-0.693682,-0.00194471,-0.00216268,0.720275,1.0,0.0,0.0,0.0,0
102146734,-0.0265153,-0.00319534,0.00776097,-0.693728,-0.00223529,-0.00181096,0.720231,1.0,0.0,0.0,0.0,0
102250879,0.0116968,0.0155872,0.0186243,-0.693762,-0.00242166,-0.00179358,0.720198,1.0,0.0,0.0,0.0,0
102349211,0.0116742,-0.0206839,0.0200754,-0.693921,-0.00239017,-0.00190872,0.720044,1.0,0.0,0.0,0.0,0
102453607,-0.00181986,0.0137216,0.00447055,-0.693963,-0.00243228,-0.00190051,0.720004,1.0,0.0,0.0,0.0,0
102554735,-0.000284409,0.0203747,0.00621616,-0.694029,-0.00217488,-0.00180802,0.719942,1.0,0.0,0.0,0.0,0
102654760,-0.0068831,0.0213378,0.00533111,-0.694089,-0.00226053,-0.00167696,0.719883,1.0,0.0,0.0,0.0,0
102754725,0.013104,-0.00155212,-0.00404948,-0.694078,-0.00214489,-0.00177927,0.719895,1.0,0.0,0.0,0.0,0
102858846,0.00324188,0.0315119,-0.000542015,-0.693984,-0.00230427,-0.00188889,0.719984,1.0,0.0,0.0,0.0,0
102958733,-0.0294299,-0.0443438,-0.0202675,-0.693859,-0.00294405,-0.00179984,0.720102,1.0,0.0,0.0,0.0,0
103062901,-0.087475,-0.0530154,0.006011,-0.693819,-0.00304357,-0.00198232,0.720141,1.0,0.0,0.0,0.0,0
103162860,-0.0342488,-0.0409824,0.00125206,-0.693894,-0.00239502,-0.00177438,0.720071,1.0,0.0,0.0,0.0,0
103262784,-0.0116223,-0.0250933,0.0103579,-0.69387,-0.00257097,-0.00193304,0.720093,1.0,0.0,0.0,0.0,0
103362771,-0.00128206,-0.00531824,0.00314449,-0.693844,-0.00259632,-0.00201806,0.720118,1.0,0.0,0.0,0.0,0
103466735,-0.0100114,0.0215406,-0.00775662,-0.69395,-0.00257611,-0.00202269,0.720016,1.0,0.0,0.0,0.0,0
103566773,-0.0301093,0.0198424,0.00242069,-0.694033,-0.00235075,-0.0018505,0.719937,1.0,0.0,0.0,0.0,0
103670743,-0.00172537,0.0272715,-0.00194325,-0.694188,-0.00266096,-0.00193122,0.719786,1.0,0.0,0.0,0.0,0
103770768,0.0343269,-0.0469183,-0.00238582,-0.694088,-0.00290838,-0.00205203,0.719881,1.0,0.0,0.0,0.0,0
103874720,0.00783559,-0.0440054,-0.00580874,-0.693981,-0.00290817,-0.00227184,0.719984,1.0,0.0,0.0,0.0,0
103974775,0.0015387,-0.034691,0.00903797,-0.693898,-0.00289801,-0.0025784,0.720062,1.0,0.0,0.0,0.0,0
104075868,-0.0160818,0.00811076,-0.00546187,-0.693963,-0.00282851,-0.0023577,0.720001,1.0,0.0,0.0,0.0,0
104178767,-0.0302564,0.020257,0.00684428,-0.693961,-0.00243732,-0.00217076,0.720006,1.0,0.0,0.0,0.0,0
104278818,-0.0109873,-0.0135596,0.00523369,-0.69384,-0.00246487,-0.00192462,0.720123,1.0,0.0,0.0,0.0,0
104377243,-0.0187818,-0.00933368,-0.00703429,-0.693714,-0.00243018,-0.00194187,0.720244,1.0,0.0,0.0,0.0,0
104481211,-0.0394415,0.00439923,-0.00513032,-0.693594,-0.00285311,-0.00168202,0.720359,1.0,0.0,0.0,0.0,0
104582722,-0.00857163,0.00394851,0.0200279,-0.693654,-0.00363965,-0.000854689,0.720299,1.0,0.0,0.0,0.0,0
104686755,-0.0248783,0.0107032,0.0125334,-0.693757,-0.00320707,-0.00131768,0.720201,1.0,0.0,0.0,0.0,0
104787870,-0.009182,0.00383681,-0.00593305,-0.693833,-0.00283492,-0.00178812,0.720128,1.0,0.0,0.0,0.0,0
104886820,0.0439824,-0.00355204,0.00719991,-0.693867,-0.0029727,-0.00173677,0.720095,1.0,0.0,0.0,0.0,0
104990868,0.00593416,-0.0207208,-0.0025746,-0.694066,-0.00265448,-0.0018557,0.719904,1.0,0.0,0.0,0.0,0
105090768,-0.000283301,0.00574925,-0.0183619,-0.694096,-0.00245571,-0.0018574,0.719876,1.0,0.0,0.0,0.0,0
105190735,0.0017857,0.00163673,0.0082634,-0.694154,-0.00223376,-0.00179455,0.719821,1.0,0.0,0.0,0.0,0
105294781,0.00676652,-0.0136189,0.00743762,-0.694136,-0.00233065,-0.00168545,0.719838,1.0,0.0,0.0,0.0,0
105394836,0.038765,0.00616075,0.00297158,-0.694207,-0.0024942,-0.00181549,0.719769,1.0,0.0,0.0,0.0,0
105498772,-0.0233452,0.0134544,0.00544181,-0.694218,-0.00279646,-0.00181948,0.719757,1.0,0.0,0.0,0.0,0
105598740,0.0154171,0.034946,0.0177093,-0.694106,-0.00264209,-0.00172723,0.719866,1.0,0.0,0.0,0.0,0
105698830,-0.0135685,0.00843101,0.00937865,-0.694089,-0.0025562,-0.00193032,0.719882,1.0,0.0,0.0,0.0,0
105802743,0.0090258,-0.00079143,-0.00902679,-0.694081,-0.00235105,-0.00181246,0.719891,1.0,0.0,0.0,0.0,0
105902744,-5.6985e-05,-0.00461396,-0.0181306,-0.694044,-0.00258328,-0.00192425,0.719926,1.0,0.0,0.0,0.0,0
106002766,0.0073498,-0.00355205,-0.00320086,-0.694117,-0.00265549,-0.00186402,0.719855,1.0,0.0,0.0,0.0,0
106106755,0.00617032,0.0115087,0.00650865,-0.69424,-0.00241797,-0.00182547,0.719738,1.0,0.0,0.0,0.0,0
106206776,-0.0132467,-0.0145925,-0.00223122,-0.694067,-0.00251693,-0.00180169,0.719904,1.0,0.0,0.0,0.0,0
106310727,-0.0214366,0.00495863,0.00394142,-0.694073,-0.00243232,-0.00198019,0.719898,1.0,0.0,0.0,0.0,0
106410781,0.00610026,-0.00709883,-0.0026832,-0.694084,-0.00241315,-0.00194347,0.719888,1.0,0.0,0.0,0.0,0
106510814,-0.0019132,-0.00535876,-0.01642,-0.694008,-0.00243365,-0.00217832,0.71996,1.0,0.0,0.0,0.0,0
106614929,0.0358754,-0.0184872,-0.00565951,-0.694077,-0.00224655,-0.0021236,0.719894,1.0,0.0,0.0,0.0,0
106714745,0.0404925,0.0081214,-0.00532892,-0.694127,-0.00203303,-0.00267039,0.719844,1.0,0.0,0.0,0.0,0
106817172,0.0140409,-0.0312929,0.00389589,-0.694108,-0.00228468,-0.002086,0.719864,1.0,0.0,0.0,0.0,0
106918749,-0.0112911,-0.00571432,-0.000422351,-0.694001,-0.00242182,-0.00212187,0.719967,1.0,0.0,0.0,0.0,0
107018733,-0.0401919,-0.00266393,0.0244319,-0.693933,-0.00233048,-0.00211935,0.720032,1.0,0.0,0.0,0.0,0
107122787,-0.0100737,0.000250643,0.00451454,-0.693983,-0.0023923,-0.00190111,0.719985,1.0,0.0,0.0,0.0,0
107222852,0.0303076,0.0244706,-0.0053616,-0.693919,-0.00228217,-0.00174797,0.720048,1.0,0.0,0.0,0.0,0
107322825,0.013548,0.0123215,-0.0100457,-0.693948,-0.00250345,-0.00173783,0.720019,1.0,0.0,0.0,0.0,0
107426730,2.23488e-06,0.0122122,0.0151063,-0.694124,-0.00243642,-0.00195939,0.719849,1.0,0.0,0.0,0.0,0
107526781,0.010686,0.0461313,-0.00336118,-0.694205,-0.00273963,-0.00224597,0.719769,1.0,0.0,0.0,0.0,0
107626742,-0.0195117,0.035661,0.00751492,-0.694238,-0.00263896,-0.00220026,0.719737,1.0,0.0,0.0,0.0,0
107730845,-0.0319642,-0.0361878,-0.169253,-0.691341,-0.00287645,-0.00220134,0.722519,1.0,0.0,0.0,0.0,0
107828845,-0.0111723,-0.0686644,-0.3168,-0.682173,-0.00242585,-0.00202853,0.731184,1.0,0.0,0.0,0.0,0
107934803,0.0126035,-0.108159,-0.393685,-0.667634,-0.00295921,-0.00191703,0.744482,1.0,0.0,0.0,0.0,0
108034737,0.00320032,-0.0986669,-0.387836,-0.652478,-0.00228208,-0.00120773,0.757804,1.0,0.0,0.0,0.0,0
108134784,-0.0146287,0.0479529,-0.362854,-0.637937,-0.0024731,-0.00171413,0.770083,1.0,0.0,0.0,0.0,0
108238730,-0.0448959,0.0885474,-0.301422,-0.624818,-0.00248149,-0.00199819,0.780764,1.0,0.0,0.0,0.0,0
108338793,-0.00719646,-0.00467325,-0.221858,-0.614858,-0.00273574,-0.00200515,0.78863,1.0,0.0,0.0,0.0,0
108438775,0.00404739,-0.0541144,-0.144068,-0.607721,-0.0025591,-0.00176817,0.794145,1.0,0.0,0.0,0.0,0
108542731,0.0233305,-0.0427267,-0.0918931,-0.6029,-0.00268793,-0.00166402,0.797811,1.0,0.0,0.0,0.0,0
108642800,0.00748705,-0.041986,-0.0455701,-0.600412,-0.0027301,-0.00208537,0.799684,1.0,0.0,0.0,0.0,0
108745870,0.0257225,-0.0237682,-0.0104155,-0.599606,-0.00260574,-0.00228925,0.800288,1.0,0.0,0.0,0.0,0
108844784,0.00084102,0.000916497,0.0236055,-0.599858,-0.00240802,-0.00206454,0.8001,1.0,0.0,0.0,0.0,0
108948878,0.00904371,0.00646511,0.0243549,-0.600901,-0.00255823,-0.00141118,0.799318,1.0,0.0,0.0,0.0,0
109050826,-0.00416557,0.0209622,0.0379624,-0.602201,-0.00236502,-0.00132567,0.79834,1.0,0.0,0.0,0.0,0
109149771,0.00924164,-0.0162138,0.0346622,-0.603559,-0.00217751,-0.00100149,0.797315,1.0,0.0,0.0,0.0,0
109250730,0.0192929,-0.0239465,0.0262287,-0.604726,-0.00223239,-0.000976522,0.79643,1.0,0.0,0.0,0.0,0
109355739,-0.0020519,-0.0421277,0.0194586,-0.60568,-0.00249394,-0.00156237,0.795703,1.0,0.0,0.0,0.0,0
109454732,0.00105526,-0.00586102,0.0201027,-0.606494,-0.00274864,-0.00170866,0.795081,1.0,0.0,0.0,0.0,0
109558733,0.0126229,0.0276042,0.0050132,-0.607071,-0.00298097,-0.00136311,0.794641,1.0,0.0,0.0,0.0,0
109658734,-0.0122927,0.00372394,-0.000220237,-0.607446,-0.00282556,-0.00142375,0.794354,1.0,0.0,0.0,0.0,0
109761745,-0.00238013,-0.00671308,0.00423282,-0.60758,-0.00269505,-0.00142977,0.794253,1.0,0.0,0.0,0.0,0
109862730,0.032955,0.0138093,0.00812626,-0.607616,-0.00250831,-0.00144874,0.794226,1.0,0.0,0.0,0.0,0
109961917,-0.0262564,-0.00645307,0.00413355,-0.607441,-0.00258009,-0.00158285,0.794359,1.0,0.0,0.0,0.0,0
110061733,-0.0269945,-0.00511838,0.00286553,-0.607389,-0.00229066,-0.0013922,0.7944,1.0,0.0,0.0,0.0,0
110166764,-0.00627599,-0.0170801,0.0147486,-0.607386,-0.00201068,-0.00135397,0.794403,1.0,0.0,0.0,0.0,0
110265735,0.0105908,-0.0270017,-0.0127572,-0.607215,-0.00256031,-0.00172405,0.794531,1.0,0.0,0.0,0.0,0
110370756,0.0228823,-0.00332908,0.00336513,-0.607177,-0.00244438,-0.00174617,0.794561,1.0,0.0,0.0,0.0,0
110470886,0.00941684,-0.0121421,0.007572,-0.607185,-0.00259171,-0.00175504,0.794554,1.0,0.0,0.0,0.0,0
110573825,-0.0153191,-0.011,0.00237257,-0.607218,-0.00256976,-0.00182949,0.794529,1.0,0.0,0.0,0.0,0
110674849,-0.0275294,0.00547177,-0.00890811,-0.607113,-0.00248085,-0.001622,0.79461,1.0,0.0,0.0,0.0,0
110774735,-0.035991,-0.0262313,0.0116937,-0.607162,-0.00243162,-0.0013863,0.794574,1.0,0.0,0.0,0.0,0
110873619,-0.0278491,-0.0175321,-0.00848436,-0.607035,-0.00271082,-0.00154023,0.794669,1.0,0.0,0.0,0.0,0
110976858,-0.0329151,0.00141274,0.0105558,-0.607007,-0.00283557,-0.00146714,0.79469,1.0,0.0,0.0,0.0,0
111081426,-0.0159562,0.00355734,-0.00911082,-0.607004,-0.00270157,-0.00128829,0.794694,1.0,0.0,0.0,0.0,0
111182722,-0.0302807,0.0100565,-0.00122521,-0.606923,-0.00251568,-0.00123657,0.794755,1.0,0.0,0.0,0.0,0
111281731,0.0152517,0.00138283,0.017799,-0.606939,-0.00247024,-0.00160503,0.794743,1.0,0.0,0.0,0.0,0
111381806,0.00574597,-0.0301917,-0.000402574,-0.606708,-0.00250529,-0.00147124,0.794919,1.0,0.0,0.0,0.0,0
111486756,0.00425394,-0.0143183,0.0164205,-0.60665,-0.00258526,-0.00161697,0.794963,1.0,0.0,0.0,0.0,0
111586732,-0.000682111,-0.0197133,-0.0191206,-0.606632,-0.00258564,-0.00185255,0.794976,1.0,0.0,0.0,0.0,0
111686765,-0.0060308,0.0226388,-0.00194256,-0.60665,-0.00247461,-0.00160987,0.794963,1.0,0.0,0.0,0.0,0
111790732,-0.0197478,0.0210144,0.00137346,-0.606773,-0.00247155,-0.00153546,0.79487,1.0,0.0,0.0,0.0,0
111891059,-0.0466218,-0.00211622,0.0205878,-0.60678,-0.00238834,-0.00170594,0.794865,1.0,0.0,0.0,0.0,0
111994737,-0.0287234,-0.02444,0.00789874,-0.606815,-0.00212243,-0.00166015,0.794839,1.0,0.0,0.0,0.0,0
112093873,-0.00864434,0.0138051,-0.0200732,-0.606783,-0.00193021,-0.00172377,0.794863,1.0,0.0,0.0,0.0,0
112197812,-0.0296095,-0.0107019,-0.104633,-0.604831,-0.00178659,-0.00166474,0.79635,1.0,0.0,0.0,0.0,0
112297735,-0.0211005,0.0155433,-0.105056,-0.600159,-0.00144041,-0.00154742,0.799878,1.0,0.0,0.0,0.0,0
112397875,-0.0117635,0.00284895,-0.105145,-0.595872,-0.00172818,-0.00114753,0.803077,1.0,0.0,0.0,0.0,0
112497737,-0.00255006,-0.00485839,-0.0683388,-0.592251,-0.00195192,-0.00116142,0.80575,1.0,0.0,0.0,0.0,0
112602773,0.0133467,-0.0272548,-0.0384826,-0.589338,-0.00203784,-0.000720757,0.807883,1.0,0.0,0.0,0.0,0
112702739,-0.00134413,0.0296961,-0.0217717,-0.587544,-0.00189618,-0.000739719,0.809189,1.0,0.0,0.0,0.0,0
112806954,0.00701562,-0.00113775,-0.0251349,-0.586501,-0.00183686,-0.00106887,0.809946,1.0,0.0,0.0,0.0,0
112905748,-0.00676958,0.00425956,-0.0082107,-0.586118,-0.00190848,-0.001077,0.810223,1.0,0.0,0.0,0.0,0
