timestamp,rollspeed,pitchspeed,yawspeed,q[0],q[1],q[2],q[3],delta_q_reset[0],delta_q_reset[1],delta_q_reset[2],delta_q_reset[3],quat_reset_counter
28165781,0.032804,0.0126804,-0.00349459,0.999786,-0.00024807,-0.000651043,-0.0206704,1.0,0.0,0.0,0.0,0
28286837,-0.000541945,-0.023922,0.0102951,0.999794,-0.000160041,-0.000853965,-0.0202979,1.0,0.0,0.0,0.0,0
28389715,0.000587603,-0.0136961,0.0067806,0.999798,-0.000113282,-0.000763489,-0.0200794,1.0,0.0,0.0,0.0,0
28489763,-0.000910625,-0.00230913,0.0145204,0.999804,-5.18294e-05,-0.000826624,-0.0197668,1.0,0.0,0.0,0.0,0
28593715,-0.0104923,-0.00847911,0.00456397,0.999804,-0.00032685,-0.000787934,-0.0197589,1.0,0.0,0.0,0.0,0
28693776,0.00181861,0.00305431,1.07291e-05,0.999809,-0.000523287,-0.000832452,-0.0195331,1.0,0.0,0.0,0.0,0
28793744,0.00233,0.00755118,0.00493247,0.999809,-0.000539229,-0.000493045,-0.0195209,1.0,0.0,0.0,0.0,0
28893724,-0.000290916,0.00137946,-0.0187447,0.99981,-0.000453005,-0.000533048,-0.0195023,1.0,0.0,0.0,0.0,0
28998846,-0.000785315,0.000381943,0.00706901,0.999808,-0.00022498,-0.000302311,-0.0196114,1.0,0.0,0.0,0.0,0
29098782,-0.00729007,-0.00409992,0.00410798,0.999804,7.2509e-06,-0.000114091,-0.0197851,1.0,0.0,0.0,0.0,0
29201730,0.00292933,-0.000138972,-0.00367715,0.999801,8.71584e-05,0.000107191,-0.019932,1.0,0.0,0.0,0.0,0
29300720,0.00360305,0.00251374,0.0026652,0.999801,3.88662e-05,-8.98396e-05,-0.0199495,1.0,0.0,0.0,0.0,0
29404621,-0.01968,0.00120452,0.00694822,0.999799,-1.4394e-05,-0.000101168,-0.0200334,1.0,0.0,0.0,0.0,0
29506730,-0.00243436,0.0204038,0.00543428,0.9998,0.000221762,7.35057e-05,-0.0200111,1.0,0.0,0.0,0.0,0
29606803,0.007372,0.0255728,-0.00478871,0.9998,5.38939e-05,6.26524e-05,-0.0199941,1.0,0.0,0.0,0.0,0
29709726,0.0271015,0.0305426,-0.00245918,0.999803,0.000194063,6.7108e-05,-0.0198614,1.0,0.0,0.0,0.0,0
29809753,0.00927657,0.00692286,0.000458234,0.999803,-9.52426e-05,1.10134e-05,-0.0198609,1.0,0.0,0.0,0.0,0
29913741,0.0091258,-0.0232544,0.0128614,0.999807,-0.000149434,-3.02664e-05,-0.0196292,1.0,0.0,0.0,0.0,0
30013760,0.000347098,0.0229366,-0.00448255,0.999811,5.80399e-05,2.61329e-05,-0.0194563,1.0,0.0,0.0,0.0,0
30113733,-0.00927115,-0.00620203,0.00664685,0.99981,-9.38397e-06,0.000193159,-0.0194715,1.0,0.0,0.0,0.0,0
30217745,-0.0317849,0.0181489,-0.0131399,0.999808,-0.000122054,7.17509e-05,-0.0195803,1.0,0.0,0.0,0.0,0
30317730,-0.0105926,0.00147145,0.00329406,0.999808,-5.51257e-05,-4.29836e-05,-0.0195846,1.0,0.0,0.0,0.0,0
30417852,-0.0237713,0.0221385,-0.00657516,0.999808,4.51744e-05,-4.86375e-05,-0.0195782,1.0,0.0,0.0,0.0,0
30522733,-0.0373488,0.0307843,-0.00959897,0.999809,-3.11619e-05,-0.000247614,-0.0195434,1.0,0.0,0.0,0.0,0
30621729,-0.0154779,0.0192228,-0.00515514,0.999811,-0.000213519,0.000177529,-0.0194161,1.0,0.0,0.0,0.0,0
30721832,0.0223699,0.00159357,-0.000238254,0.999812,-0.000255678,1.66851e-05,-0.0193953,1.0,0.0,0.0,0.0,0
30825769,-0.0131151,0.00232504,0.00268635,0.999805,-0.00354283,-6.41344e-05,-0.0194172,1.0,0.0,0.0,0.0,0
30926716,0.0556639,0.0126655,0.00131072,0.99981,-0.00242499,-6.30254e-05,-0.019364,1.0,0.0,0.0,0.0,0
31029740,-0.0126273,0.0137327,-0.00707249,0.999816,-0.00181505,0.000164103,-0.019113,1.0,0.0,0.0,0.0,0
31129761,0.0125996,-0.00918134,0.00157414,0.999817,-0.00391807,0.000129235,-0.0187329,1.0,0.0,0.0,0.0,0
31229699,-0.0791363,0.0418082,0.00685378,0.99983,-0.00266833,0.00125428,-0.0181822,1.0,0.0,0.0,0.0,0
31333824,-0.266411,0.151108,0.00172219,0.999745,-0.0116237,0.00712557,-0.0180221,1.0,0.0,0.0,0.0,0
31432533,-0.461023,0.26144,0.000233129,0.999242,-0.0298914,0.0176583,-0.0176075,1.0,0.0,0.0,0.0,0
31536545,-0.679947,0.331693,0.00347476,0.99749,-0.0598232,0.0336262,-0.01745,1.0,0.0,0.0,0.0,0
31638894,-0.89333,0.425703,0.00378861,0.993394,-0.099775,0.0540152,-0.0171786,1.0,0.0,0.0,0.0,0
31737742,-1.09157,0.51963,-0.00745692,0.985754,-0.148044,0.0780168,-0.0168952,1.0,0.0,0.0,0.0,0
31841686,-1.27451,0.602857,-0.00970052,0.971944,-0.20846,0.10771,-0.0163845,1.0,0.0,0.0,0.0,0
31941679,-1.50019,0.709153,-0.00850192,0.950939,-0.275341,0.140193,-0.0157516,1.0,0.0,0.0,0.0,0
32041722,-1.69879,0.790681,-0.0374417,0.920073,-0.34961,0.176097,-0.0151312,1.0,0.0,0.0,0.0,0
32145682,-1.91935,0.89564,-0.0129148,0.874874,-0.433154,0.216259,-0.0143511,1.0,0.0,0.0,0.0,0
32245764,-2.10458,0.973144,-0.0176728,0.816287,-0.51744,0.256423,-0.0133522,1.0,0.0,0.0,0.0,0
32349695,-2.30698,1.07918,-0.0253216,0.737544,-0.605727,0.298286,-0.0122358,1.0,0.0,0.0,0.0,0
32449705,-2.51758,1.16687,-0.0278067,0.642446,-0.688116,0.337113,-0.0107272,1.0,0.0,0.0,0.0,0
32549673,-2.72366,1.24708,-0.0144866,0.527283,-0.763698,0.372369,-0.00893184,1.0,0.0,0.0,0.0,0
32649683,-2.91414,1.3494,-0.0290522,0.391675,-0.827635,0.401951,-0.00678838,1.0,0.0,0.0,0.0,0
32753760,-3.12735,1.45248,-0.0148101,0.229676,-0.876076,0.423934,-0.00448229,1.0,0.0,0.0,0.0,0
32854671,-3.34856,1.55017,-0.0160366,0.0550529,-0.899406,0.433629,-0.00190261,1.0,0.0,0.0,0.0,0
32957682,-3.53943,1.64963,-0.0349698,-0.136026,-0.893036,0.428932,0.000715068,1.0,0.0,0.0,0.0,0
33057679,-3.73895,1.74116,-0.0453983,-0.326832,-0.852475,0.407993,0.00303316,1.0,0.0,0.0,0.0,0
33161767,-3.9232,1.83168,-0.0181125,-0.522286,-0.769905,0.366654,0.00527847,1.0,0.0,0.0,0.0,0
33261682,-4.12045,1.95616,-0.0397781,-0.695325,-0.649841,0.306893,0.00684016,1.0,0.0,0.0,0.0,0
33361712,-4.32369,2.04388,-0.0374114,-0.841425,-0.489789,0.228143,0.00788031,1.0,0.0,0.0,0.0,0
33465692,-4.5302,2.14745,-0.0357929,-0.949662,-0.2856,0.128487,0.00812352,1.0,0.0,0.0,0.0,0
33564660,-4.74101,2.24653,-0.0449667,-0.997728,-0.0636546,0.0206407,0.00778365,1.0,0.0,0.0,0.0,0
33668594,-4.93017,2.3598,-0.0495057,-0.977912,0.183861,-0.099189,0.00666896,1.0,0.0,0.0,0.0,0
33770691,-5.13504,2.46301,-0.0289351,-0.880412,0.422883,-0.214519,0.0051194,1.0,0.0,0.0,0.0,0
33870741,-5.31787,2.57848,-0.0468294,-0.708949,0.631294,-0.314399,0.00358675,1.0,0.0,0.0,0.0,0
33970751,2.17834,-2.63385,-0.169023,-0.66476,0.681121,-0.305511,-0.0288518,1.0,0.0,0.0,0.0,0
34073771,3.84241,-2.75906,-0.591613,-0.813492,0.545976,-0.189932,-0.0637725,1.0,0.0,0.0,0.0,0
34173773,3.94345,-1.68486,-0.946311,-0.922654,0.371005,-0.0916175,-0.0516803,1.0,0.0,0.0,0.0,0
34277721,-0.0754947,0.162499,0.00368527,-0.97933,0.198901,-0.0358765,-0.00797228,1.0,0.0,0.0,0.0,0
34377735,1.91687,-0.294774,-0.455537,-0.994592,0.101345,-0.0225129,0.00314829,1.0,0.0,0.0,0.0,0
34477772,1.02298,-0.239698,-0.810912,-0.99884,0.0300053,-0.00798185,0.0368026,1.0,0.0,0.0,0.0,0
34581763,0.438741,-0.184571,-0.969054,-0.996401,-0.000396597,0.000867278,0.0847551,1.0,0.0,0.0,0.0,0
34681770,0.189385,-0.131591,-0.975009,-0.990972,-0.00935482,0.00499147,0.133652,1.0,0.0,0.0,0.0,0
34785744,0.12317,-0.118121,-0.849363,-0.983489,-0.0120467,0.00687384,0.180436,1.0,0.0,0.0,0.0,0
34885764,0.0696009,-0.0633202,-0.582021,-0.976273,-0.0151711,0.010184,0.215773,1.0,0.0,0.0,0.0,0
34986726,-0.0667033,0.0129009,-0.342113,-0.971105,-0.0194546,0.01404,0.237443,1.0,0.0,0.0,0.0,0
35089763,-0.118667,0.0223024,-0.153551,-0.96811,-0.0211287,0.0139709,0.24924,1.0,0.0,0.0,0.0,0
35189804,-0.139712,0.0117886,-0.0549752,-0.967017,-0.0199697,0.0116797,0.253661,1.0,0.0,0.0,0.0,0
35289751,-0.124158,0.0125561,0.018009,-0.967071,-0.0175707,0.00935176,0.253729,1.0,0.0,0.0,0.0,0
35393815,-0.0863191,0.0146546,0.0681918,-0.967842,-0.0148915,0.00683534,0.251026,1.0,0.0,0.0,0.0,0
35493858,-0.0272359,0.0120405,0.0709787,-0.968806,-0.0140971,0.00532336,0.24736,1.0,0.0,0.0,0.0,0
35592561,-0.0413868,-0.314102,0.0818657,-0.969876,-0.013703,0.00978455,0.243016,1.0,0.0,0.0,0.0,0
35698730,-0.0199655,-0.719892,0.0749585,-0.970339,-0.00990749,0.0368395,0.238718,1.0,0.0,0.0,0.0,0
35798735,0.0493777,-1.21467,0.0698977,-0.968144,-0.00620135,0.0867746,0.234796,1.0,0.0,0.0,0.0,0
35898740,0.00816135,-1.13736,0.0669276,-0.961992,-0.00249079,0.145896,0.230823,1.0,0.0,0.0,0.0,0
36002766,-0.0819901,-0.763955,0.0395,-0.95391,0.00518833,0.195224,0.227852,1.0,0.0,0.0,0.0,0
36102796,-0.31022,0.27723,0.0543249,-0.950928,0.0150955,0.208638,0.227985,1.0,0.0,0.0,0.0,0
36205755,-0.353927,1.22574,0.0595198,-0.959175,0.0211421,0.162049,0.230818,1.0,0.0,0.0,0.0,0
36305729,-0.269751,1.36134,0.0567318,-0.967945,0.0201626,0.0923092,0.232712,1.0,0.0,0.0,0.0,0
36409762,-0.0823189,0.765485,0.0390012,-0.971799,0.0178028,0.0333419,0.232764,1.0,0.0,0.0,0.0,0
36509730,0.168886,0.269204,0.0393619,-0.972818,0.00913552,0.00924013,0.231207,1.0,0.0,0.0,0.0,0
36609729,0.108698,0.0563026,0.0305871,-0.973205,0.00142528,0.002743,0.229919,1.0,0.0,0.0,0.0,0
36709756,0.056931,0.0110854,0.0163825,-0.973401,-0.00201148,0.00200147,0.229091,1.0,0.0,0.0,0.0,0
36813749,0.123866,0.0104294,0.00581058,-0.973448,-0.00365245,0.00259337,0.228866,1.0,0.0,0.0,0.0,0
36913775,1.28109,0.0496767,0.0314734,-0.97284,-0.0360972,0.0101469,0.228421,1.0,0.0,0.0,0.0,0
37017727,1.17062,0.0682874,0.0193258,-0.96877,-0.0971161,0.0235362,0.226933,1.0,0.0,0.0,0.0,0
37117766,0.691862,0.0187267,0.00858116,-0.963384,-0.141569,0.0328463,0.225322,1.0,0.0,0.0,0.0,0
37217805,0.271869,-0.00126313,0.0217524,-0.960341,-0.161928,0.0372901,0.223906,1.0,0.0,0.0,0.0,0
37322714,0.0122627,0.00153899,0.0305351,-0.959752,-0.166497,0.0383352,0.222902,1.0,0.0,0.0,0.0,0
37422730,-0.243262,-0.00168935,-0.00227655,-0.961061,-0.159548,0.0365088,0.222652,1.0,0.0,0.0,0.0,0
37525847,-0.642863,-0.00917082,0.00519771,-0.964776,-0.136157,0.0311387,0.222931,1.0,0.0,0.0,0.0,0
37625727,-0.839522,-0.0165502,0.0154201,-0.969629,-0.0967588,0.0225613,0.223492,1.0,0.0,0.0,0.0,0
37724542,-0.717434,0.0166792,0.0117508,-0.972867,-0.057149,0.0140468,0.223755,1.0,0.0,0.0,0.0,0
37828780,-0.484771,0.0234969,0.00295139,-0.974388,-0.0235044,0.00679847,0.22354,1.0,0.0,0.0,0.0,0
37929774,-0.153838,0.00530647,0.00651562,-0.974712,-0.00807405,0.00313344,0.223299,1.0,0.0,0.0,0.0,0
38033754,-0.0127447,0.00787955,0.0223209,-0.974811,-0.00278686,0.00192025,0.223007,1.0,0.0,0.0,0.0,0
38133733,-0.000603461,0.019951,-0.020499,-0.974919,-0.00137443,0.00155965,0.222548,1.0,0.0,0.0,0.0,0
38233764,0.00738608,0.00871197,-0.0236572,-0.974953,-0.00101707,0.00155432,0.222404,1.0,0.0,0.0,0.0,0
38337783,0.0472633,0.0163123,0.00316552,-0.975001,-0.00151462,0.00168902,0.22219,1.0,0.0,0.0,0.0,0
38439774,0.0178102,0.0130985,-0.00958944,-0.97506,-0.00168484,0.00172574,0.22193,1.0,0.0,0.0,0.0,0
38538984,0.0331685,-0.0106527,0.0117762,-0.975125,-0.00172437,0.00147895,0.221643,1.0,0.0,0.0,0.0,0
38641749,0.00563283,0.0138632,-0.00432231,-0.97523,-0.00160722,0.0013617,0.221185,1.0,0.0,0.0,0.0,0
38742724,0.0188773,0.0199271,-0.0103614,-0.975289,-0.00146979,0.00136789,0.220923,1.0,0.0,0.0,0.0,0
38845764,-0.212326,-0.0823011,-0.00639276,-0.975344,0.00366769,0.00234128,0.220648,1.0,0.0,0.0,0.0,0
38945794,-0.526683,-0.151953,-0.00142586,-0.975193,0.0243372,0.00416584,0.219975,1.0,0.0,0.0,0.0,0
39045686,-0.821073,-0.248781,0.0217309,-0.973822,0.0604703,0.00689092,0.219011,1.0,0.0,0.0,0.0,0
39149692,-1.12474,-0.323782,0.00237137,-0.969389,0.114292,0.0106317,0.217049,1.0,0.0,0.0,0.0,0
39249686,-1.44202,-0.439868,0.0283363,-0.959817,0.181502,0.0151916,0.21349,1.0,0.0,0.0,0.0,0
39349712,-1.72403,-0.517558,0.0247953,-0.941928,0.262826,0.0208236,0.207991,1.0,0.0,0.0,0.0,0
39453688,-2.06003,-0.618475,0.0405953,-0.910709,0.360813,0.0277311,0.199132,1.0,0.0,0.0,0.0,0
39553727,-2.33625,-0.717277,0.0523603,-0.864497,0.465298,0.034979,0.186868,1.0,0.0,0.0,0.0,0
39657688,-2.65616,-0.813567,0.0314419,-0.795105,0.580735,0.0432113,0.169376,1.0,0.0,0.0,0.0,0
39757859,-2.95422,-0.904628,0.0474036,-0.703882,0.693063,0.0514751,0.14685,1.0,0.0,0.0,0.0,0
39856657,-3.24628,-1.00764,0.0644627,-0.586975,0.798681,0.0595193,0.118436,1.0,0.0,0.0,0.0,0
39960745,-3.53101,-1.09403,0.0607869,-0.433856,0.894765,0.0670242,0.0816816,1.0,0.0,0.0,0.0,0
40062686,-3.83284,-1.22424,0.069651,-0.253959,0.963711,0.0725173,0.0388161,1.0,0.0,0.0,0.0,0
40161694,-4.14061,-1.3021,0.0748824,-0.0551134,0.995617,0.075074,-0.00854215,1.0,0.0,0.0,0.0,0
40265698,-4.44319,-1.42509,0.0907858,0.171445,0.980399,0.0740901,-0.0627336,1.0,0.0,0.0,0.0,0
40365724,-4.72235,-1.5709,0.0812339,0.394364,0.908976,0.0688508,-0.116188,1.0,0.0,0.0,0.0,0
40466818,-5.02859,-1.67813,0.111167,0.608282,0.773667,0.0582868,-0.167433,1.0,0.0,0.0,0.0,0
40569681,-5.29476,-1.81311,0.0882414,0.792953,0.569788,0.0420505,-0.211658,1.0,0.0,0.0,0.0,0
40670694,-5.62076,-1.95809,0.0989863,0.919184,0.310922,0.0208215,-0.240822,1.0,0.0,0.0,0.0,0
40769690,-5.89451,-2.09,0.10481,0.968037,0.0166832,-0.00410756,-0.250218,1.0,0.0,0.0,0.0,0
40873762,0.277173,0.347258,0.0694302,0.955527,-0.165011,-0.0119305,-0.244127,1.0,0.0,0.0,0.0,0
40973888,1.37261,0.575658,0.032549,0.965428,-0.0906324,-0.00483026,-0.244358,1.0,0.0,0.0,0.0,0
41073815,0.659587,0.278239,-0.00618888,0.969295,-0.0269969,-0.000248649,-0.244414,1.0,0.0,0.0,0.0,0
41177734,0.223252,0.068817,-0.0248789,0.96954,0.000848681,0.00086897,-0.244932,1.0,0.0,0.0,0.0,0
41281788,0.0173509,0.0413914,-0.0519356,0.969244,0.00985736,-0.000217877,-0.245904,1.0,0.0,0.0,0.0,0
41381813,0.0132536,-0.0103725,-0.0488359,0.968837,0.0118537,-0.000975314,-0.247413,1.0,0.0,0.0,0.0,0
41482744,0.0293476,-0.0301939,-0.0291608,0.96843,0.0111677,-0.000383601,-0.249037,1.0,0.0,0.0,0.0,0
41581815,0.0393344,-0.0789044,-0.0227669,0.968088,0.0104145,-0.000657545,-0.250393,1.0,0.0,0.0,0.0,0
41686782,0.0297447,-0.052413,-0.00694002,0.96782,0.00967967,-0.000684982,-0.251455,1.0,0.0,0.0,0.0,0
41785851,0.0919885,-0.0689692,-0.00699917,0.967633,0.00929726,-0.000646859,-0.252189,1.0,0.0,0.0,0.0,0
41889800,0.784977,-0.0445909,-0.0109663,0.967289,0.0241801,-0.00484954,-0.252474,1.0,0.0,0.0,0.0,0
41988675,1.12749,-0.0269374,0.00316467,0.964863,0.0728155,-0.0174907,-0.251857,1.0,0.0,0.0,0.0,0
42092650,0.888449,0.0181202,-0.0117152,0.959859,0.122958,-0.0303131,-0.250266,1.0,0.0,0.0,0.0,0
42193804,0.540788,-0.0150202,0.00381933,0.955413,0.154362,-0.0385295,-0.248747,1.0,0.0,0.0,0.0,0
42293785,0.127619,0.00027674,-0.00273577,0.952627,0.171455,-0.0423624,-0.247608,1.0,0.0,0.0,0.0,0
42393758,-0.72603,-0.01844,-0.00730665,0.955233,0.157169,-0.0388137,-0.247633,1.0,0.0,0.0,0.0,0
42498735,-1.24338,0.00329298,0.0146899,0.962653,0.10331,-0.0251248,-0.24899,1.0,0.0,0.0,0.0,0
42598836,-0.917298,-0.00116608,-0.00526947,0.967045,0.0490874,-0.011294,-0.249575,1.0,0.0,0.0,0.0,0
42701897,-0.319908,-0.0160497,0.00388082,0.968144,0.0185899,-0.0034745,-0.249679,1.0,0.0,0.0,0.0,0
42801723,-0.103902,0.0144437,-0.00138551,0.968344,0.00827669,-0.00087979,-0.249481,1.0,0.0,0.0,0.0,0
42905723,-0.0259621,0.0513969,0.008095,0.968308,0.0051791,-0.000292139,-0.249704,1.0,0.0,0.0,0.0,0
43006892,0.024911,0.0344329,-0.0133521,0.968346,0.00474433,-7.76259e-05,-0.249568,1.0,0.0,0.0,0.0,0
43106862,0.0273572,0.0261914,-0.00523011,0.968295,0.0045141,-0.000733068,-0.249767,1.0,0.0,0.0,0.0,0
43209728,0.036965,-0.0172861,0.00361744,0.968273,0.00481955,-0.000747281,-0.249849,1.0,0.0,0.0,0.0,0
43309751,0.0183712,-0.0273991,-0.013757,0.968211,0.0046559,-0.000402741,-0.250093,1.0,0.0,0.0,0.0,0
43409730,0.0276014,-0.0147255,0.00912265,0.968195,0.00448894,-0.000507694,-0.250154,1.0,0.0,0.0,0.0,0
43513824,0.0271671,0.0212422,-0.00434097,0.968235,0.00462292,-0.000780326,-0.249998,1.0,0.0,0.0,0.0,0
43613737,0.0361506,0.00405752,0.000547171,0.96828,0.00439631,-0.000696171,-0.249829,1.0,0.0,0.0,0.0,0
43713748,0.182648,-0.0310757,-0.0100426,0.968291,0.00662519,-0.00195721,-0.24973,1.0,0.0,0.0,0.0,0
43818793,0.486554,-0.0737547,0.00404952,0.968134,0.0225474,-0.00914915,-0.249247,1.0,0.0,0.0,0.0,0
43918670,0.780926,-0.0789977,0.00795037,0.96711,0.0513795,-0.021077,-0.248222,1.0,0.0,0.0,0.0,0
44016724,1.0614,-0.132518,0.0242264,0.963984,0.0924635,-0.0377798,-0.246491,1.0,0.0,0.0,0.0,0
44120726,1.35967,-0.156407,0.0275927,0.956446,0.149905,-0.0606903,-0.243017,1.0,0.0,0.0,0.0,0
44224631,1.63793,-0.204687,0.0260973,0.941788,0.220933,-0.0886824,-0.237401,1.0,0.0,0.0,0.0,0
44325761,1.93069,-0.244801,0.0622852,0.917624,0.30191,-0.120492,-0.22869,1.0,0.0,0.0,0.0,0
44426688,2.20629,-0.266891,0.0454263,0.880122,0.392862,-0.155549,-0.216444,1.0,0.0,0.0,0.0,0
44529747,2.51217,-0.285506,0.0373806,0.824394,0.493117,-0.193826,-0.199102,1.0,0.0,0.0,0.0,0
44629704,2.80878,-0.313042,0.0544603,0.749853,0.593912,-0.231975,-0.176568,1.0,0.0,0.0,0.0,0
44729693,3.09217,-0.341181,0.0666017,0.651911,0.693453,-0.268867,-0.147805,1.0,0.0,0.0,0.0,0
44829690,3.38922,-0.348164,0.0453585,0.528592,0.785323,-0.301987,-0.112527,1.0,0.0,0.0,0.0,0
44934760,3.67584,-0.349427,0.0727271,0.370728,0.865526,-0.32987,-0.0679084,1.0,0.0,0.0,0.0,0
45034670,3.96677,-0.373325,0.0652972,0.195301,0.917266,-0.346583,-0.0189919,1.0,0.0,0.0,0.0,0
45138693,4.26801,-0.400126,0.0902907,-0.00907769,0.935787,-0.350489,0.0371061,1.0,0.0,0.0,0.0,0
45237672,4.54567,-0.385178,0.0797036,-0.216545,0.911039,-0.338169,0.0935808,1.0,0.0,0.0,0.0,0
45338689,4.83106,-0.398389,0.0877379,-0.429802,0.835588,-0.307049,0.150947,1.0,0.0,0.0,0.0,0
45441672,5.13844,-0.401239,0.0981365,-0.633549,0.701326,-0.254637,0.204738,1.0,0.0,0.0,0.0,0
45541731,5.41791,-0.394454,0.100595,-0.799625,0.515074,-0.184375,0.247599,1.0,0.0,0.0,0.0,0
45645795,5.72482,-0.386096,0.127103,-0.917833,0.269521,-0.0940901,0.275841,1.0,0.0,0.0,0.0,0
45746691,6.01397,-0.349695,0.11313,-0.959505,-0.00513707,0.00474899,0.281605,1.0,0.0,0.0,0.0,0
45845723,0.634767,-0.041108,0.10092,-0.934457,-0.221316,0.078761,0.267594,1.0,0.0,0.0,0.0,0
45949762,-2.68777,0.173907,0.0555977,-0.951741,-0.14014,0.0486127,0.268677,1.0,0.0,0.0,0.0,0
46049869,-1.75138,0.15358,-0.00122745,-0.96079,-0.0565699,0.0203736,0.27068,1.0,0.0,0.0,0.0,0
46148692,-0.842376,0.0798907,-0.0329923,-0.962069,-0.0172851,0.00688185,0.27217,1.0,0.0,0.0,0.0,0
46253017,-0.482148,0.0715428,-0.0209723,-0.961698,-0.00246995,0.00126453,0.274099,1.0,0.0,0.0,0.0,0
46356759,-0.132031,0.00915171,-0.0559673,-0.961055,-0.00159178,0.000606747,0.276353,1.0,0.0,0.0,0.0,0
46454856,0.0119858,0.023283,-0.0489625,-0.96041,-0.0053773,0.00185456,0.278533,1.0,0.0,0.0,0.0,0
46558714,0.621784,-0.0762187,-0.0343208,-0.959831,-0.00200755,0.000452575,0.280571,1.0,0.0,0.0,0.0,0
46657854,0.326543,-0.107723,-0.0317004,-0.959328,5.47466e-05,0.00014129,0.282293,1.0,0.0,0.0,0.0,0
46761725,0.216663,-0.546485,-0.0291427,-0.958884,0.00647901,0.0113714,0.283495,1.0,0.0,0.0,0.0,0
46861769,-0.00999559,-1.42405,-0.0150108,-0.956857,0.020986,0.0592326,0.283683,1.0,0.0,0.0,0.0,0
46962768,-0.0377808,-1.27402,-0.0024305,-0.949745,0.0427743,0.129555,0.281728,1.0,0.0,0.0,0.0,0
47066732,-0.0358759,0.0521083,0.0112003,-0.944293,0.0537383,0.164095,0.28017,1.0,0.0,0.0,0.0,0
47165824,-0.102129,1.60647,-0.0129017,-0.950282,0.0444305,0.123286,0.282473,1.0,0.0,0.0,0.0,0
47266747,0.0498879,1.12788,0.010458,-0.956973,0.0230029,0.0516329,0.284618,1.0,0.0,0.0,0.0,0
47370879,0.0176908,0.49355,0.017747,-0.958453,0.0105227,0.0138131,0.28472,1.0,0.0,0.0,0.0,0
47470735,0.0401164,0.155875,0.00652826,-0.95865,0.00593907,0.00120076,0.284523,1.0,0.0,0.0,0.0,0
47573739,0.0597047,0.0271789,0.0174482,-0.958683,0.00482838,-0.00185062,0.284429,1.0,0.0,0.0,0.0,0
47673788,-0.128337,-0.130007,0.0181458,-0.958623,0.00468878,-0.00173203,0.284636,1.0,0.0,0.0,0.0,0
47774690,-0.867358,-0.627439,0.0152738,-0.957956,0.0363292,0.0100125,0.28443,1.0,0.0,0.0,0.0,0
47877822,-1.61639,-1.20921,0.00866644,-0.951953,0.113214,0.0381536,0.28198,1.0,0.0,0.0,0.0,0
47978682,-2.36,-1.74729,0.0160929,-0.930095,0.230233,0.080667,0.274609,1.0,0.0,0.0,0.0,0
48079716,-3.08824,-2.26483,0.0284021,-0.876227,0.383858,0.136214,0.257536,1.0,0.0,0.0,0.0,0
48182864,-3.82512,-2.84085,0.0292702,-0.768285,0.564684,0.201632,0.224088,1.0,0.0,0.0,0.0,0
48280813,-4.57831,-3.37443,0.0445038,-0.597399,0.737442,0.264234,0.171683,1.0,0.0,0.0,0.0,0
48384825,-5.30314,-3.9256,0.0429276,-0.331987,0.883524,0.317597,0.0911166,1.0,0.0,0.0,0.0,0
48485669,-6.04997,-4.47652,0.0295104,0.00176831,0.940511,0.33961,-0.0100816,1.0,0.0,0.0,0.0,0
48586693,-6.73253,-5.03219,0.0492454,0.375754,0.86356,0.31308,-0.122697,1.0,0.0,0.0,0.0,0
48689688,-7.49061,-5.60436,0.0457031,0.724856,0.610856,0.2232,-0.2272,1.0,0.0,0.0,0.0,0
48789825,-8.19816,-6.17007,0.0397527,0.932705,0.203038,0.076452,-0.288084,1.0,0.0,0.0,0.0,0
48890692,-8.91218,-6.7253,0.0484473,0.907802,-0.296915,-0.104835,-0.27703,1.0,0.0,0.0,0.0,0
48994683,-9.6284,-7.33013,0.0356414,0.576865,-0.751233,-0.270986,-0.171586,1.0,0.0,0.0,0.0,0
49093713,-10.3246,-7.88926,0.0633311,0.0254179,-0.939564,-0.341426,0.00152426,1.0,0.0,0.0,0.0,0
49194690,-11.0262,-8.48554,0.0446826,-0.579822,-0.74369,-0.272834,0.19051,1.0,0.0,0.0,0.0,0
49298821,-11.7509,-9.06786,0.0737706,-0.939634,-0.152974,-0.0596771,0.30021,1.0,0.0,0.0,0.0,0
49398802,-5.30584,-3.06978,0.0398992,-0.868568,0.39261,0.119614,0.27774,1.0,0.0,0.0,0.0,0
49502729,2.79467,2.46598,0.0214743,-0.871726,0.383673,0.0891568,0.291443,1.0,0.0,0.0,0.0,0
49602868,3.14143,1.92038,0.0654371,-0.931313,0.182237,0.0304522,0.313877,1.0,0.0,0.0,0.0,0
49702738,1.58194,0.916863,0.0615321,-0.947698,0.0441936,0.00272973,0.316082,1.0,0.0,0.0,0.0,0
49806732,0.497338,0.281096,0.0714255,-0.949903,-0.0127267,-0.00764526,0.312191,1.0,0.0,0.0,0.0,0
49906792,0.40695,0.207776,0.0436149,-0.950783,-0.0281178,-0.0104851,0.308401,1.0,0.0,0.0,0.0,0
50009729,0.109096,0.0231125,0.0509753,-0.951636,-0.031742,-0.011641,0.305362,1.0,0.0,0.0,0.0,0
50110725,-0.0591888,-0.0650852,0.0400473,-0.952334,-0.0299806,-0.0110306,0.303379,1.0,0.0,0.0,0.0,0
50209801,-0.13065,-0.0847834,0.0261458,-0.95274,-0.0302602,-0.0116261,0.302053,1.0,0.0,0.0,0.0,0
50314736,-0.0404303,0.0167145,0.0144401,-0.953047,-0.0281817,-0.0112562,0.301298,1.0,0.0,0.0,0.0,0
50412783,0.00160311,1.12037,-0.00293933,-0.952746,-0.0317652,-0.0294807,0.300661,1.0,0.0,0.0,0.0,0
50516904,0.00956688,2.04831,-0.0428302,-0.947397,-0.0547627,-0.103149,0.297992,1.0,0.0,0.0,0.0,0
50618727,0.0160842,0.983814,-0.0342611,-0.936396,-0.0774814,-0.174661,0.294367,1.0,0.0,0.0,0.0,0
50718738,0.265599,-0.754716,-0.0153909,-0.934509,-0.0872978,-0.175068,0.29736,1.0,0.0,0.0,0.0,0
50822737,-0.0763474,-1.75761,-0.00944494,-0.94358,-0.0688104,-0.111102,0.304268,1.0,0.0,0.0,0.0,0
50922729,-0.163815,-1.09044,-0.0025607,-0.949376,-0.0407077,-0.0470367,0.307921,1.0,0.0,0.0,0.0,0
51022791,-0.0789676,-0.36426,0.000368377,-0.950662,-0.026704,-0.0188938,0.308499,1.0,0.0,0.0,0.0,0
51125716,0.0177876,-0.0426814,0.00390251,-0.951227,-0.0213156,-0.0091632,0.307617,1.0,0.0,0.0,0.0,0
51225726,0.0168091,-0.0378241,0.0167096,-0.951676,-0.0195081,-0.00685563,0.306406,1.0,0.0,0.0,0.0,0
51329727,0.0170214,0.00579914,0.0262016,-0.952162,-0.0185085,-0.00645067,0.304964,1.0,0.0,0.0,0.0,0
51430690,-0.158561,0.117077,0.0233795,-0.952672,-0.0174102,-0.00748057,0.303407,1.0,0.0,0.0,0.0,0
51530689,-0.691333,0.399981,0.0141267,-0.95296,-0.000241974,-0.0268708,0.301902,1.0,0.0,0.0,0.0,0
51634699,-1.25224,0.716961,-0.00154746,-0.950696,0.0401489,-0.0702681,0.299377,1.0,0.0,0.0,0.0,0
51734681,-1.78772,1.01881,-0.0469732,-0.940826,0.100375,-0.133985,0.294651,1.0,0.0,0.0,0.0,0
51834690,-2.33515,1.29622,-0.0519256,-0.915779,0.180459,-0.217733,0.285266,1.0,0.0,0.0,0.0,0
51938681,-2.88794,1.60903,-0.0258379,-0.863253,0.281634,-0.322617,0.267198,1.0,0.0,0.0,0.0,0
52038685,-3.41021,1.90507,-0.0406747,-0.775845,0.390282,-0.434388,0.238856,1.0,0.0,0.0,0.0,0
52138695,-3.9636,2.21846,-0.0513583,-0.641569,0.500479,-0.547134,0.196353,1.0,0.0,0.0,0.0,0
52242680,-4.51066,2.54177,-0.054429,-0.444382,0.601929,-0.649539,0.135295,1.0,0.0,0.0,0.0,0
52342678,-5.00645,2.8672,-0.069182,-0.198884,0.668031,-0.714529,0.0602377,1.0,0.0,0.0,0.0,0
52446690,-5.55556,3.20031,-0.0763725,0.102614,0.681844,-0.723603,-0.0309411,1.0,0.0,0.0,0.0,0
52544866,-6.07028,3.53495,-0.100519,0.404878,0.62428,-0.656993,-0.121279,1.0,0.0,0.0,0.0,0
52648764,-6.61399,3.86347,-0.0932366,0.698583,0.475641,-0.492452,-0.207936,1.0,0.0,0.0,0.0,0
52750672,-7.1152,4.21128,-0.124559,0.900863,0.244933,-0.23941,-0.266715,1.0,0.0,0.0,0.0,0
52850800,-7.63753,4.5918,-0.104556,0.95629,-0.0398014,0.0720921,-0.280586,1.0,0.0,0.0,0.0,0
52950741,-8.1053,4.96723,-0.1218,0.823971,-0.332936,0.391495,-0.238657,1.0,0.0,0.0,0.0,0
53054725,2.01872,-2.41004,-0.176951,0.748661,-0.439975,0.457349,-0.191733,1.0,0.0,0.0,0.0,0
53154728,4.0409,-2.98239,-0.414467,0.869253,-0.340498,0.294737,-0.203938,1.0,0.0,0.0,0.0,0
53254728,4.12968,-1.59994,-0.610195,0.944068,-0.182485,0.133977,-0.239759,1.0,0.0,0.0,0.0,0
53358857,2.3572,-0.629216,-0.683499,0.958381,-0.0470407,0.0339895,-0.27953,1.0,0.0,0.0,0.0,0
53458727,0.992337,-0.229865,-0.682488,0.949787,0.00835664,-0.000699665,-0.312786,1.0,0.0,0.0,0.0,0
53562740,0.39648,-0.0858048,-0.568313,0.938792,0.0275218,-0.010756,-0.343216,1.0,0.0,0.0,0.0,0
53662731,0.1725,-0.0939686,-0.440069,0.929505,0.0310959,-0.0119486,-0.367302,1.0,0.0,0.0,0.0,0
53762741,0.0383968,-0.0711079,-0.336758,0.922187,0.0286317,-0.00987669,-0.385557,1.0,0.0,0.0,0.0,0
53866732,-0.00138002,-0.00995377,-0.179557,0.916861,0.0272207,-0.0102903,-0.398145,1.0,0.0,0.0,0.0,0
53966728,-0.193542,0.0578226,-0.070551,0.914012,0.0267654,-0.0116334,-0.404637,1.0,0.0,0.0,0.0,0
54070750,-0.112968,0.0199824,0.000465093,0.912997,0.0242565,-0.0100708,-0.40712,1.0,0.0,0.0,0.0,0
54170733,-0.0566121,-0.0166414,0.0689412,0.913474,0.0233907,-0.00957191,-0.406113,1.0,0.0,0.0,0.0,0
54270725,0.0337156,-0.0252507,0.0928726,0.914826,0.0219888,-0.00862253,-0.403158,1.0,0.0,0.0,0.0,0
54373768,0.0804151,-0.0435394,0.100707,0.916733,0.0200042,-0.00723653,-0.398933,1.0,0.0,0.0,0.0,0
54474723,0.0454314,-0.0304579,0.105614,0.918596,0.0193215,-0.00667515,-0.394668,1.0,0.0,0.0,0.0,0
54573005,0.015207,-0.0124054,0.104004,0.920361,0.0195351,-0.00727992,-0.390513,1.0,0.0,0.0,0.0,0
54677098,-0.0217064,-0.0169359,0.0596797,0.921871,0.0193225,-0.00728505,-0.386947,1.0,0.0,0.0,0.0,0
54781005,-0.0389067,-0.000534786,0.0570966,0.922986,0.0191331,-0.00696364,-0.384295,1.0,0.0,0.0,0.0,0
54882751,-0.0703591,0.0049063,0.0435531,0.923799,0.0184253,-0.00686724,-0.382372,1.0,0.0,0.0,0.0,0
54982750,0.0417524,-0.0130696,0.0102722,0.924198,0.0177038,-0.0063396,-0.381451,1.0,0.0,0.0,0.0,0
55082724,0.0163257,-0.0288992,-0.015491,0.924368,0.0171772,-0.0060469,-0.381068,1.0,0.0,0.0,0.0,0
55186728,0.0139828,0.0301552,0.00338071,0.924364,0.0168249,-0.00559941,-0.3811,1.0,0.0,0.0,0.0,0
55286736,-0.0126161,0.00879014,-0.0332598,0.924228,0.0164005,-0.00563736,-0.381446,1.0,0.0,0.0,0.0,0
55386744,-0.0168247,-0.00530155,-0.00791823,0.924127,0.0156984,-0.00529011,-0.381727,1.0,0.0,0.0,0.0,0
55490732,-0.0433792,0.0164954,-0.0203019,0.92384,0.0151084,-0.00507814,-0.382448,1.0,0.0,0.0,0.0,0
55590725,-0.0943713,0.043107,0.00306195,0.923676,0.0145724,-0.00507362,-0.382863,1.0,0.0,0.0,0.0,0
55694738,-0.0277175,0.016692,0.000366506,0.92347,0.0143939,-0.00511564,-0.383365,1.0,0.0,0.0,0.0,0
55794733,-0.012411,-0.0124027,0.00321902,0.923258,0.0138935,-0.00528244,-0.383892,1.0,0.0,0.0,0.0,0
55894729,0.0258831,-0.00139371,-0.0130803,0.923093,0.0133172,-0.00498092,-0.384314,1.0,0.0,0.0,0.0,0
55998725,0.0147895,0.0160752,-0.0107289,0.923101,0.0129384,-0.00504011,-0.384307,1.0,0.0,0.0,0.0,0
56098777,-0.0405432,0.00394778,-0.00181398,0.92305,0.0131422,-0.00528167,-0.384418,1.0,0.0,0.0,0.0,0
56198733,-0.0604673,-0.01992,-0.00851451,0.923077,0.0127505,-0.00520033,-0.384369,1.0,0.0,0.0,0.0,0
56302725,-0.0375455,-0.0184427,0.00418689,0.923061,0.0123385,-0.00474841,-0.384427,1.0,0.0,0.0,0.0,0
56402685,-0.0112414,0.000687304,0.00436314,0.923021,0.0126115,-0.00428595,-0.384519,1.0,0.0,0.0,0.0,0
56506694,-0.182089,-0.145771,0.0256333,0.923115,0.00641932,-0.0064158,-0.384417,1.0,0.0,0.0,0.0,0
56606682,-0.329416,-0.294786,0.0213932,0.923209,-0.00981411,-0.0116707,-0.383996,1.0,0.0,0.0,0.0,0
56704999,-0.512292,-0.425164,0.0245114,0.922795,-0.0359571,-0.0203083,-0.383072,1.0,0.0,0.0,0.0,0
56808892,-0.667087,-0.575832,0.0223624,0.920949,-0.0744151,-0.0327927,-0.381103,1.0,0.0,0.0,0.0,0
56910681,-0.847749,-0.724367,0.0387864,0.9165,-0.122559,-0.0487841,-0.377659,1.0,0.0,0.0,0.0,0
57010855,-1.01527,-0.879152,0.0303475,0.90795,-0.179931,-0.0679879,-0.372329,1.0,0.0,0.0,0.0,0
57114679,-1.17196,-1.03841,0.0498034,0.892865,-0.249367,-0.0910693,-0.363751,1.0,0.0,0.0,0.0,0
57214689,-1.32441,-1.17299,0.0736713,0.870234,-0.32454,-0.116746,-0.351762,1.0,0.0,0.0,0.0,0
57314685,-1.49602,-1.31507,0.0589558,0.837377,-0.40686,-0.144837,-0.335091,1.0,0.0,0.0,0.0,0
57418685,-1.64351,-1.46816,0.062808,0.789814,-0.497742,-0.1764,-0.311977,1.0,0.0,0.0,0.0,0
57518685,-1.82942,-1.61992,0.0741761,0.729104,-0.587554,-0.207924,-0.282764,1.0,0.0,0.0,0.0,0
57620672,-1.96557,-1.79723,0.091834,0.649764,-0.678103,-0.240272,-0.245464,1.0,0.0,0.0,0.0,0
57722686,-2.12629,-1.94889,0.0926426,0.551244,-0.763207,-0.271329,-0.200064,1.0,0.0,0.0,0.0,0
57822693,-2.27678,-2.09776,0.121997,0.435103,-0.836588,-0.29869,-0.146935,1.0,0.0,0.0,0.0,0
57926679,-2.42007,-2.27544,0.120253,0.294305,-0.896061,-0.321707,-0.0834529,1.0,0.0,0.0,0.0,0
58026686,-2.54268,-2.43839,0.117069,0.141512,-0.931006,-0.336114,-0.0151539,1.0,0.0,0.0,0.0,0
58130692,-2.70276,-2.6155,0.0963133,-0.0316704,-0.93777,-0.340201,0.0620325,1.0,0.0,0.0,0.0,0
58230687,-2.85621,-2.80008,0.14595,-0.206285,-0.910058,-0.331236,0.139725,1.0,0.0,0.0,0.0,0
58330688,-2.98181,-2.97999,0.134981,-0.381081,-0.844167,-0.307886,0.217635,1.0,0.0,0.0,0.0,0
58434693,-3.08868,-3.16311,0.148854,-0.553266,-0.732098,-0.266965,0.294378,1.0,0.0,0.0,0.0,0
58534673,-3.2485,-3.35108,0.153703,-0.698456,-0.582081,-0.21096,0.358939,1.0,0.0,0.0,0.0,0
58634694,-3.36124,-3.50881,0.162304,-0.81154,-0.393573,-0.13977,0.408616,1.0,0.0,0.0,0.0,0
58739777,-1.80994,-1.93349,0.1554,-0.879755,-0.178775,-0.057808,0.436726,1.0,0.0,0.0,0.0,0
58842734,-0.787509,-0.815756,0.180407,-0.89681,-0.0563297,-0.011782,0.438656,1.0,0.0,0.0,0.0,0
58941014,-0.186759,-0.15705,0.155052,-0.901035,-0.0192267,0.000980499,0.433318,1.0,0.0,0.0,0.0,0
59044778,0.037467,0.0408899,0.145975,-0.904373,-0.0124016,0.00249088,0.426555,1.0,0.0,0.0,0.0,0
59149096,0.0400514,0.0590976,0.100166,-0.907319,-0.011155,0.00272672,0.420287,1.0,0.0,0.0,0.0,0
59250736,-0.000252782,0.0193384,0.086307,-0.909527,-0.0128919,0.0020519,0.41544,1.0,0.0,0.0,0.0,0
59350728,-0.0565269,-0.0871519,0.0503961,-0.911041,-0.0144456,0.00192363,0.412058,1.0,0.0,0.0,0.0,0
59450779,-0.00538494,-0.0101226,0.0079133,-0.91185,-0.0147545,0.00196044,0.410253,1.0,0.0,0.0,0.0,0
59554737,-0.00160228,-0.00550001,0.00184297,-0.912269,-0.0147341,0.001908,0.409322,1.0,0.0,0.0,0.0,0
59654779,0.0515141,0.0566362,-0.0199567,-0.912222,-0.0149394,0.00183441,0.40942,1.0,0.0,0.0,0.0,0
59754743,-0.00346244,0.0103799,-0.0124039,-0.911933,-0.0144707,0.00166742,0.410081,1.0,0.0,0.0,0.0,0
59858716,0.0470987,0.0299181,-0.0283374,-0.911452,-0.0139264,0.00162564,0.411167,1.0,0.0,0.0,0.0,0
59958731,0.0647036,0.0519849,-0.0390809,-0.910961,-0.0136696,0.00145886,0.412264,1.0,0.0,0.0,0.0,0
60062735,0.0409656,0.0543331,-0.0161689,-0.910418,-0.01238,0.00127818,0.413502,1.0,0.0,0.0,0.0,0
60162727,-0.0620822,-0.028106,-0.00720431,-0.910056,-0.011714,0.0015497,0.414318,1.0,0.0,0.0,0.0,0
60262725,-0.053559,-0.0337107,-0.0243671,-0.909713,-0.0102522,0.00156827,0.415108,1.0,0.0,0.0,0.0,0
60366778,-0.0443867,0.0114594,-0.0024341,-0.90949,-0.00929437,0.00148899,0.41562,1.0,0.0,0.0,0.0,0
60466740,-0.00617285,0.0240053,-0.00780927,-0.909325,-0.00909385,0.00151977,0.415985,1.0,0.0,0.0,0.0,0
60566844,1.4925e-05,-0.00560219,0.0111189,-0.909264,-0.00870678,0.00143119,0.416126,1.0,0.0,0.0,0.0,0
60670727,-0.023899,0.00496623,0.0120008,-0.90924,-0.00822827,0.00126462,0.416189,1.0,0.0,0.0,0.0,0
60770882,0.00412869,-0.0235335,0.0241782,-0.909227,-0.00787746,0.00135184,0.416225,1.0,0.0,0.0,0.0,0
60874732,0.00942822,-0.0202259,-0.00420782,-0.909301,-0.00769794,0.0018132,0.416064,1.0,0.0,0.0,0.0,0
60974856,0.0251443,0.013107,0.0059758,-0.909398,-0.00702027,0.00163108,0.415864,1.0,0.0,0.0,0.0,0
61073000,0.0178076,0.0398413,0.0229687,-0.909471,-0.00640099,0.00155143,0.415716,1.0,0.0,0.0,0.0,0
61176959,-0.0133079,0.0425328,0.0118417,-0.909562,-0.0060705,0.00161303,0.41552,1.0,0.0,0.0,0.0,0
61278733,-0.010791,0.000593854,0.00476257,-0.909615,-0.00594691,0.001872,0.415405,1.0,0.0,0.0,0.0,0
61378746,0.0115723,-0.0108246,0.0738017,-0.910414,-0.00580786,0.00168057,0.413655,1.0,0.0,0.0,0.0,0
61482740,0.0171548,0.0292426,0.0997258,-0.912235,-0.00553349,0.00128601,0.409627,1.0,0.0,0.0,0.0,0
61582804,0.0464851,0.018269,0.0860047,-0.913955,-0.00575281,0.00114814,0.405774,1.0,0.0,0.0,0.0,0
61686755,-0.00812543,-0.000424858,0.0684432,-0.915542,-0.00539648,0.00128378,0.402184,1.0,0.0,0.0,0.0,0
61786726,-0.004652,-0.0347685,0.0522724,-0.916734,-0.00543196,0.00132137,0.39946,1.0,0.0,0.0,0.0,0
61886725,0.00229669,-0.0230843,0.0265505,-0.917514,-0.00520415,0.00123605,0.397667,1.0,0.0,0.0,0.0,0
61990729,0.0179009,0.0123895,0.0072756,-0.917974,-0.00495477,0.00115745,0.396608,1.0,0.0,0.0,0.0,0
62090726,0.0047837,0.0366122,0.0133441,-0.918095,-0.00479171,0.000562902,0.396331,1.0,0.0,0.0,0.0,0
62190967,-0.0308518,0.0108722,-0.00116866,-0.918062,-0.00462092,0.000384581,0.396409,1.0,0.0,0.0,0.0,0
62294775,-0.0185303,0.0105982,0.0194298,-0.917886,-0.00457801,0.000729973,0.396818,1.0,0.0,0.0,0.0,0
62394726,0.00230944,-0.0157823,-0.0179971,-0.91763,-0.00456934,0.000672893,0.397408,1.0,0.0,0.0,0.0,0
62495746,0.0357872,0.0157374,-0.00285757,-0.917449,-0.0042562,0.00051006,0.39783,1.0,0.0,0.0,0.0,0
62598855,0.0253207,0.015543,-0.0187832,-0.917276,-0.00397961,0.000672601,0.398231,1.0,0.0,0.0,0.0,0
62698713,0.00655956,-0.00829932,0.00337782,-0.917139,-0.0039818,0.000725398,0.398546,1.0,0.0,0.0,0.0,0
62802925,0.0173491,0.0177686,0.00251324,-0.917117,-0.00408451,0.000613948,0.398597,1.0,0.0,0.0,0.0,0
62902798,-0.00821246,0.0156264,0.00473366,-0.917103,-0.00409778,0.000448388,0.39863,1.0,0.0,0.0,0.0,0
63002734,-0.0351065,-0.0335437,-0.00738685,-0.917081,-0.00448453,0.000288723,0.398675,1.0,0.0,0.0,0.0,0
63106711,-0.00609639,-0.0521731,0.0131902,-0.917116,-0.00493461,-0.00016174,0.39859,1.0,0.0,0.0,0.0,0
63205196,-0.0206487,-0.0184319,0.000251587,-0.917114,-0.0048691,-0.000554691,0.398594,1.0,0.0,0.0,0.0,0
63309147,-0.000244791,-0.00170803,-0.00273423,-0.917101,-0.00427381,-0.000126237,0.398632,1.0,0.0,0.0,0.0,0
63410733,0.00507371,0.00461125,-0.0102187,-0.917127,-0.00415123,0.000273761,0.398574,1.0,0.0,0.0,0.0,0
63510788,0.00789533,-0.0386748,0.0125613,-0.917151,-0.00392541,0.000528632,0.39852,1.0,0.0,0.0,0.0,0
63614725,0.00441174,-0.0225193,-0.000517312,-0.917221,-0.0038373,0.000529043,0.39836,1.0,0.0,0.0,0.0,0
63714727,0.0280273,-0.0123473,0.0140838,-0.917266,-0.00393463,0.000537826,0.398254,1.0,0.0,0.0,0.0,0
63814745,-0.0380411,-0.0235178,-0.00865588,-0.917304,-0.00342453,0.000477861,0.398173,1.0,0.0,0.0,0.0,0
63914728,-0.0608301,-0.0235727,0.0118636,-0.917417,-0.00337127,0.000292269,0.397913,1.0,0.0,0.0,0.0,0
64018854,-0.0393055,-0.03615,-0.00744391,-0.917401,-0.00299663,0.000343503,0.397953,1.0,0.0,0.0,0.0,0
64122732,-0.0281468,-0.0153355,0.00160335,-0.917346,-0.00296676,0.000681436,0.39808,1.0,0.0,0.0,0.0,0
64223726,-0.00755245,-0.039309,0.00585892,-0.917298,-0.00331344,0.00111062,0.398185,1.0,0.0,0.0,0.0,0
64322724,0.0285901,-0.00777823,0.00722756,-0.917318,-0.00335569,0.00101164,0.398139,1.0,0.0,0.0,0.0,0
64426842,0.0760313,0.0233778,0.0126359,-0.917326,-0.00389174,0.00127187,0.398117,1.0,0.0,0.0,0.0,0
64526728,0.0572436,0.0120808,0.0102742,-0.917348,-0.0042763,0.00107772,0.398061,1.0,0.0,0.0,0.0,0
64626738,0.000208806,0.0176899,0.007914,-0.917359,-0.0040996,0.000790515,0.398039,1.0,0.0,0.0,0.0,0
64730725,-0.0418806,0.0284458,0.0058183,-0.917396,-0.00432696,0.000691885,0.397952,1.0,0.0,0.0,0.0,0
64830775,-0.0646104,0.0167995,-0.00374273,-0.917373,-0.00500888,0.00150943,0.397994,1.0,0.0,0.0,0.0,0
64934721,-0.012335,0.0017366,0.00319215,-0.917295,-0.00445236,0.00102922,0.398181,1.0,0.0,0.0,0.0,0
65034732,0.014956,-0.0333136,0.00509359,-0.917322,-0.00410748,0.000305734,0.398124,1.0,0.0,0.0,0.0,0
65134849,0.0337228,-0.0190996,0.0154669,-0.917315,-0.00413267,0.000293231,0.398141,1.0,0.0,0.0,0.0,0
65238730,0.0525783,-0.0116896,0.00999462,-0.917278,-0.00431392,0.000558745,0.398225,1.0,0.0,0.0,0.0,0
65337385,0.0320534,-0.0193619,-0.00127178,-0.917251,-0.00392634,0.000348108,0.39829,1.0,0.0,0.0,0.0,0
65441121,0.0294345,-0.00056542,-0.00769652,-0.917308,-0.00371248,0.000326234,0.398161,1.0,0.0,0.0,0.0,0
65542732,-0.0119633,0.0103178,0.00787646,-0.917348,-0.00382185,0.000113375,0.398069,1.0,0.0,0.0,0.0,0
65642724,-0.0303103,0.0212357,0.0020306,-0.917356,-0.00388585,8.55809e-05,0.398049,1.0,0.0,0.0,0.0,0
65746752,-0.0254013,0.0239715,0.00145803,-0.917351,-0.0039421,0.000486756,0.39806,1.0,0.0,0.0,0.0,0
65846765,0.0273205,0.00981647,-0.00297891,-0.917331,-0.00417605,0.000697189,0.398103,1.0,0.0,0.0,0.0,0
65946803,0.00966249,-0.000984758,0.0131293,-0.91735,-0.00416635,0.000983593,0.398059,1.0,0.0,0.0,0.0,0
66050723,-0.0295613,0.00636382,-0.00357979,-0.917304,-0.00396725,0.000905735,0.398167,1.0,0.0,0.0,0.0,0
66150730,-0.0232523,0.00388543,0.00638454,-0.917243,-0.0037284,0.000819979,0.39831,1.0,0.0,0.0,0.0,0
66250750,-0.0164366,-0.0121001,0.000256217,-0.917192,-0.00384513,0.000572776,0.398426,1.0,0.0,0.0,0.0,0
66354859,-0.0230043,-0.00904586,-0.00592502,-0.917137,-0.0039582,0.000340682,0.398553,1.0,0.0,0.0,0.0,0
66454725,-0.0218432,0.0101638,-0.000906076,-0.917121,-0.00407998,0.000276753,0.398589,1.0,0.0,0.0,0.0,0
66558745,-0.000862524,0.00311547,0.00442073,-0.917077,-0.00406378,0.000425304,0.398689,1.0,0.0,0.0,0.0,0
66658726,0.017587,0.0289291,-0.000397307,-0.917079,-0.00412242,0.00081369,0.398683,1.0,0.0,0.0,0.0,0
66758976,0.00702163,-0.00912675,-0.00327276,-0.917014,-0.00402079,0.000926681,0.398833,1.0,0.0,0.0,0.0,0
66862723,0.0330399,0.00400905,-0.00148771,-0.917052,-0.00415844,0.000626454,0.398745,1.0,0.0,0.0,0.0,0
66962724,-0.0401728,0.00679087,0.0100744,-0.916948,-0.00441444,0.000759486,0.398982,1.0,0.0,0.0,0.0,0
67062724,-0.0520425,-0.0175377,0.00122951,-0.916983,-0.00440875,0.000471445,0.398902,1.0,0.0,0.0,0.0,0
67166714,-0.0278674,-0.0243068,0.00305544,-0.916943,-0.00473162,1.98219e-05,0.39899,1.0,0.0,0.0,0.0,0
67266772,-0.059375,-0.0581455,0.00984519,-0.916984,-0.00479421,0.000194083,0.398895,1.0,0.0,0.0,0.0,0
67370750,-0.0105204,-0.0381312,0.00235163,-0.917109,-0.00497562,0.000136533,0.398605,1.0,0.0,0.0,0.0,0
67469248,-0.0196071,-0.0281866,0.00989215,-0.917094,-0.00501226,0.000219346,0.398639,1.0,0.0,0.0,0.0,0
67572962,-0.00230335,-0.0173234,0.00984109,-0.917119,-0.00467297,1.44981e-06,0.398587,1.0,0.0,0.0,0.0,0
67674737,0.0191134,-0.0106644,0.0062285,-0.917089,-0.00433746,9.34077e-06,0.39866,1.0,0.0,0.0,0.0,0
67774738,0.0212605,-0.0046337,0.0102718,-0.917104,-0.00423052,0.000102515,0.398626,1.0,0.0,0.0,0.0,0
67874735,-0.0241326,-0.0202291,0.00883395,-0.917146,-0.00426603,0.000166524,0.398528,1.0,0.0,0.0,0.0,0
67978726,-0.0214872,0.00110562,-0.00805938,-0.917061,-0.00410353,0.000105895,0.398726,1.0,0.0,0.0,0.0,0
68080825,-0.0193814,0.0278334,0.00962971,-0.917002,-0.00414253,-0.000195568,0.39886,1.0,0.0,0.0,0.0,0
68182738,-0.00318087,-0.00209972,0.0164151,-0.916987,-0.00395455,-0.000202483,0.398897,1.0,0.0,0.0,0.0,0
68282738,0.00889232,-0.00723232,0.00764487,-0.917008,-0.00418568,0.000203302,0.398847,1.0,0.0,0.0,0.0,0
68382727,0.0076078,-0.0185488,-0.00235727,-0.916967,-0.00412617,0.000620158,0.39894,1.0,0.0,0.0,0.0,0
68486738,0.0148069,-0.00486449,0.0127596,-0.916949,-0.00436892,0.00060892,0.398981,1.0,0.0,0.0,0.0,0
68586732,0.0152156,-0.0137248,0.0011885,-0.916894,-0.00432422,0.000523373,0.399108,1.0,0.0,0.0,0.0,0
68686734,-0.0050494,-0.00516692,-0.0010649,-0.916834,-0.00437511,0.000338469,0.399244,1.0,0.0,0.0,0.0,0
68790848,-0.000566453,-0.00582493,-0.00493088,-0.916871,-0.00449044,0.000430151,0.399159,1.0,0.0,0.0,0.0,0
68890730,-0.00158854,-0.00673391,0.00111229,-0.916874,-0.00419609,0.000187878,0.399154,1.0,0.0,0.0,0.0,0
68994737,0.0178381,0.00572061,0.00581721,-0.916842,-0.00419252,0.000281663,0.399229,1.0,0.0,0.0,0.0,0
69094712,0.0070436,-0.018087,-0.00782937,-0.91684,-0.00409937,0.000240256,0.399234,1.0,0.0,0.0,0.0,0
69194714,-0.0187984,-0.0337723,0.0173733,-0.916974,-0.00440579,0.000527261,0.398923,1.0,0.0,0.0,0.0,0
69298711,-0.0151663,-0.00449373,0.0115678,-0.917034,-0.00440495,0.000520857,0.398785,1.0,0.0,0.0,0.0,0
69398726,-0.0128842,-0.00118199,-0.00929747,-0.917118,-0.00455387,0.000396473,0.39859,1.0,0.0,0.0,0.0,0
69497594,0.0102458,-0.00407695,0.00299969,-0.917116,-0.00464761,0.000479167,0.398593,1.0,0.0,0.0,0.0,0
69601193,0.00550827,-0.00236777,0.0136468,-0.917223,-0.00443195,0.000326113,0.39835,1.0,0.0,0.0,0.0,0
69705034,-0.0288745,0.00716598,-0.000959489,-0.91722,-0.00430834,0.000153436,0.398358,1.0,0.0,0.0,0.0,0
69806736,0.00420018,0.00484396,0.0136295,-0.917203,-0.00448577,0.000334644,0.398396,1.0,0.0,0.0,0.0,0
69906728,-0.0125604,0.0105412,0.00329615,-0.917157,-0.00465144,0.000370723,0.398499,1.0,0.0,0.0,0.0,0
70006729,-0.033435,-0.00793517,0.0119486,-0.917191,-0.00464545,0.000594084,0.398421,1.0,0.0,0.0,0.0,0
70110725,-0.0125238,-0.0219848,-0.00399243,-0.917174,-0.00487827,0.000590622,0.398457,1.0,0.0,0.0,0.0,0
70210727,0.00962847,0.0107996,0.00700145,-0.917141,-0.00480958,0.000583871,0.398533,1.0,0.0,0.0,0.0,0
70310899,0.0180833,0.0402086,-0.000647703,-0.917119,-0.00476975,0.000465514,0.398584,1.0,0.0,0.0,0.0,0
70414715,0.0118909,0.0363069,-0.00965991,-0.917193,-0.00497857,0.000109352,0.398412,1.0,0.0,0.0,0.0,0
70514725,-0.0334738,-0.0161967,0.0112305,-0.917227,-0.00486167,0.000372481,0.398336,1.0,0.0,0.0,0.0,0
70618735,-0.0175188,-0.0483855,0.0017132,-0.917329,-0.00459165,0.000800788,0.398102,1.0,0.0,0.0,0.0,0
70718838,0.0143338,0.0204986,-0.00114078,-0.917324,-0.00493704,0.000623023,0.398111,1.0,0.0,0.0,0.0,0
70818763,0.0163316,0.0652603,0.00135084,-0.917307,-0.00444461,0.00141423,0.398154,1.0,0.0,0.0,0.0,0
70922727,-0.000810064,0.100755,-0.0120154,-0.91729,-0.00420751,0.0019716,0.398192,1.0,0.0,0.0,0.0,0
71022722,-0.00994969,-0.00766094,-0.00523447,-0.917314,-0.00468249,0.00109845,0.398135,1.0,0.0,0.0,0.0,0
71122724,-0.0056388,-0.0344067,-0.00561502,-0.917284,-0.00498975,0.000362505,0.398203,1.0,0.0,0.0,0.0,0
71226717,-0.00211213,-0.0671765,0.00442518,-0.917259,-0.00500745,0.000213625,0.39826,1.0,0.0,0.0,0.0,0
71326712,0.0219885,-0.0751954,0.0184281,-0.917281,-0.0047537,7.5239e-05,0.398213,1.0,0.0,0.0,0.0,0
71422800,-0.00221012,-0.0442501,-0.007122,-0.917285,-0.00469507,-0.000410738,0.398204,1.0,0.0,0.0,0.0,0
71529103,0.0020382,-0.0135051,-0.00057409,-0.917326,-0.00467976,0.000196385,0.398109,1.0,0.0,0.0,0.0,0
71633174,0.000828187,-0.0245365,0.0302715,-0.917289,-0.00460285,0.00053971,0.398194,1.0,0.0,0.0,0.0,0
71734803,0.0059796,-0.0311274,0.00384222,-0.917373,-0.00454,0.000394875,0.398002,1.0,0.0,0.0,0.0,0
71834782,0.0134012,0.00266085,0.000340098,-0.917344,-0.00445358,9.52371e-05,0.39807,1.0,0.0,0.0,0.0,0
71934775,-0.0241063,0.0183576,-0.00777801,-0.917425,-0.00448375,0.000202986,0.397884,1.0,0.0,0.0,0.0,0
72038738,-0.0103788,0.00158377,-0.0112916,-0.917406,-0.004929,0.000177089,0.397922,1.0,0.0,0.0,0.0,0
72138715,-0.0336559,-0.0262449,-0.00186824,-0.91739,-0.00473164,0.000514556,0.39796,1.0,0.0,0.0,0.0,0
72242738,-0.0573451,-0.00874157,-0.00680508,-0.917452,-0.0041991,0.000646829,0.397825,1.0,0.0,0.0,0.0,0
72342756,0.0468538,-0.00263495,0.00119642,-0.917419,-0.00397091,0.000480286,0.397902,1.0,0.0,0.0,0.0,0
72442756,0.0911582,-0.0245851,0.00733438,-0.917412,-0.00442247,0.000762197,0.397913,1.0,0.0,0.0,0.0,0
72546725,0.0339423,0.0141691,0.0047451,-0.917354,-0.00512178,0.0010781,0.398039,1.0,0.0,0.0,0.0,0
72646726,0.0584627,0.00384856,-0.00149605,-0.917357,-0.0048855,0.000928866,0.398036,1.0,0.0,0.0,0.0,0
72746874,0.0172125,-0.0157327,0.0077042,-0.917342,-0.00486396,0.000846379,0.398069,1.0,0.0,0.0,0.0,0
72850952,0.0202057,-0.00682147,0.000937334,-0.917319,-0.00487824,0.000732253,0.398124,1.0,0.0,0.0,0.0,0
72950725,-0.00833737,-0.00650642,0.0157176,-0.917326,-0.0048821,0.0006697,0.398107,1.0,0.0,0.0,0.0,0
73054745,-0.0422982,0.00478692,-0.00397815,-0.917345,-0.00478457,0.000725777,0.398064,1.0,0.0,0.0,0.0,0
73154814,-0.0169294,0.0264523,0.00416568,-0.917364,-0.00439984,0.000597833,0.398024,1.0,0.0,0.0,0.0,0
73254725,-0.0147786,0.00316496,-0.00775906,-0.917464,-0.00423808,0.000388999,0.397796,1.0,0.0,0.0,0.0,0
73358727,-0.00428006,0.00492337,0.00694239,-0.917424,-0.00430863,0.000434288,0.397887,1.0,0.0,0.0,0.0,0
73458897,-0.0076757,0.00264803,-0.00817184,-0.917318,-0.00439003,0.000474414,0.398131,1.0,0.0,0.0,0.0,0
73557249,0.00857295,0.026831,0.00414716,-0.917321,-0.00418981,0.00082785,0.398126,1.0,0.0,0.0,0.0,0
73661118,0.000552805,-0.00846448,-0.0261971,-0.917247,-0.00416815,0.000666233,0.398297,1.0,0.0,0.0,0.0,0
73765123,-0.0170853,-0.0147446,0.025374,-0.917232,-0.00429343,0.000582091,0.398329,1.0,0.0,0.0,0.0,0
73866747,-0.0114358,-6.45579e-05,0.0111665,-0.917266,-0.00446393,0.000572792,0.39825,1.0,0.0,0.0,0.0,0
73966734,-0.000728178,-0.0021493,-0.0174383,-0.917362,-0.00455965,0.000829055,0.398027,1.0,0.0,0.0,0.0,0
74066733,0.0220338,-0.00445326,-0.00396308,-0.9174,-0.00418019,0.000830186,0.397943,1.0,0.0,0.0,0.0,0
74170737,0.00353507,0.0164227,-0.0227282,-0.917345,-0.0040174,0.000843727,0.398071,1.0,0.0,0.0,0.0,0
74270774,-0.0248888,-0.0170137,0.00726803,-0.917336,-0.00383355,0.000955218,0.398094,1.0,0.0,0.0,0.0,0
74370748,-0.0124352,-0.0228155,0.0019456,-0.917339,-0.0041728,0.000786347,0.398085,1.0,0.0,0.0,0.0,0
74474809,0.000223238,-0.0533165,-0.00778364,-0.917366,-0.00406786,0.00104843,0.398022,1.0,0.0,0.0,0.0,0
74574731,-0.00953187,-0.0748722,-0.00822842,-0.917425,-0.00384435,0.0013646,0.397888,1.0,0.0,0.0,0.0,0
74678741,0.00946979,-0.0381176,-0.00248032,-0.917428,-0.00409548,0.000742008,0.397881,1.0,0.0,0.0,0.0,0
74778737,0.0106481,-0.0114586,0.00805067,-0.917381,-0.00424891,0.000486175,0.397988,1.0,0.0,0.0,0.0,0
74878736,0.0272454,-0.0098565,-0.0201026,-0.917381,-0.00435164,0.000472468,0.397987,1.0,0.0,0.0,0.0,0
74982732,-0.021518,-0.000501214,-0.00818162,-0.917338,-0.00421921,0.000463038,0.398086,1.0,0.0,0.0,0.0,0
75083805,-0.00959461,-0.041088,0.0189602,-0.917329,-0.00412489,0.000481106,0.398109,1.0,0.0,0.0,0.0,0
75182744,-0.0106134,-0.00663104,-0.00999616,-0.917333,-0.0042063,0.000631362,0.398099,1.0,0.0,0.0,0.0,0
75286744,-0.000526249,0.0147207,-0.00877945,-0.917408,-0.00406341,0.000540293,0.397928,1.0,0.0,0.0,0.0,0
75386720,-0.0283805,0.0260249,-0.0122758,-0.917437,-0.0041749,0.000748033,0.397858,1.0,0.0,0.0,0.0,0
75490723,-0.0152222,0.0239752,-0.00161453,-0.917419,-0.00444695,0.000844547,0.397896,1.0,0.0,0.0,0.0,0
75590799,0.000953485,0.0182068,0.00763391,-0.91743,-0.00450087,0.000436371,0.397871,1.0,0.0,0.0,0.0,0
75689076,0.00417069,-0.0456069,-0.038738,-0.917464,-0.00445204,8.6005e-06,0.397795,1.0,0.0,0.0,0.0,0
75793050,-0.0201694,-0.065376,0.00551881,-0.917413,-0.00431393,-0.000204783,0.397913,1.0,0.0,0.0,0.0,0
75894727,-0.0124334,-0.0593056,-0.0206456,-0.917403,-0.00454847,-0.000291308,0.397934,1.0,0.0,0.0,0.0,0
75994733,-0.00794524,-0.0187194,-0.000156989,-0.917405,-0.00441608,0.000165187,0.39793,1.0,0.0,0.0,0.0,0
76098724,-0.0081654,-0.00738326,0.0031626,-0.917335,-0.00442009,0.000138993,0.398092,1.0,0.0,0.0,0.0,0
76198724,6.179e-05,0.0240767,-0.0105243,-0.917246,-0.00443126,0.000254131,0.398296,1.0,0.0,0.0,0.0,0
76302735,-0.0110896,0.00592218,0.0043269,-0.91721,-0.00440725,0.000326994,0.398378,1.0,0.0,0.0,0.0,0
76402736,0.0168274,0.00110533,-0.000710321,-0.91724,-0.00442041,0.000736843,0.398311,1.0,0.0,0.0,0.0,0
76502731,0.0104883,-0.00157778,0.0176941,-0.917255,-0.00447733,0.000831342,0.398273,1.0,0.0,0.0,0.0,0
76606804,0.0411148,-0.00320656,-0.0131271,-0.91729,-0.00460891,0.000830587,0.398193,1.0,0.0,0.0,0.0,0
76706726,-0.00759683,-0.00401241,-0.00919132,-0.917339,-0.00451846,0.000692463,0.398082,1.0,0.0,0.0,0.0,0
76806728,-0.0180221,-0.0060554,-0.000533691,-0.917327,-0.00458718,0.000332065,0.398107,1.0,0.0,0.0,0.0,0
76910760,-0.00183432,-0.0178185,0.00989106,-0.917368,-0.00438484,0.000276894,0.398017,1.0,0.0,0.0,0.0,0
77010728,0.00151467,0.0131702,-0.00466372,-0.917403,-0.004206,0.000390143,0.397936,1.0,0.0,0.0,0.0,0
77114738,-0.0172318,0.0106325,-0.0116516,-0.917358,-0.00418893,0.000511685,0.398041,1.0,0.0,0.0,0.0,0
77214725,-0.00701854,-0.000312211,-0.00633949,-0.917271,-0.0041856,0.000717981,0.398241,1.0,0.0,0.0,0.0,0
77314789,0.0349968,-0.0143429,-0.0110335,-0.917283,-0.00419116,0.000434705,0.398213,1.0,0.0,0.0,0.0,0
77418758,0.0382231,0.00192394,-0.00859963,-0.917286,-0.00411842,0.000364784,0.398208,1.0,0.0,0.0,0.0,0
77518712,0.0211166,-0.0193586,0.0183381,-0.917316,-0.00416323,0.000185841,0.398139,1.0,0.0,0.0,0.0,0
77618730,0.0308893,-0.0256274,0.00139946,-0.917263,-0.00431147,-0.000406328,0.398257,1.0,0.0,0.0,0.0,0
77722782,0.0250683,-0.021132,0.00101211,-0.91726,-0.00420166,-0.000539127,0.398267,1.0,0.0,0.0,0.0,0
77821228,0.0340712,0.0142819,0.00423093,-0.91724,-0.00400181,-1.49084e-05,0.398314,1.0,0.0,0.0,0.0,0
77925123,0.0381877,0.0413828,0.0117787,-0.917271,-0.00385162,0.000470083,0.398245,1.0,0.0,0.0,0.0,0
78026734,0.0152905,0.0124037,-0.00258451,-0.91725,-0.00384317,0.000701158,0.398293,1.0,0.0,0.0,0.0,0
78126729,-0.0298424,0.00262779,0.00282972,-0.9173,-0.00333196,0.000548087,0.398183,1.0,0.0,0.0,0.0,0
78230757,0.00531844,0.00441524,0.0174384,-0.917379,-0.00350168,0.00037267,0.398,1.0,0.0,0.0,0.0,0
78330725,-0.0284291,0.00887918,-0.00949018,-0.917433,-0.00331382,0.000188679,0.397877,1.0,0.0,0.0,0.0,0
78430737,-0.0701309,-0.0329528,-0.0118631,-0.91737,-0.0027095,0.000451539,0.398025,1.0,0.0,0.0,0.0,0
78534723,-0.00304907,0.00959004,3.7791e-05,-0.917383,-0.00303887,0.00055412,0.397995,1.0,0.0,0.0,0.0,0
78634724,-0.036856,0.00651819,-0.00981585,-0.917351,-0.0035169,0.000564648,0.398064,1.0,0.0,0.0,0.0,0
78734771,-0.119634,-0.0162951,-0.201043,-0.916213,-0.00356868,0.000636193,0.400674,1.0,0.0,0.0,0.0,0
78839726,0.0036871,-0.0138546,-0.466429,-0.907747,-0.00123929,0.00133195,0.419514,1.0,0.0,0.0,0.0,0
78938723,0.0196014,-0.00975292,-0.394876,-0.898741,-0.00249103,0.00158219,0.43847,1.0,0.0,0.0,0.0,0
79042759,0.00565777,0.0078479,-0.323835,-0.890441,-0.0037362,0.00185751,0.45508,1.0,0.0,0.0,0.0,0
79142744,0.000487193,-0.0340638,-0.226802,-0.884376,-0.0045313,0.00272607,0.466745,1.0,0.0,0.0,0.0,0
79242738,0.0175798,-0.0180022,-0.130586,-0.880388,-0.00494583,0.00372227,0.474213,1.0,0.0,0.0,0.0,0
79346727,-0.0357703,0.00200593,-0.0565656,-0.877993,-0.00438641,0.00230452,0.478648,1.0,0.0,0.0,0.0,0
79446724,0.00273066,0.020023,-0.0138461,-0.876837,-0.00393222,0.00101284,0.480771,1.0,0.0,0.0,0.0,0
79550721,-0.0107779,0.00139234,0.0236832,-0.876935,-0.0036274,0.000595504,0.480596,1.0,0.0,0.0,0.0,0
79650717,-0.0024062,0.0134052,0.0460767,-0.877878,-0.00360958,0.000324668,0.478871,1.0,0.0,0.0,0.0,0
79750731,-0.0130187,0.0227338,0.0584232,-0.879351,-0.00345319,0.000121145,0.476161,1.0,0.0,0.0,0.0,0
79854802,-0.00407142,0.0254579,0.0335632,-0.880911,-0.00347975,8.34599e-05,0.47327,1.0,0.0,0.0,0.0,0
79953640,-0.018957,0.01058,-0.226628,-0.877904,-0.00296053,0.000471358,0.478828,1.0,0.0,0.0,0.0,0
80057231,0.0120989,-0.0181646,-0.213078,-0.872163,-0.00315636,0.000796304,0.489205,1.0,0.0,0.0,0.0,0
80158760,0.00358854,0.00363217,-0.189378,-0.867022,-0.00308099,0.000612491,0.49826,1.0,0.0,0.0,0.0,0
80258727,0.00523174,-0.00794355,-0.14303,-0.862733,-0.00307786,0.0009852,0.505649,1.0,0.0,0.0,0.0,0
80362736,-0.0132736,-0.00135808,-0.110978,-0.859211,-0.0029021,0.00124147,0.511612,1.0,0.0,0.0,0.0,0
80462827,0.00820081,-0.0200637,-0.0628596,-0.857018,-0.00272311,0.00121738,0.515277,1.0,0.0,0.0,0.0,0
80562744,-0.0238156,-0.00140816,-0.0307771,-0.85571,-0.00259442,0.00118392,0.517448,1.0,0.0,0.0,0.0,0
80666751,-0.0111682,-0.000330619,0.00400455,-0.855174,-0.00246993,0.000744397,0.518335,1.0,0.0,0.0,0.0,0
80766890,0.013684,0.00483175,0.0158262,-0.855133,-0.0023593,0.000393412,0.518403,1.0,0.0,0.0,0.0,0
80866749,0.00796879,-0.0126246,0.0292558,-0.855408,-0.00239116,7.55332e-05,0.517949,1.0,0.0,0.0,0.0,0
80966778,-0.00424013,0.00732473,0.0282562,-0.85595,-0.00224048,0.000181703,0.517054,1.0,0.0,0.0,0.0,0
81070800,-0.00469165,0.0230519,0.0454099,-0.85683,-0.00215783,9.65866e-05,0.515595,1.0,0.0,0.0,0.0,0
81174752,-0.00177123,0.027245,0.0476462,-0.858432,-0.00213229,-0.000212362,0.512923,1.0,0.0,0.0,0.0,0
81274748,-0.033613,0.0102242,0.0829758,-0.860137,-0.00215828,-9.36582e-05,0.510059,1.0,0.0,0.0,0.0,0
81374730,-0.0064223,-0.0162805,0.0555694,-0.86179,-0.0022721,-2.82053e-05,0.50726,1.0,0.0,0.0,0.0,0
81478766,0.0219221,-0.02711,0.0452994,-0.863292,-0.0024456,-7.84443e-05,0.504699,1.0,0.0,0.0,0.0,0
81578722,-0.00380276,-0.0273346,0.0525297,-0.864448,-0.00259325,0.000128395,0.502715,1.0,0.0,0.0,0.0,0
81678743,-0.00389102,-0.00171537,0.0277515,-0.865359,-0.00240214,0.000163368,0.501146,1.0,0.0,0.0,0.0,0
81782762,-0.00686536,0.012337,0.0258476,-0.866019,-0.00235746,8.47897e-05,0.500005,1.0,0.0,0.0,0.0,0
81882895,-0.00749334,0.00429263,0.00372375,-0.866237,-0.00226595,3.79492e-06,0.499629,1.0,0.0,0.0,0.0,0
81986723,-0.00278904,-0.016078,0.00268841,-0.866212,-0.00230433,0.000177367,0.499672,1.0,0.0,0.0,0.0,0
82085609,-0.00439015,-0.00825095,-0.00239623,-0.86612,-0.00222037,0.000211011,0.49983,1.0,0.0,0.0,0.0,0
82189116,0.00522418,0.00872669,0.0101119,-0.866066,-0.00223723,0.000116408,0.499925,1.0,0.0,0.0,0.0,0
82290722,-0.0101468,-0.0124704,0.0100012,-0.866085,-0.00216279,7.20225e-05,0.499893,1.0,0.0,0.0,0.0,0
82390847,-0.00353702,-0.0162193,0.00197843,-0.866098,-0.00201642,-4.41765e-05,0.49987,1.0,0.0,0.0,0.0,0
82490858,0.00472337,0.0156884,0.00424735,-0.866094,-0.00198026,-0.000205403,0.499877,1.0,0.0,0.0,0.0,0
82594726,0.00808475,0.0127127,0.0132208,-0.866143,-0.00204947,-0.000265095,0.499793,1.0,0.0,0.0,0.0,0
82694728,0.003407,-0.00359107,-0.00206935,-0.86612,-0.00204609,-0.000293355,0.499832,1.0,0.0,0.0,0.0,0
82798776,-0.0146741,-0.00743165,-0.0137013,-0.866105,-0.00177371,-0.00042257,0.499859,1.0,0.0,0.0,0.0,0
82898727,-0.00468926,-0.0116378,-0.00694805,-0.866034,-0.00163418,-0.000351619,0.499982,1.0,0.0,0.0,0.0,0
82998760,-0.0103657,-0.0149779,0.0143934,-0.865945,-0.00133445,-0.000289611,0.500137,1.0,0.0,0.0,0.0,0
83102759,0.00816318,0.0071753,-0.0059131,-0.865837,-0.00124521,-0.000256806,0.500325,1.0,0.0,0.0,0.0,0
83202735,0.0149369,-0.00413516,-0.00787386,-0.865767,-0.000994239,-0.000325608,0.500446,1.0,0.0,0.0,0.0,0
83302831,0.00416795,-0.00177174,0.00339608,-0.865715,-0.000843537,-0.000379901,0.500537,1.0,0.0,0.0,0.0,0
83406793,-0.0193484,-0.0106279,0.00868886,-0.865772,-0.000608251,-0.00050882,0.500439,1.0,0.0,0.0,0.0,0
83506723,-0.00229472,-0.00782443,-0.00688796,-0.865759,-0.000449221,-0.000442766,0.500461,1.0,0.0,0.0,0.0,0
83610734,0.00435077,0.000124473,0.00109941,-0.865734,-0.000303323,-0.000469718,0.500504,1.0,0.0,0.0,0.0,0
83710727,0.00193839,-0.00240861,0.0154742,-0.865823,-0.000272319,-0.000538901,0.50035,1.0,0.0,0.0,0.0,0
83810714,0.00186035,0.0096297,-0.00767335,-0.865809,-0.000221413,-0.000524832,0.500375,1.0,0.0,0.0,0.0,0
83914778,0.00675878,-0.0104755,-0.00705448,-0.865904,-0.000285765,-0.000563826,0.50021,1.0,0.0,0.0,0.0,0
84014693,-0.0149959,0.00600735,0.00480403,-0.865882,-0.000111941,-0.000771357,0.500248,1.0,0.0,0.0,0.0,0
84113275,-0.0088007,-0.00202108,-0.00985123,-0.865914,6.10466e-05,-0.000817287,0.500193,1.0,0.0,0.0,0.0,0
84217465,-0.00228293,-0.0121176,0.00377986,-0.865863,6.78277e-05,-0.00081274,0.500281,1.0,0.0,0.0,0.0,0
84321134,-0.00479071,0.00675749,0.00689883,-0.865876,7.79389e-05,-0.000703562,0.500258,1.0,0.0,0.0,0.0,0
84422715,-0.00285439,0.00146216,-0.00921692,-0.865824,0.000157606,-0.00083051,0.500348,1.0,0.0,0.0,0.0,0
84522737,0.00386475,0.000558667,-0.00503355,-0.865788,0.000293916,-0.000991223,0.50041,1.0,0.0,0.0,0.0,0
84622737,-0.00118075,-0.00981302,0.00428004,-0.865718,0.000480711,-0.000949611,0.500531,1.0,0.0,0.0,0.0,0
84726783,-0.00188969,-0.0113858,-0.00192169,-0.865643,0.000489136,-0.000764709,0.500662,1.0,0.0,0.0,0.0,0
84826781,0.00887029,-0.0182396,-0.00929823,-0.865647,0.000401441,-0.000604202,0.500654,1.0,0.0,0.0,0.0,0
