timestamp,rollspeed,pitchspeed,yawspeed,q[0],q[1],q[2],q[3],delta_q_reset[0],delta_q_reset[1],delta_q_reset[2],delta_q_reset[3],quat_reset_counter
107731730,-0.0198571,0.00560234,0.00716825,0.99998,-0.000966467,-9.98427e-05,0.00627085,1.0,0.0,0.0,0.0,0
107762594,-0.0130052,-0.00307546,0.00937772,0.99998,-0.0010096,-0.000109387,0.00625776,1.0,0.0,0.0,0.0,0
107792732,0.00322439,0.00942046,0.0163524,0.99998,-0.00107017,-5.17116e-05,0.00625027,1.0,0.0,0.0,0.0,0
107824797,0.000173523,-0.00170218,-0.00472632,0.99998,-0.00105796,4.00097e-05,0.0061873,1.0,0.0,0.0,0.0,0
107856895,0.0106142,-0.00367192,0.0106131,0.99998,-0.00109512,-2.34542e-05,0.00618234,1.0,0.0,0.0,0.0,0
107887766,0.00519502,-0.00872836,0.00743991,0.999981,-0.00107369,2.79877e-05,0.00613257,1.0,0.0,0.0,0.0,0
107915723,0.0105555,-0.00532726,-0.00790964,0.999981,-0.00103608,1.79644e-05,0.00616894,1.0,0.0,0.0,0.0,0
107951878,0.00374884,0.00676689,0.013899,0.99998,-0.00108222,6.54722e-05,0.00616876,1.0,0.0,0.0,0.0,0
107980759,0.0119024,-0.0031634,-0.0132137,0.999981,-0.000992343,0.000108417,0.00616026,1.0,0.0,0.0,0.0,0
108011756,-0.00099039,0.0180025,0.0146319,0.999981,-0.000999081,0.000134224,0.00611409,1.0,0.0,0.0,0.0,0
108044734,-0.0184115,0.0245048,0.0116588,0.999982,-0.00101317,0.00025885,0.00600631,1.0,0.0,0.0,0.0,0
108074743,0.0079164,0.0050757,-0.0152376,0.999981,-0.00100013,0.000275434,0.00602147,1.0,0.0,0.0,0.0,0
108108745,0.00328418,-0.00450616,-0.00392399,0.999982,-0.00101556,0.000381501,0.00595671,1.0,0.0,0.0,0.0,0
108140733,-0.0126472,0.00604834,0.00430735,0.999982,-0.00106909,0.000410661,0.00596273,1.0,0.0,0.0,0.0,0
108172773,-0.00381279,-0.0186374,-0.00579895,0.999982,-0.00113666,0.000249875,0.00592065,1.0,0.0,0.0,0.0,0
108199743,0.0117155,0.00563742,0.00712264,0.999982,-0.00115531,0.000260336,0.00591941,1.0,0.0,0.0,0.0,0
108235743,-0.00143994,-0.00144485,-0.0199805,0.999983,-0.00118112,0.000274107,0.00578016,1.0,0.0,0.0,0.0,0
108264745,-0.00220049,0.00141411,0.0142509,0.999982,-0.00122823,0.000372382,0.00582322,1.0,0.0,0.0,0.0,0
108297761,-0.00162475,0.00734805,0.00138698,0.999982,-0.00110095,0.0003566,0.00582751,1.0,0.0,0.0,0.0,0
108327726,-0.018656,-0.00638885,-0.00143207,0.999983,-0.00120646,0.000355538,0.00574976,1.0,0.0,0.0,0.0,0
108360757,-0.00638275,0.0061181,-0.0107006,0.999983,-0.00114396,0.0002793,0.00569376,1.0,0.0,0.0,0.0,0
108392745,0.0097791,0.00012291,0.00695273,0.999983,-0.00116104,0.000307095,0.00574629,1.0,0.0,0.0,0.0,0
108423772,-0.00708483,0.00684331,-0.0100185,0.999983,-0.00119328,0.000305191,0.00575059,1.0,0.0,0.0,0.0,0
108455790,0.00790154,0.0245739,-0.00205148,0.999983,-0.00126803,0.000405085,0.00567287,1.0,0.0,0.0,0.0,0
108484830,0.0112706,-0.00709188,0.000956691,0.999983,-0.00125527,0.000405245,0.00561075,1.0,0.0,0.0,0.0,0
108515743,0.00998403,-0.00580231,-0.00825606,0.999984,-0.00118991,0.000425156,0.00557966,1.0,0.0,0.0,0.0,0
108547732,0.0036952,-0.0040158,0.0161046,0.999983,-0.00131789,0.000448497,0.00561654,1.0,0.0,0.0,0.0,0
108579733,-0.00785883,-0.0166302,0.0296394,0.999983,-0.0013792,0.000416441,0.00564285,1.0,0.0,0.0,0.0,0
108612744,0.0138265,0.0153823,-0.00447061,0.999983,-0.00128081,0.000449517,0.00568556,1.0,0.0,0.0,0.0,0
108644732,0.0215003,-0.0019212,-0.0223166,0.999983,-0.00126313,0.000380425,0.00568387,1.0,0.0,0.0,0.0,0
108675974,0.00341888,-0.0106335,0.000736009,0.999983,-0.00127146,0.00033441,0.0057559,1.0,0.0,0.0,0.0,0
108703737,-0.0123748,-0.000623104,-0.00133306,0.999983,-0.00122859,0.000368685,0.00572756,1.0,0.0,0.0,0.0,0
108735721,-0.00219485,-0.00339581,0.0134975,0.999983,-0.00124901,0.000360254,0.00571768,1.0,0.0,0.0,0.0,0
108768738,0.00602561,-0.00839442,-0.00880108,0.999983,-0.00121714,0.00039326,0.00570504,1.0,0.0,0.0,0.0,0
108802759,-0.00190593,0.00428444,-0.0167104,0.999983,-0.00120746,0.000371375,0.0057172,1.0,0.0,0.0,0.0,0
108832756,0.0129109,-0.0104473,0.00585306,0.999983,-0.00120935,0.00045134,0.00571689,1.0,0.0,0.0,0.0,0
108864750,0.0100577,0.00632689,0.0128077,0.999983,-0.00114801,0.000515361,0.00567663,1.0,0.0,0.0,0.0,0
108896895,0.00430733,-0.000685305,-0.00295661,0.999983,-0.00105288,0.00049133,0.00570351,1.0,0.0,0.0,0.0,0
108924744,0.00652775,-0.0147484,0.00240212,0.999983,-0.00107039,0.000394317,0.00573439,1.0,0.0,0.0,0.0,0
108958988,0.0041924,-0.000550983,-0.0101864,0.999983,-0.000998721,0.000309202,0.00567593,1.0,0.0,0.0,0.0,0
108991741,0.000840238,0.00725957,-0.0110235,0.999984,-0.00106797,0.00045014,0.00562645,1.0,0.0,0.0,0.0,0
109020726,0.0145948,-0.00234242,0.00966312,0.999983,-0.00102351,0.000356188,0.00565711,1.0,0.0,0.0,0.0,0
109052732,-0.000926893,0.00251915,-0.0141138,0.999984,-0.00101718,0.000364513,0.00563802,1.0,0.0,0.0,0.0,0
109084783,-0.0135311,0.00204398,-0.00440413,0.999983,-0.00106167,0.000359673,0.00565403,1.0,0.0,0.0,0.0,0
109115127,0.0093272,0.0120166,0.0002021,0.999983,-0.000927343,0.000451692,0.00569011,1.0,0.0,0.0,0.0,0
109147766,-0.00449171,0.00740473,-0.0131236,0.999983,-0.00104534,0.000460347,0.00564566,1.0,0.0,0.0,0.0,0
109176727,0.00474233,0.00323258,0.0136406,0.999984,-0.000990915,0.000536438,0.00561526,1.0,0.0,0.0,0.0,0
109207817,0.00510673,-0.00845198,-0.00897285,0.999984,-0.000978496,0.000420337,0.0055691,1.0,0.0,0.0,0.0,0
109240771,0.00377032,-0.00810156,-0.0109595,0.999985,-0.000971179,0.000448213,0.00546704,1.0,0.0,0.0,0.0,0
109270837,-0.0164745,0.00039299,-0.00671274,0.999985,-0.000964479,0.000487602,0.00536401,1.0,0.0,0.0,0.0,0
109304734,-0.0166391,-0.0130126,-0.00681205,0.999985,-0.000943308,0.000471811,0.00537097,1.0,0.0,0.0,0.0,0
109335731,0.0325645,0.00571744,0.012196,0.999985,-0.000790741,0.000467493,0.00536866,1.0,0.0,0.0,0.0,0
109368784,-0.0146238,-0.0179952,-0.0192319,0.999986,-0.000746938,0.000390892,0.00528891,1.0,0.0,0.0,0.0,0
109399739,0.0163486,-0.00429421,-0.00179077,0.999986,-0.000322094,0.000234949,0.00529549,1.0,0.0,0.0,0.0,0
109430631,-0.00284479,0.000577388,-0.0210406,0.999986,-0.000479678,9.134e-05,0.00532821,1.0,0.0,0.0,0.0,0
109463728,0.00246213,-0.0136983,0.000321126,0.999986,-6.62927e-05,0.000162583,0.00538131,1.0,0.0,0.0,0.0,0
109492968,0.0157674,-0.00617238,0.00115368,0.999986,5.37748e-05,5.01226e-05,0.0053296,1.0,0.0,0.0,0.0,0
109524737,0.00121327,-0.00461751,0.0135488,0.999986,-0.000168019,7.97393e-05,0.0052611,1.0,0.0,0.0,0.0,0
109552092,0.00955304,-0.0182426,0.0108805,0.999987,0.000109282,-3.30469e-05,0.00520422,1.0,0.0,0.0,0.0,0
109586704,0.0178888,0.000523167,-0.00135222,0.999986,0.00012252,-5.30564e-05,0.00525478,1.0,0.0,0.0,0.0,0
109620755,-0.0389614,-0.0133885,-0.000272983,0.999986,0.000197329,-0.000387735,0.00531807,1.0,0.0,0.0,0.0,0
109652724,0.0287858,0.0157745,0.00143833,0.999986,0.000287653,-0.00012255,0.00534043,1.0,0.0,0.0,0.0,0
109680737,-0.00864105,-0.00286725,-0.00941586,0.999986,0.000107143,-0.000346808,0.00533639,1.0,0.0,0.0,0.0,0
109715878,-0.0241921,-0.0315844,-0.00348776,0.999985,0.000146037,-0.00037835,0.00542933,1.0,0.0,0.0,0.0,0
109747012,0.0388014,0.0136981,-0.00627191,0.999985,-4.5863e-05,-0.000361794,0.00548222,1.0,0.0,0.0,0.0,0
109776739,-0.0534119,-0.00459699,0.00876983,0.999985,-0.000144298,-0.0004126,0.00543834,1.0,0.0,0.0,0.0,0
109808838,0.0427973,-0.0113247,0.0151503,0.999985,-2.9649e-05,-0.000334955,0.00546102,1.0,0.0,0.0,0.0,0
109839734,-0.0286096,0.0314197,-0.0110182,0.999984,-0.00036038,-0.000197515,0.00557549,1.0,0.0,0.0,0.0,0
109872770,-0.0309868,-0.00268926,0.0140577,0.999984,-0.000179012,-0.000153328,0.00571558,1.0,0.0,0.0,0.0,0
109903820,0.0544997,0.00926408,-0.00731602,0.999983,-0.000296794,-3.07267e-05,0.00580971,1.0,0.0,0.0,0.0,0
109932732,-0.0423967,-0.0178634,-0.00782918,0.999983,-0.000160796,-0.000135059,0.0057871,1.0,0.0,0.0,0.0,0
109967737,0.0356575,-0.000313435,0.000641812,0.999983,-0.000337384,-3.71006e-05,0.00591516,1.0,0.0,0.0,0.0,0
109999730,0.00371182,0.00850244,-0.00143741,0.999983,-0.000488537,-0.000141902,0.00584914,1.0,0.0,0.0,0.0,0
110027742,-0.00380561,-0.014828,-0.00865245,0.999983,-0.000275788,-8.81626e-05,0.00585253,1.0,0.0,0.0,0.0,0
110060754,0.0433644,0.00143904,0.00909764,0.999983,-0.000277448,-9.80099e-05,0.00588634,1.0,0.0,0.0,0.0,0
110092772,-0.0105152,0.00123178,0.00238202,0.999982,-0.00034674,1.28558e-05,0.0059251,1.0,0.0,0.0,0.0,0
110124754,0.0281715,0.00792173,0.0011192,0.999982,0.000211081,-0.000188671,0.00598839,1.0,0.0,0.0,0.0,0
110156741,-0.00630051,0.00437523,0.0170851,0.999982,-0.000343968,0.0001693,0.00604212,1.0,0.0,0.0,0.0,0
110187870,-0.0381137,0.0310214,-0.00739443,0.999981,-2.34603e-05,-4.98818e-06,0.00613613,1.0,0.0,0.0,0.0,0
110215735,0.0457761,-0.0106097,0.00267104,0.999981,-0.000422185,0.000251424,0.00618573,1.0,0.0,0.0,0.0,0
110248780,-0.033897,0.0234387,0.0123895,0.99998,-0.000326644,0.000157602,0.00631469,1.0,0.0,0.0,0.0,0
110280735,0.0140648,-0.0244081,0.0237981,0.999978,1.88032e-05,0.000182849,0.00663055,1.0,0.0,0.0,0.0,0
110312732,0.0194703,0.0208798,0.0455793,0.999975,-0.0001593,6.07143e-06,0.00712988,1.0,0.0,0.0,0.0,0
110344789,-0.024055,-0.0297534,0.0322988,0.99997,-9.6733e-05,-0.000128231,0.00773247,1.0,0.0,0.0,0.0,0
110374769,0.0470355,0.0147088,0.0494262,0.999965,6.49167e-05,-0.000110889,0.00833132,1.0,0.0,0.0,0.0,0
110407905,-0.0160802,-0.00721383,0.0351157,0.99996,-0.000163944,-0.000478043,0.00898816,1.0,0.0,0.0,0.0,0
110436743,-0.00114847,0.00189166,0.0393737,0.999954,0.000397167,-0.000193368,0.00961726,1.0,0.0,0.0,0.0,0
110470966,0.0198697,0.0138943,0.0308413,0.999947,-0.000142327,-0.000596755,0.0102905,1.0,0.0,0.0,0.0,0
110500772,-0.0549539,-0.045714,0.0327127,0.999941,-0.000223658,-0.000739044,0.0108827,1.0,0.0,0.0,0.0,0
110531757,0.0397045,0.0349644,0.0301323,0.999934,-0.000328121,-0.000523597,0.0115028,1.0,0.0,0.0,0.0,0
110563865,-0.0316063,-0.0152236,0.0271301,0.999926,-0.000744108,-0.000775519,0.0121423,1.0,0.0,0.0,0.0,0
110596918,0.0118787,-0.0120977,0.0226636,0.999921,-0.000182562,-0.000332184,0.0125773,1.0,0.0,0.0,0.0,0
110626938,0.0227537,0.0239623,0.0185725,0.999916,-0.00060195,-0.000519343,0.012907,1.0,0.0,0.0,0.0,0
110660743,-0.026717,-0.0398544,0.0121072,0.999912,-0.000463969,-0.000578665,0.0132687,1.0,0.0,0.0,0.0,0
110692766,0.0167077,0.0158641,0.0229974,0.999906,-0.000566621,-0.000563362,0.0136723,1.0,0.0,0.0,0.0,0
110720754,0.0127848,-0.0327889,0.0280894,0.999901,-0.000603418,-0.00084212,0.0140596,1.0,0.0,0.0,0.0,0
110755747,0.00969495,0.00183402,0.0361432,0.999897,-0.000385842,-0.000566446,0.0143126,1.0,0.0,0.0,0.0,0
110782876,0.00239144,0.0146073,0.0112276,0.999894,-0.000373979,-0.000693332,0.0145451,1.0,0.0,0.0,0.0,0
110816867,-0.0141095,-0.00852185,-0.0101089,0.999893,-0.000241776,-0.000380338,0.0146565,1.0,0.0,0.0,0.0,0
110848773,0.0111299,0.0284058,0.0141702,0.99989,6.05565e-05,-0.000333226,0.0148644,1.0,0.0,0.0,0.0,0
110880879,-0.00927954,-0.0174882,0.0258701,0.999888,-0.000124955,-5.04667e-05,0.0149868,1.0,0.0,0.0,0.0,0
110912755,-0.0193815,0.0364868,0.0129628,0.999887,-8.17279e-07,9.03642e-05,0.0150403,1.0,0.0,0.0,0.0,0
110938913,0.0207661,-0.0134546,-0.000267933,0.999886,-0.000143033,0.000264699,0.0151117,1.0,0.0,0.0,0.0,0
110972747,-0.0223122,0.0558854,0.0054003,0.999885,-0.000160362,0.000437658,0.0151864,1.0,0.0,0.0,0.0,0
111003864,0.0155386,-0.0396107,0.0120921,0.999884,1.16562e-05,0.000205446,0.0152344,1.0,0.0,0.0,0.0,0
111036062,-0.0156486,0.0339736,-0.0114686,0.999886,-0.000263795,0.000670785,0.0151016,1.0,0.0,0.0,0.0,0
111067729,0.00176387,0.00933446,0.0112219,0.999887,-3.08717e-05,0.000520923,0.01504,1.0,0.0,0.0,0.0,0
111100788,0.0159735,-0.0143601,-0.0261767,0.999889,-0.000130293,0.000717658,0.0148944,1.0,0.0,0.0,0.0,0
111132739,-0.00882556,-0.0189914,0.00170667,0.999889,-5.57179e-05,0.000713372,0.0148622,1.0,0.0,0.0,0.0,0
111164757,0.00495392,-0.0176784,-0.00300535,0.99989,-2.11124e-05,0.000285899,0.014828,1.0,0.0,0.0,0.0,0
111192741,-0.0130869,-0.0127247,-0.00806495,0.99989,-0.000179843,0.000489467,0.0148022,1.0,0.0,0.0,0.0,0
111227739,-0.141513,0.049832,-0.00249176,0.999892,-0.00134809,4.83749e-05,0.0146509,1.0,0.0,0.0,0.0,0
111255736,-0.227039,-0.0579721,-0.00306541,0.999887,-0.00393941,0.000168569,0.0145007,1.0,0.0,0.0,0.0,0
111288736,-0.539711,0.0442896,-0.000277623,0.999846,-0.0100255,-3.18205e-06,0.0144065,1.0,0.0,0.0,0.0,0
111320733,-0.760968,-0.0108292,-0.00188236,0.999664,-0.0216004,-0.000309093,0.0143291,1.0,0.0,0.0,0.0,0
111352767,-1.15943,0.0168268,-0.00683547,0.999249,-0.0360449,-0.000234947,0.0142504,1.0,0.0,0.0,0.0,0
111384736,-1.11783,0.013023,-0.00672427,0.998351,-0.0556118,-0.000820364,0.0142355,1.0,0.0,0.0,0.0,0
111412764,-1.52018,-0.0117959,0.0110017,0.997184,-0.0736278,-0.000586015,0.0142355,1.0,0.0,0.0,0.0,0
111448780,-1.11194,0.00427266,-0.00746549,0.995136,-0.0974895,-0.00126444,0.0140684,1.0,0.0,0.0,0.0,0
111479894,-1.16634,-0.00651835,-0.0170894,0.993111,-0.116332,-0.00151453,0.0139698,1.0,0.0,0.0,0.0,0
111510967,-0.839592,0.0104939,0.000239577,0.991396,-0.130136,-0.0017486,0.0139613,1.0,0.0,0.0,0.0,0
111540773,-0.619696,-0.019523,0.000298915,0.989777,-0.141914,-0.0021763,0.0140727,1.0,0.0,0.0,0.0,0
111572803,-0.50661,-0.0225786,-0.0041487,0.988627,-0.149704,-0.00234736,0.0141218,1.0,0.0,0.0,0.0,0
111603724,-0.176859,0.00121307,-0.000409524,0.987691,-0.155737,-0.00277053,0.0142865,1.0,0.0,0.0,0.0,0
111636859,-0.199081,-0.0154664,0.0103977,0.987256,-0.158466,-0.00307615,0.0142821,1.0,0.0,0.0,0.0,0
111666817,0.0960777,0.0109323,0.0080418,0.987246,-0.158522,-0.00292671,0.0143933,1.0,0.0,0.0,0.0,0
111700775,-0.0295543,-0.0250564,0.010405,0.987151,-0.159099,-0.00292553,0.0145266,1.0,0.0,0.0,0.0,0
111728734,0.307291,0.0119489,-0.00921959,0.987684,-0.155751,-0.00280323,0.0146153,1.0,0.0,0.0,0.0,0
111760770,0.351703,0.00106062,0.0105777,0.988231,-0.152225,-0.00278537,0.0147877,1.0,0.0,0.0,0.0,0
111792736,0.414126,-0.014596,0.00933611,0.989377,-0.144593,-0.00251032,0.0148056,1.0,0.0,0.0,0.0,0
111822891,0.970427,0.0224323,0.0123999,0.990687,-0.13532,-0.00245627,0.0148911,1.0,0.0,0.0,0.0,0
111856780,1.0881,-0.01062,0.00277687,0.992846,-0.118439,-0.00225188,0.0149334,1.0,0.0,0.0,0.0,0
111888780,1.61103,0.0256614,-0.00759936,0.995409,-0.0944849,-0.00162992,0.0151985,1.0,0.0,0.0,0.0,0
111919733,1.27966,-0.00364452,0.000924858,0.997055,-0.0751194,-0.00145664,0.0153511,1.0,0.0,0.0,0.0,0
111952768,0.907175,-0.0279918,0.00699712,0.998398,-0.0544362,-0.000897247,0.0154314,1.0,0.0,0.0,0.0,0
111983832,1.12014,0.0653765,-0.00835912,0.999041,-0.040905,-0.000703075,0.0155916,1.0,0.0,0.0,0.0,0
112012775,0.352725,-0.0771497,0.0196486,0.999431,-0.0298427,-0.000634093,0.0157349,1.0,0.0,0.0,0.0,0
112044735,0.805621,0.060603,-0.00705432,0.999645,-0.0213994,-0.000586857,0.0158402,1.0,0.0,0.0,0.0,0
112076738,0.143905,-0.060403,-0.0144071,0.999756,-0.015329,-0.000708347,0.0158751,1.0,0.0,0.0,0.0,0
112107874,0.283394,0.00904668,-0.0127076,0.999834,-0.0088456,-0.00017243,0.0159091,1.0,0.0,0.0,0.0,0
112140734,0.17949,-0.0111596,-0.00771779,0.99984,-0.00831432,-0.000849427,0.0158286,1.0,0.0,0.0,0.0,0
112171788,0.0961312,-0.024621,0.00138462,0.999869,-0.00356092,-0.000552111,0.0158134,1.0,0.0,0.0,0.0,0
112203873,0.811103,0.0525854,0.00120017,0.999875,0.00141191,-0.000903143,0.0157484,1.0,0.0,0.0,0.0,0
112235742,0.749643,-0.0278981,-0.0103406,0.999745,0.0162172,-1.06238e-05,0.0157162,1.0,0.0,0.0,0.0,0
112267744,1.58069,0.0273186,-0.00512724,0.999294,0.0341071,-0.000193119,0.0157751,1.0,0.0,0.0,0.0,0
112296733,1.55448,-0.018761,0.00505402,0.998229,0.0573492,0.000674303,0.0158134,1.0,0.0,0.0,0.0,0
112327725,2.35195,0.0250713,0.0065166,0.995939,0.0886298,0.00107022,0.0157821,1.0,0.0,0.0,0.0,0
112360773,2.21614,0.0187802,-0.00538306,0.99199,0.125303,0.00219046,0.0158086,1.0,0.0,0.0,0.0,0
112392894,2.26459,0.156876,-0.00535286,0.986439,0.163293,0.00446677,0.0159463,1.0,0.0,0.0,0.0,0
112424736,1.99145,0.292891,0.019885,0.980599,0.195161,0.0083785,0.016354,1.0,0.0,0.0,0.0,0
112455736,1.5338,0.350484,-0.0121804,0.974678,0.222542,0.0138236,0.0169516,1.0,0.0,0.0,0.0,0
112484768,1.3046,0.377739,-0.0234169,0.969995,0.241695,0.0194727,0.017716,1.0,0.0,0.0,0.0,0
112515727,0.912821,0.343106,-0.0261345,0.965451,0.258722,0.02507,0.0184326,1.0,0.0,0.0,0.0,0
112550622,0.797091,0.19198,-0.0159508,0.961524,0.272395,0.0301751,0.019038,1.0,0.0,0.0,0.0,0
112579954,0.404401,0.129344,-0.0298744,0.959112,0.280532,0.0323259,0.0190261,1.0,0.0,0.0,0.0,0
112612925,0.418073,-0.155214,-0.0174025,0.957062,0.287493,0.032319,0.018328,1.0,0.0,0.0,0.0,0
112644733,0.128306,-0.165212,-0.0191179,0.956228,0.290554,0.0301114,0.0173302,1.0,0.0,0.0,0.0,0
112676757,-0.0498813,-0.305033,-0.0198237,0.955947,0.29197,0.0258834,0.0157997,1.0,0.0,0.0,0.0,0
112703782,-0.34089,-0.215,-0.0274266,0.956997,0.2888,0.0230069,0.014895,1.0,0.0,0.0,0.0,0
112735722,-0.478782,-0.28483,-0.0014114,0.958758,0.283301,0.0183552,0.0136462,1.0,0.0,0.0,0.0,0
112768854,-0.570176,-0.22599,-0.000159341,0.961549,0.273923,0.0150004,0.012849,1.0,0.0,0.0,0.0,0
112800765,-0.675734,-0.132658,0.000939751,0.964112,0.264984,0.011325,0.0119962,1.0,0.0,0.0,0.0,0
112832736,-0.686139,-0.171142,0.0134399,0.967076,0.254031,0.00959654,0.0118785,1.0,0.0,0.0,0.0,0
112863009,-1.3458,-0.00105287,0.0197168,0.970712,0.239827,0.00786505,0.0117643,1.0,0.0,0.0,0.0,0
112896738,-1.49526,-0.128306,0.00503044,0.976327,0.21588,0.00624959,0.0119379,1.0,0.0,0.0,0.0,0
112928732,-2.14433,0.0119716,0.00939152,0.982415,0.186235,0.00522654,0.0122424,1.0,0.0,0.0,0.0,0
112959734,-2.05706,-0.0718865,0.0130883,0.98791,0.154476,0.00399561,0.0124851,1.0,0.0,0.0,0.0,0
112988751,-2.09046,-0.0401975,0.0351913,0.992223,0.123775,0.00315094,0.012744,1.0,0.0,0.0,0.0,0
113018819,-1.73755,-0.0096388,0.0318473,0.995304,0.0959032,0.00209996,0.0129961,1.0,0.0,0.0,0.0,0
113052747,-1.38916,-0.0346041,0.0221054,0.997538,0.0688285,0.00153018,0.0133236,1.0,0.0,0.0,0.0,0
113084749,-1.13256,0.0036276,0.0191914,0.998684,0.0494632,0.000860266,0.0135448,1.0,0.0,0.0,0.0,0
113115761,-0.781735,-0.0412896,0.0136306,0.99931,0.0344964,0.000570365,0.0137457,1.0,0.0,0.0,0.0,0
113148759,-0.703532,0.0409414,0.00980131,0.999644,0.0227053,0.000521704,0.0140355,1.0,0.0,0.0,0.0,0
113180910,-0.375663,-0.0240898,0.00961612,0.999794,0.0144223,0.000216556,0.0142558,1.0,0.0,0.0,0.0,0
113211723,-0.337032,0.0172786,0.0140427,0.99986,0.0083262,0.000616303,0.0145024,1.0,0.0,0.0,0.0,0
113241008,-0.170683,-0.00537916,0.00556114,0.99988,0.00520805,6.62317e-05,0.0145585,1.0,0.0,0.0,0.0,0
113272772,-0.10826,-0.0717149,0.00585329,0.999889,0.00212483,0.000359789,0.0147331,1.0,0.0,0.0,0.0,0
113304732,-0.11302,0.0475426,0.00715999,0.999887,0.00135025,-0.000255275,0.0149835,1.0,0.0,0.0,0.0,0
113335738,0.00844598,-0.0377602,0.000575365,0.999885,0.000221577,-0.000273905,0.015129,1.0,0.0,0.0,0.0,0
113367742,-0.0501257,0.0277354,0.0240152,0.999884,-0.000289765,0.000112271,0.015248,1.0,0.0,0.0,0.0,0
113400728,0.00360466,0.0206398,0.0131576,0.999879,-0.000327863,-0.000247707,0.0155584,1.0,0.0,0.0,0.0,0
113431727,0.0212025,-0.0248153,-0.00487875,0.999877,-0.000969744,0.000416023,0.0156383,1.0,0.0,0.0,0.0,0
113459747,-0.00304453,0.0159324,0.0396085,0.999876,-0.000640683,-6.86057e-05,0.0157177,1.0,0.0,0.0,0.0,0
113492749,0.0492369,-0.0382132,0.0213681,0.999872,-0.0005188,-8.19244e-05,0.0159849,1.0,0.0,0.0,0.0,0
113524759,-0.0515047,0.0824231,0.00413575,0.999871,-0.000647082,8.64761e-05,0.0160609,1.0,0.0,0.0,0.0,0
113556749,0.0323859,-0.0585648,0.00946163,0.99987,-0.00062835,0.000132605,0.0161064,1.0,0.0,0.0,0.0,0
113588735,0.00208378,0.00954454,-0.00559017,0.99987,-0.000911541,0.00044746,0.0161131,1.0,0.0,0.0,0.0,0
113616734,0.0123911,0.0130666,-0.0161032,0.99987,-0.000464695,0.000144392,0.0161307,1.0,0.0,0.0,0.0,0
113652734,0.0548598,-0.0648665,-0.00163114,0.999871,-0.000228717,-9.94123e-05,0.0160695,1.0,0.0,0.0,0.0,0
113684816,-0.0176809,0.0281541,-0.0148919,0.999872,3.33845e-05,-0.000124626,0.0160109,1.0,0.0,0.0,0.0,0
113715731,0.0266123,-0.0152949,0.00256186,0.999871,0.000247383,-0.000363636,0.0160735,1.0,0.0,0.0,0.0,0
113747106,-0.00505874,-0.0361644,-0.00211969,0.999872,0.000312554,-0.000361154,0.0160077,1.0,0.0,0.0,0.0,0
113779743,0.0158826,0.0180169,-0.0108495,0.999871,0.000563972,-0.000440784,0.0160528,1.0,0.0,0.0,0.0,0
113808743,-0.00575747,-0.012972,-0.000705204,0.999872,0.00062678,-0.000170904,0.0160104,1.0,0.0,0.0,0.0,0
113841867,0.00894093,0.0178136,-0.00515352,0.999873,0.000686807,-0.000106011,0.015902,1.0,0.0,0.0,0.0,0
113872775,0.0031235,-0.000516302,0.000575424,0.999875,0.000657936,-0.000224133,0.0157924,1.0,0.0,0.0,0.0,0
113902910,-0.0133474,-0.0103341,-0.00980667,0.999875,0.000658035,-6.25794e-05,0.0157767,1.0,0.0,0.0,0.0,0
113936788,0.00793642,0.0315454,0.000406175,0.999876,0.000571367,1.53843e-05,0.0157233,1.0,0.0,0.0,0.0,0
113967777,-0.0191705,-0.0152414,-0.0150836,0.999875,0.000576313,6.90981e-05,0.0157748,1.0,0.0,0.0,0.0,0
113999796,-0.00607797,0.000848186,-0.0130422,0.999878,0.00051719,0.000247748,0.0156322,1.0,0.0,0.0,0.0,0
114027722,0.0170189,0.0190195,0.0221843,0.999878,0.00041259,8.18629e-05,0.0156016,1.0,0.0,0.0,0.0,0
114059410,-0.0384209,-0.0415314,0.0171741,0.999879,0.000477937,0.000349271,0.0155269,1.0,0.0,0.0,0.0,0
114092736,0.0324285,0.0523591,-0.00712224,0.999879,0.000408229,0.00020116,0.0155248,1.0,0.0,0.0,0.0,0
114124902,-0.0585773,-0.0600555,-0.0215944,0.999881,0.000210743,-0.000117631,0.0154542,1.0,0.0,0.0,0.0,0
114156736,0.0153136,0.0160327,0.0101246,0.999881,0.000347003,7.99861e-05,0.015406,1.0,0.0,0.0,0.0,0
114188785,-0.0107224,-0.0042114,0.00516416,0.999881,0.000126316,-0.00043867,0.0154044,1.0,0.0,0.0,0.0,0
114214865,0.00752583,0.0266609,0.00232284,0.999882,0.000370577,0.000135983,0.0153795,1.0,0.0,0.0,0.0,0
114248765,-0.0110068,0.016616,0.0108411,0.999883,0.000363816,-3.91135e-05,0.0153259,1.0,0.0,0.0,0.0,0
114280960,0.0161819,-0.0224634,0.0123996,0.999883,0.000412501,-3.85236e-05,0.0152901,1.0,0.0,0.0,0.0,0
114312736,-0.0104022,0.0197085,0.00979533,0.999885,0.000299925,0.000100694,0.0151732,1.0,0.0,0.0,0.0,0
114344738,0.00468269,-0.000356543,0.023322,0.999883,0.000398051,-0.000120026,0.0153098,1.0,0.0,0.0,0.0,0
114376776,-0.00981289,-0.00482037,0.00364318,0.999882,0.000269916,-3.19773e-05,0.0153739,1.0,0.0,0.0,0.0,0
114408745,-0.0172595,0.00858941,0.0170263,0.999879,0.000345627,-0.00015314,0.0155569,1.0,0.0,0.0,0.0,0
114440739,0.00207332,-0.00372456,0.00541648,0.999877,0.000320889,-0.00016771,0.0156849,1.0,0.0,0.0,0.0,0
114468767,0.00993303,0.0190509,-0.00109718,0.999876,0.000390777,-0.000107403,0.0157305,1.0,0.0,0.0,0.0,0
114500982,0.00891295,-0.00210976,-0.00876965,0.999877,0.000372251,-4.74424e-05,0.0156552,1.0,0.0,0.0,0.0,0
114532816,0.00300401,-0.00143157,0.0246961,0.999877,0.000386304,8.28771e-05,0.015699,1.0,0.0,0.0,0.0,0
114563754,-0.0124144,0.00323943,-0.00343069,0.999877,0.000480429,3.7183e-05,0.0156594,1.0,0.0,0.0,0.0,0
114596748,0.0228219,-0.00149377,-0.0108685,0.999877,0.000541308,7.61553e-05,0.0157082,1.0,0.0,0.0,0.0,0
114628856,-0.0240314,0.0236332,-0.0136803,0.999878,0.000421916,0.000308705,0.0156421,1.0,0.0,0.0,0.0,0
114660740,0.0174472,-0.00380956,0.00407075,0.999878,0.000622711,0.000388342,0.0156305,1.0,0.0,0.0,0.0,0
114692736,-0.0130016,-0.0212566,0.0105868,0.999876,0.000493313,0.000161202,0.015717,1.0,0.0,0.0,0.0,0
114723731,-0.00692925,0.00276147,0.00111579,0.999877,0.000484315,0.000323471,0.0156997,1.0,0.0,0.0,0.0,0
114752744,0.00928995,0.0137601,0.00460384,0.999875,0.000364392,0.000138613,0.0157823,1.0,0.0,0.0,0.0,0
114786849,-0.00874848,-0.0224105,0.00364403,0.999875,0.000427003,0.000188356,0.0158039,1.0,0.0,0.0,0.0,0
114816742,0.00308865,0.00356015,0.0122185,0.999876,0.000240653,2.86506e-05,0.0157699,1.0,0.0,0.0,0.0,0
114847816,-0.0133868,-0.00935068,-0.00448898,0.999874,0.000333457,-0.000149957,0.0158395,1.0,0.0,0.0,0.0,0
114880900,0.0119892,-0.0097381,0.00177856,0.999873,0.000265958,-8.93934e-05,0.0159247,1.0,0.0,0.0,0.0,0
114912796,-0.0221924,0.0044782,-0.0131113,0.999874,0.000212601,-0.000124853,0.0158986,1.0,0.0,0.0,0.0,0
114943105,0.0340464,-0.0132624,0.0141728,0.999873,0.000422269,-0.000190818,0.0159478,1.0,0.0,0.0,0.0,0
114973740,-0.00848311,0.0226008,0.00144419,0.999871,0.000364081,-0.000160007,0.0160517,1.0,0.0,0.0,0.0,0
115004745,0.0205418,-0.021617,-0.0318288,0.999872,0.0006421,-0.000316766,0.0159603,1.0,0.0,0.0,0.0,0
115035735,-0.0127247,-0.00907057,0.00661659,0.999875,0.000539225,-0.000158751,0.015798,1.0,0.0,0.0,0.0,0
115067964,-0.0167138,0.0163013,-0.00620844,0.999875,0.000587543,-0.000191874,0.0157845,1.0,0.0,0.0,0.0,0
115099814,0.00968626,-0.00932382,0.00917607,0.999874,0.000246323,6.25223e-05,0.015844,1.0,0.0,0.0,0.0,0
115132765,-0.00423772,0.0295427,0.0090479,0.999875,0.000202716,0.000148352,0.0157893,1.0,0.0,0.0,0.0,0
115164890,-0.0141144,-0.017359,-0.00534779,0.999877,0.000239452,6.78034e-05,0.0156658,1.0,0.0,0.0,0.0,0
115196747,0.0250256,-0.000405827,0.0177572,0.999877,0.000184764,0.000206761,0.015674,1.0,0.0,0.0,0.0,0
115224734,-0.0270966,0.0150019,0.00232927,0.999878,0.000183922,5.82398e-05,0.0155989,1.0,0.0,0.0,0.0,0
115254741,0.0274757,-0.0119242,0.000934585,0.999879,0.000132684,3.84392e-05,0.015567,1.0,0.0,0.0,0.0,0
115287863,-0.00920814,0.0177945,0.00839668,0.999879,-7.6145e-06,4.1981e-05,0.015573,1.0,0.0,0.0,0.0,0
115320794,-0.00994641,-0.0147064,0.0143305,0.999879,0.000167807,4.80219e-05,0.0155792,1.0,0.0,0.0,0.0,0
115351766,0.0203445,0.0228098,0.000795643,0.999877,5.17443e-05,0.000241279,0.0156944,1.0,0.0,0.0,0.0,0
115509032,-0.0239557,0.0157128,-0.00105062,0.999879,-5.6788e-05,0.000515772,0.0155397,1.0,0.0,0.0,0.0,0
115540897,-0.0272039,0.00991425,0.0309489,0.999879,0.00012622,0.000269275,0.0155586,1.0,0.0,0.0,0.0,0
115572741,0.00481534,-0.0218956,-0.0010555,0.999878,-0.000270553,0.000562513,0.0155873,1.0,0.0,0.0,0.0,0
115604738,-0.0361207,0.0188659,0.00107141,0.999878,-0.000446853,0.000699256,0.0156204,1.0,0.0,0.0,0.0,0
115635735,0.0139373,0.00245693,-0.000513684,0.999878,-0.000483912,0.000518701,0.0156074,1.0,0.0,0.0,0.0,0
115668741,0.00617732,-0.00840205,0.0154171,0.999876,-0.000519279,0.000737848,0.0157196,1.0,0.0,0.0,0.0,0
115700739,-0.0188367,0.0414077,0.00757286,0.999876,-0.000510908,0.000714022,0.0156984,1.0,0.0,0.0,0.0,0
115732653,0.00941902,-0.0425289,0.00365998,0.999876,-0.000285401,0.000603555,0.0157408,1.0,0.0,0.0,0.0,0
115760679,-0.0265497,0.121108,-0.0046248,0.999874,-0.000425896,0.00123049,0.0157958,1.0,0.0,0.0,0.0,0
115792652,-0.079737,0.329341,0.0166581,0.999861,-0.0013166,0.00509665,0.0158143,1.0,0.0,0.0,0.0,0
115826750,-0.117389,0.558694,0.0204721,0.999787,-0.00313505,0.0127731,0.0159195,1.0,0.0,0.0,0.0,0
115856628,-0.181477,0.754664,0.0011565,0.999595,-0.00554633,0.0228079,0.0160871,1.0,0.0,0.0,0.0,0
115888639,-0.227701,0.954348,0.00951607,0.999155,-0.00900293,0.0366512,0.0162824,1.0,0.0,0.0,0.0,0
115920625,-0.277544,1.18323,0.0195578,0.998317,-0.0132907,0.0539598,0.016586,1.0,0.0,0.0,0.0,0
115952615,-0.340545,1.38703,0.0341973,0.996909,-0.0184399,0.0744991,0.0167972,1.0,0.0,0.0,0.0,0
115982753,-0.370955,1.6018,0.00993623,0.99485,-0.0239019,0.0970152,0.0170329,1.0,0.0,0.0,0.0,0
116012675,-0.411586,1.78352,0.0119793,0.991906,-0.0301257,0.122121,0.0173775,1.0,0.0,0.0,0.0,0
116047617,-0.481994,2.02049,0.0354895,0.987006,-0.038367,0.155022,0.0177814,1.0,0.0,0.0,0.0,0
116076617,-0.52045,2.21093,0.0244073,0.981456,-0.0459548,0.185205,0.0182142,1.0,0.0,0.0,0.0,0
116108614,-0.569291,2.39766,0.0487969,0.97346,-0.0549233,0.221376,0.0187395,1.0,0.0,0.0,0.0,0
116139030,-0.631435,2.64073,0.034822,0.963661,-0.064345,0.258557,0.0191195,1.0,0.0,0.0,0.0,0
116172618,-0.66583,2.83399,0.0221612,0.949992,-0.0753509,0.302416,0.0195488,1.0,0.0,0.0,0.0,0
116204614,-0.721647,3.04863,0.0527571,0.933736,-0.0866257,0.346755,0.0198611,1.0,0.0,0.0,0.0,0
116235612,-0.758466,3.26036,0.0298516,0.914559,-0.0979278,0.3919,0.0201583,1.0,0.0,0.0,0.0,0
116264628,-0.824533,3.41553,0.0596524,0.893236,-0.109044,0.435681,0.0205169,1.0,0.0,0.0,0.0,0
116294606,-0.86326,3.65478,0.0608037,0.86727,-0.120911,0.482483,0.0208316,1.0,0.0,0.0,0.0,0
116328615,-0.92417,3.86094,0.0511763,0.832685,-0.134783,0.536678,0.0211041,1.0,0.0,0.0,0.0,0
116362646,-0.993803,4.10439,0.0594844,0.792094,-0.148884,0.591575,0.0214261,1.0,0.0,0.0,0.0,0
116392635,-1.02188,4.28469,0.0440284,0.750917,-0.161397,0.640003,0.0216996,1.0,0.0,0.0,0.0,0
116424732,-1.0971,4.48789,0.0629115,0.701023,-0.174622,0.691082,0.0219137,1.0,0.0,0.0,0.0,0
116455618,-1.13252,4.6978,0.0699928,0.647008,-0.186974,0.738873,0.0221154,1.0,0.0,0.0,0.0,0
116488644,-1.20279,4.89942,0.0536319,0.58263,-0.199783,0.787491,0.0220956,1.0,0.0,0.0,0.0,0
116516613,-1.24169,5.09791,0.0528765,0.52254,-0.209996,0.826055,0.022079,1.0,0.0,0.0,0.0,0
116551611,-1.31471,5.32597,0.0909038,0.44026,-0.221727,0.869784,0.0219989,1.0,0.0,0.0,0.0,0
116579632,-1.37065,5.51184,0.0821189,0.368757,-0.230097,0.900331,0.0218758,1.0,0.0,0.0,0.0,0
116612600,-1.41611,5.71468,0.0691538,0.278454,-0.23849,0.930118,0.0215951,1.0,0.0,0.0,0.0,0
116644780,-1.47682,5.92363,0.0792095,0.184464,-0.244694,0.951654,0.0212829,1.0,0.0,0.0,0.0,0
116676625,-1.54464,6.14301,0.0803945,0.0863172,-0.24877,0.964483,0.0208424,1.0,0.0,0.0,0.0,0
116708633,-1.59033,6.33015,0.0834849,-0.0166508,-0.250416,0.967781,0.0203725,1.0,0.0,0.0,0.0,0
116740645,-1.66701,6.54038,0.104362,-0.122916,-0.249394,0.960365,0.01986,1.0,0.0,0.0,0.0,0
116767604,-1.71776,6.72511,0.0969577,-0.213946,-0.246184,0.945119,0.0192573,1.0,0.0,0.0,0.0,0
116800650,-1.7759,6.95337,0.0958531,-0.326035,-0.239146,0.914423,0.0184507,1.0,0.0,0.0,0.0,0
116832731,-1.86494,7.14069,0.0988843,-0.433876,-0.228836,0.87125,0.0175803,1.0,0.0,0.0,0.0,0
116866705,-1.92897,7.3581,0.10068,-0.544743,-0.214024,0.810663,0.0165622,1.0,0.0,0.0,0.0,0
116896648,-1.98833,7.55496,0.103855,-0.637826,-0.197423,0.744286,0.0154801,1.0,0.0,0.0,0.0,0
116928603,-2.05706,7.77619,0.0963959,-0.729948,-0.176161,0.66026,0.0141484,1.0,0.0,0.0,0.0,0
116960630,-2.13533,7.98571,0.0796043,-0.8126,-0.151143,0.562741,0.0126466,1.0,0.0,0.0,0.0,0
116992648,-2.20955,8.16663,0.111096,-0.88305,-0.122626,0.452838,0.0110957,1.0,0.0,0.0,0.0,0
117022730,-2.25758,8.37014,0.105471,-0.935986,-0.0928691,0.339433,0.00951041,1.0,0.0,0.0,0.0,0
117055634,-2.31148,8.5594,0.109034,-0.976876,-0.0576285,0.205757,0.00754035,1.0,0.0,0.0,0.0,0
117084610,-2.39411,8.77424,0.100466,-0.996363,-0.0244483,0.08143,0.00569843,1.0,0.0,0.0,0.0,0
117116604,-2.47767,8.97124,0.0912503,-0.998073,0.0138996,-0.060374,0.00351363,1.0,0.0,0.0,0.0,0
117147629,-2.52929,9.16565,0.104216,-0.978466,0.0518617,-0.199784,0.00123598,1.0,0.0,0.0,0.0,0
117178810,-2.6265,9.38096,0.103756,-0.93664,0.0900556,-0.338517,-0.00127332,1.0,0.0,0.0,0.0,0
117212611,-2.69181,9.60433,0.120579,-0.865696,0.130299,-0.483298,-0.00398454,1.0,0.0,0.0,0.0,0
117244669,-2.77127,9.79118,0.102679,-0.774113,0.166168,-0.610814,-0.00661656,1.0,0.0,0.0,0.0,0
117275601,-2.85641,9.98578,0.13476,-0.664034,0.19756,-0.721071,-0.00927332,1.0,0.0,0.0,0.0,0
117304649,-2.94888,10.1725,0.1405,-0.542837,0.223222,-0.809542,-0.0119476,1.0,0.0,0.0,0.0,0
117334678,-3.02781,10.3629,0.135173,-0.401809,0.244868,-0.882257,-0.0145532,1.0,0.0,0.0,0.0,0
117366552,-3.12278,10.5684,0.144018,-0.23746,0.261334,-0.935424,-0.0173194,1.0,0.0,0.0,0.0,0
117400650,-3.19917,10.7659,0.151221,-0.0500383,0.270173,-0.961301,-0.0200751,1.0,0.0,0.0,0.0,0
117432623,-3.27017,10.9792,0.155447,0.130824,0.269492,-0.953813,-0.0223413,1.0,0.0,0.0,0.0,0
117464621,-3.36997,11.1637,0.149529,0.311001,0.259758,-0.913895,-0.0244857,1.0,0.0,0.0,0.0,0
117496662,-3.44774,11.3592,0.161082,0.483734,0.240478,-0.841123,-0.0261505,1.0,0.0,0.0,0.0,0
117524629,-3.51869,11.5308,0.157816,0.622844,0.215859,-0.751488,-0.0271419,1.0,0.0,0.0,0.0,0
117556634,-3.61717,11.7265,0.17026,0.762635,0.179272,-0.620864,-0.027895,1.0,0.0,0.0,0.0,0
117587614,-3.72499,11.9197,0.166571,0.872037,0.136137,-0.469294,-0.0279365,1.0,0.0,0.0,0.0,0
117620616,-3.81525,12.123,0.166013,0.954258,0.0832298,-0.285874,-0.027217,1.0,0.0,0.0,0.0,0
117652647,-3.90423,12.3172,0.185736,0.994996,0.026995,-0.0927318,-0.0256009,1.0,0.0,0.0,0.0,0
117684632,-4.01732,12.5225,0.175295,0.993482,-0.0319565,0.107007,-0.0228377,1.0,0.0,0.0,0.0,0
117716624,-4.12575,12.7199,0.179364,0.947778,-0.0910108,0.305066,-0.0192158,1.0,0.0,0.0,0.0,0
117747623,-4.23043,12.9075,0.169863,0.861248,-0.145667,0.486637,-0.0147345,1.0,0.0,0.0,0.0,0
117776608,-4.30568,13.0634,0.172162,0.744486,-0.192144,0.639317,-0.00973887,1.0,0.0,0.0,0.0,0
117811610,-4.43825,13.2874,0.192396,0.561985,-0.23917,0.79181,-0.00272128,1.0,0.0,0.0,0.0,0
117840631,-4.52159,13.4617,0.175071,0.382138,-0.268195,0.884324,0.00356294,1.0,0.0,0.0,0.0,0
117872620,-4.62816,13.6432,0.192181,0.162498,-0.287347,0.943878,0.0110021,1.0,0.0,0.0,0.0,0
117904648,-4.77069,13.8344,0.207984,-0.0692965,-0.291436,0.953896,0.0186155,1.0,0.0,0.0,0.0,0
117936620,-4.8824,14.0097,0.189697,-0.300274,-0.279418,0.91164,0.0259643,1.0,0.0,0.0,0.0,0
117968739,-5.00067,14.207,0.188428,-0.518463,-0.250818,0.816836,0.0326277,1.0,0.0,0.0,0.0,0
118000643,-5.11473,14.3909,0.184172,-0.708113,-0.206809,0.67406,0.0380678,1.0,0.0,0.0,0.0,0
118028628,-5.18618,14.548,0.187166,-0.842326,-0.156787,0.51397,0.0417121,1.0,0.0,0.0,0.0,0
118062727,-5.34142,14.7542,0.184836,-0.953729,-0.0845451,0.285144,0.0441215,1.0,0.0,0.0,0.0,0
118092614,-5.45491,14.9214,0.198599,-0.996874,-0.0141041,0.0640341,0.0440724,1.0,0.0,0.0,0.0,0
118124601,-5.57289,15.1122,0.216775,-0.980946,0.0639176,-0.178679,0.0416411,1.0,0.0,0.0,0.0,0
118155732,-5.71233,15.2946,0.193754,-0.902522,0.137536,-0.406432,0.0367471,1.0,0.0,0.0,0.0,0
118188731,-5.83216,15.4731,0.217356,-0.754713,0.207496,-0.621707,0.0288749,1.0,0.0,0.0,0.0,0
118218729,-5.96534,15.6496,0.201914,-0.569489,0.259293,-0.779786,0.0195805,1.0,0.0,0.0,0.0,0
118251617,-6.11219,15.8513,0.229486,-0.323032,0.297983,-0.898221,0.00745146,1.0,0.0,0.0,0.0,0
118280617,-6.22154,16.0112,0.21307,-0.0815504,0.313379,-0.94611,-0.00437776,1.0,0.0,0.0,0.0,0
118315615,-6.36639,16.18,0.227614,0.218573,0.305807,-0.926466,-0.0192173,1.0,0.0,0.0,0.0,0
118344614,-6.49249,16.3265,0.213713,0.456054,0.277282,-0.845075,-0.0312581,1.0,0.0,0.0,0.0,0
118376744,-6.63012,16.526,0.212041,0.68691,0.223406,-0.690206,-0.0431397,1.0,0.0,0.0,0.0,0
118407601,-6.79009,16.6664,0.220508,0.85847,0.152626,-0.486843,-0.0521335,1.0,0.0,0.0,0.0,0
118440611,-6.91188,16.8325,0.229025,0.970362,0.0616163,-0.226248,-0.0584293,1.0,0.0,0.0,0.0,0
118472619,-7.07394,17.0392,0.214015,0.996386,-0.0347562,0.0486752,-0.0603077,1.0,0.0,0.0,0.0,0
118504731,-7.22275,17.2039,0.223214,0.935753,-0.130856,0.322376,-0.0576011,1.0,0.0,0.0,0.0,0
118535617,-7.3652,17.3544,0.237103,0.797104,-0.21488,0.56205,-0.0505178,1.0,0.0,0.0,0.0,0
118564662,-7.51034,17.5062,0.258895,0.603653,-0.278712,0.745872,-0.0399744,1.0,0.0,0.0,0.0,0
118596732,-7.66791,17.6741,0.234953,0.334623,-0.325447,0.884019,-0.0249483,1.0,0.0,0.0,0.0,0
118628614,-7.83202,17.8242,0.240311,0.0328169,-0.341556,0.939261,-0.00715288,1.0,0.0,0.0,0.0,0
118660636,-7.98211,18.0031,0.248369,-0.276679,-0.324057,0.904595,0.0120121,1.0,0.0,0.0,0.0,0
118692603,-8.14631,18.1484,0.263538,-0.56135,-0.272966,0.780663,0.0306718,1.0,0.0,0.0,0.0,0
118724620,-8.3106,18.3276,0.260196,-0.792532,-0.191615,0.577015,0.0472179,1.0,0.0,0.0,0.0,0
118756715,-8.49053,18.4805,0.2689,-0.944279,-0.0868352,0.31175,0.0600813,1.0,0.0,0.0,0.0,0
118784612,-8.64857,18.6155,0.271266,-0.996299,0.0152301,0.0518041,0.0668758,1.0,0.0,0.0,0.0,0
118816788,-8.80095,18.7683,0.274621,-0.955427,0.134473,-0.253622,0.0689358,1.0,0.0,0.0,0.0,0
118848613,-8.96787,18.9237,0.267394,-0.810093,0.241495,-0.530337,0.0645889,1.0,0.0,0.0,0.0,0
118880616,-9.13916,19.0619,0.264857,-0.572104,0.324926,-0.751131,0.054062,1.0,0.0,0.0,0.0,0
118912643,-9.31443,19.2204,0.259757,-0.266176,0.37306,-0.887986,0.0381881,1.0,0.0,0.0,0.0,0
118944618,-9.51468,19.3755,0.274259,0.0733332,0.378261,-0.922603,0.0185518,1.0,0.0,0.0,0.0,0
118976618,-9.69278,19.5115,0.273054,0.407326,0.337377,-0.848678,-0.00281257,1.0,0.0,0.0,0.0,0
119008710,-9.88537,19.6428,0.281569,0.695867,0.252838,-0.671782,-0.0234743,1.0,0.0,0.0,0.0,0
119036741,-10.0439,19.7594,0.247345,0.880589,0.149531,-0.447949,-0.0393118,1.0,0.0,0.0,0.0,0
119068647,-10.2295,19.9044,0.268638,0.988485,0.0100253,-0.1415,-0.0526851,1.0,0.0,0.0,0.0,0
119102712,-10.4668,20.0857,0.279908,0.96587,-0.14637,0.205206,-0.059681,1.0,0.0,0.0,0.0,0
119131613,-10.6196,20.1836,0.292781,0.833941,-0.268194,0.478562,-0.0599432,1.0,0.0,0.0,0.0,0
119165625,-10.8308,20.3477,0.289846,0.563061,-0.378669,0.73261,-0.0534274,1.0,0.0,0.0,0.0,0
119196672,-11.0275,20.4406,0.300341,0.237193,-0.43393,0.868158,-0.0417795,1.0,0.0,0.0,0.0,0
119228611,-11.2251,20.5817,0.291747,-0.132725,-0.434139,0.890622,-0.0264492,1.0,0.0,0.0,0.0,0
119260646,-11.409,20.7079,0.329138,-0.487983,-0.373547,0.78881,-0.0106742,1.0,0.0,0.0,0.0,0
119291621,-11.6278,20.8276,0.304772,-0.768813,-0.261641,0.58349,0.00301436,1.0,0.0,0.0,0.0,0
119319601,-11.8117,20.9168,0.311504,-0.935756,-0.125262,0.32941,0.012592,1.0,0.0,0.0,0.0,0
119352603,-12.0151,21.0459,0.295925,-0.997948,0.0592018,-0.0149031,0.0193115,1.0,0.0,0.0,0.0,0
119384620,-12.2218,21.1804,0.310959,-0.907204,0.23785,-0.346395,0.0204488,1.0,0.0,0.0,0.0,0
119415034,-12.459,21.2819,0.320649,-0.691797,0.382904,-0.611973,0.0170412,1.0,0.0,0.0,0.0,0
119448815,-12.1508,20.8468,0.300407,-0.342359,0.48855,-0.802471,0.0122381,1.0,0.0,0.0,0.0,0
119480729,-9.39523,17.8567,0.30491,-0.000117105,0.516784,-0.855932,0.0177252,1.0,0.0,0.0,0.0,0
119511929,-7.03292,14.3092,0.310946,0.274359,0.498517,-0.821454,0.0376849,1.0,0.0,0.0,0.0,0
119540745,-5.79892,10.3424,0.31791,0.456072,0.462689,-0.758417,0.0521744,1.0,0.0,0.0,0.0,0
119570842,-4.46145,6.09553,0.249082,0.57643,0.42184,-0.697255,0.0601286,1.0,0.0,0.0,0.0,0
119604745,-4.2036,5.34771,0.0860251,0.669292,0.371718,-0.640152,0.0638661,1.0,0.0,0.0,0.0,0
119636788,-3.61956,3.55484,-0.055656,0.727769,0.321991,-0.602348,0.0620521,1.0,0.0,0.0,0.0,0
119668771,-3.58364,3.22569,-0.222518,0.780737,0.264363,-0.563671,0.0532607,1.0,0.0,0.0,0.0,0
119700732,-3.67316,3.75738,-0.380886,0.819222,0.207412,-0.533594,0.0336711,1.0,0.0,0.0,0.0,0
119732738,-3.38011,2.83489,-0.57448,0.856218,0.14713,-0.495187,0.00571415,1.0,0.0,0.0,0.0,0
119760755,-3.67437,3.6321,-0.725463,0.882444,0.095535,-0.459939,-0.0249276,1.0,0.0,0.0,0.0,0
119792742,-2.88575,2.88236,-0.918225,0.904275,0.0422576,-0.419864,-0.06493,1.0,0.0,0.0,0.0,0
119824775,-2.54131,3.4067,-1.07578,0.921904,-0.00139015,-0.372143,-0.10771,1.0,0.0,0.0,0.0,0
119855743,-1.73677,3.11769,-1.25579,0.9308,-0.0306233,-0.331556,-0.150812,1.0,0.0,0.0,0.0,0
119888774,-1.33094,3.20304,-1.4013,0.938512,-0.0491842,-0.278716,-0.197719,1.0,0.0,0.0,0.0,0
119920778,-1.04209,2.98928,-1.57964,0.939417,-0.0562806,-0.233531,-0.244523,1.0,0.0,0.0,0.0,0
119952723,-0.475958,2.47105,-1.74198,0.935637,-0.054641,-0.189822,-0.292517,1.0,0.0,0.0,0.0,0
119983730,-0.410582,2.16757,-1.87061,0.927005,-0.0460138,-0.153908,-0.338905,1.0,0.0,0.0,0.0,0
120012791,-0.0983251,1.62716,-1.96224,0.915679,-0.0340817,-0.124983,-0.38046,1.0,0.0,0.0,0.0,0
120045461,-0.187132,1.26025,-2.08481,0.899243,-0.0193023,-0.0993881,-0.425571,1.0,0.0,0.0,0.0,0
120076783,-0.069297,0.730107,-2.14987,0.87983,-0.00352117,-0.0794859,-0.468582,1.0,0.0,0.0,0.0,0
120108838,-0.145574,0.495842,-2.15703,0.858373,0.0104119,-0.0640353,-0.508908,1.0,0.0,0.0,0.0,0
120141875,-0.197041,0.0599045,-2.13274,0.835073,0.0228903,-0.0539149,-0.547013,1.0,0.0,0.0,0.0,0
120172764,-0.21494,-0.0828039,-2.08404,0.81288,0.0323728,-0.0453756,-0.579758,1.0,0.0,0.0,0.0,0
120204738,-0.324053,-0.363183,-1.9832,0.79057,0.0381537,-0.0406113,-0.609832,1.0,0.0,0.0,0.0,0
120235723,-0.268376,-0.465662,-1.88564,0.769744,0.0426052,-0.0362581,-0.635896,1.0,0.0,0.0,0.0,0
120264790,-0.319047,-0.552895,-1.77852,0.751346,0.0425193,-0.0341209,-0.657652,1.0,0.0,0.0,0.0,0
120299032,-0.397231,-0.711621,-1.63169,0.731132,0.0422113,-0.0313682,-0.680206,1.0,0.0,0.0,0.0,0
120328853,-0.273989,-0.577193,-1.53289,0.714826,0.0389562,-0.0297947,-0.69758,1.0,0.0,0.0,0.0,0
120360878,-0.368063,-0.744409,-1.39216,0.698737,0.0339706,-0.0284573,-0.714005,1.0,0.0,0.0,0.0,0
120392736,-0.223205,-0.64966,-1.26656,0.684102,0.029528,-0.0272701,-0.728278,1.0,0.0,0.0,0.0,0
120424769,-0.168385,-0.660676,-1.16468,0.670796,0.0223098,-0.0275074,-0.740796,1.0,0.0,0.0,0.0,0
120455198,-0.215717,-0.666425,-1.02829,0.659751,0.0169706,-0.0275483,-0.750787,1.0,0.0,0.0,0.0,0
120488807,-0.0619385,-0.512514,-0.870895,0.648836,0.00934057,-0.028311,-0.760344,1.0,0.0,0.0,0.0,0
120520773,-0.107367,-0.534043,-0.757421,0.640069,0.00235252,-0.0292281,-0.767758,1.0,0.0,0.0,0.0,0
120548746,0.0597368,-0.374157,-0.632385,0.633651,-0.00186772,-0.0303917,-0.77302,1.0,0.0,0.0,0.0,0
120580824,0.0605731,-0.385629,-0.518638,0.627744,-0.00755791,-0.0320525,-0.777723,1.0,0.0,0.0,0.0,0
120611029,0.0751084,-0.361864,-0.369538,0.62362,-0.0112377,-0.0342963,-0.780894,1.0,0.0,0.0,0.0,0
120644737,0.166393,-0.240178,-0.267887,0.620298,-0.0157475,-0.0372979,-0.783321,1.0,0.0,0.0,0.0,0
120677742,0.115263,-0.294878,-0.144156,0.618754,-0.0192499,-0.0407631,-0.78429,1.0,0.0,0.0,0.0,0
120708734,0.226933,-0.193245,-0.0139843,0.618669,-0.0215784,-0.0444548,-0.784096,1.0,0.0,0.0,0.0,0
120740738,0.13154,-0.0751847,0.0610915,0.619665,-0.0238552,-0.0478829,-0.783041,1.0,0.0,0.0,0.0,0
120766873,0.0984269,-0.0145084,0.114696,0.621175,-0.0243441,-0.0486776,-0.781779,1.0,0.0,0.0,0.0,0
120800923,0.115569,0.0592624,0.177264,0.623544,-0.0251873,-0.0504053,-0.779755,1.0,0.0,0.0,0.0,0
120832784,0.0368773,0.0776217,0.222116,0.6266,-0.0245364,-0.0498564,-0.777357,1.0,0.0,0.0,0.0,0
120864744,0.0303609,0.207026,0.242802,0.629978,-0.0240861,-0.0496665,-0.774649,1.0,0.0,0.0,0.0,0
120895730,0.0406967,0.0681824,0.272472,0.63355,-0.0232952,-0.0488469,-0.771807,1.0,0.0,0.0,0.0,0
120928926,0.00609232,0.202606,0.28465,0.637422,-0.0218651,-0.0477744,-0.768721,1.0,0.0,0.0,0.0,0
120960736,0.0368217,0.106821,0.29368,0.64122,-0.0213862,-0.0473184,-0.765598,1.0,0.0,0.0,0.0,0
120992733,-0.0154335,0.0779665,0.313858,0.645189,-0.0202329,-0.0462518,-0.762353,1.0,0.0,0.0,0.0,0
121020734,0.0225876,0.133881,0.292367,0.648522,-0.0202357,-0.0461044,-0.759529,1.0,0.0,0.0,0.0,0
121052752,0.0152014,0.0470313,0.304192,0.65237,-0.0190465,-0.0450566,-0.75632,1.0,0.0,0.0,0.0,0
121084803,0.0110969,0.175176,0.282886,0.656104,-0.0185152,-0.0446109,-0.753124,1.0,0.0,0.0,0.0,0
121117789,-0.0146118,0.00681679,0.286471,0.65983,-0.018111,-0.0441335,-0.749899,1.0,0.0,0.0,0.0,0
121148741,0.030574,0.123857,0.280963,0.663173,-0.0173431,-0.0435153,-0.746999,1.0,0.0,0.0,0.0,0
121180760,-0.0432548,0.0386238,0.263734,0.66644,-0.0171828,-0.042927,-0.744123,1.0,0.0,0.0,0.0,0
121212820,-0.003,0.0873957,0.255071,0.669592,-0.0163685,-0.0420776,-0.741356,1.0,0.0,0.0,0.0,0
121244731,-0.0109678,0.0487065,0.222345,0.672494,-0.0159788,-0.0412901,-0.738778,1.0,0.0,0.0,0.0,0
121272815,0.00418933,0.0611221,0.214396,0.674816,-0.0155377,-0.0406633,-0.736701,1.0,0.0,0.0,0.0,0
121304747,-0.0211241,0.0667212,0.174612,0.677232,-0.015276,-0.0398834,-0.734529,1.0,0.0,0.0,0.0,0
121339025,-0.00134587,0.0663073,0.186327,0.679645,-0.0146169,-0.0393472,-0.73234,1.0,0.0,0.0,0.0,0
121367321,0.00673687,0.0416135,0.150601,0.681493,-0.0144505,-0.0387661,-0.730654,1.0,0.0,0.0,0.0,0
121400830,-0.0128601,0.0505385,0.158315,0.683525,-0.0140397,-0.038255,-0.728788,1.0,0.0,0.0,0.0,0
121432785,-0.000861702,0.0239612,0.140069,0.685218,-0.0137358,-0.0376626,-0.727234,1.0,0.0,0.0,0.0,0
121464745,-0.00783757,0.0516996,0.123514,0.686779,-0.0135328,-0.0369968,-0.725798,1.0,0.0,0.0,0.0,0
121495553,-0.00407111,0.0432678,0.126799,0.688058,-0.0132987,-0.0365258,-0.724613,1.0,0.0,0.0,0.0,0
121524746,-0.0109017,0.0388303,0.0863343,0.689034,-0.013085,-0.0360375,-0.723714,1.0,0.0,0.0,0.0,0
121556745,0.00620611,0.020971,0.0647575,0.689998,-0.0129317,-0.0356745,-0.722816,1.0,0.0,0.0,0.0,0
121587810,0.00063649,0.0186068,0.0595878,0.69082,-0.012924,-0.035268,-0.72205,1.0,0.0,0.0,0.0,0
121620756,-0.0235722,0.0388168,0.0528233,0.691561,-0.0130147,-0.0347204,-0.721366,1.0,0.0,0.0,0.0,0
121650767,0.0158903,0.0346037,0.0164899,0.692188,-0.0125899,-0.0345021,-0.720782,1.0,0.0,0.0,0.0,0
121684774,0.0102085,0.0603794,0.0525557,0.692698,-0.0124324,-0.0339297,-0.720321,1.0,0.0,0.0,0.0,0
121716769,0.00185487,-0.000253185,0.0237016,0.693165,-0.0120081,-0.0336667,-0.719892,1.0,0.0,0.0,0.0,0
121748757,0.00858583,0.00866132,0.00612423,0.693491,-0.0117534,-0.0332317,-0.719603,1.0,0.0,0.0,0.0,0
121776732,-0.00336642,0.0479787,0.0271621,0.693735,-0.0115519,-0.0328951,-0.719386,1.0,0.0,0.0,0.0,0
121806870,0.0173447,0.0310235,0.0273107,0.693998,-0.0111567,-0.0324031,-0.719161,1.0,0.0,0.0,0.0,0
121839814,0.0115498,0.0268108,-0.016091,0.694313,-0.0108529,-0.0320044,-0.718879,1.0,0.0,0.0,0.0,0
121872734,0.0255874,0.0265577,0.0138099,0.694552,-0.0104435,-0.0318136,-0.718663,1.0,0.0,0.0,0.0,0
121904744,0.00899684,0.0259316,-0.0018887,0.694763,-0.01043,-0.0313004,-0.718481,1.0,0.0,0.0,0.0,0
121936763,-0.0148629,0.0122645,0.000304938,0.694848,-0.0102498,-0.0310396,-0.718413,1.0,0.0,0.0,0.0,0
121968805,0.0320332,0.0230967,-0.0177659,0.69495,-0.0100907,-0.0305802,-0.718337,1.0,0.0,0.0,0.0,0
122000740,-0.0319007,0.00927293,0.00283769,0.695085,-0.0100371,-0.0302774,-0.71822,1.0,0.0,0.0,0.0,0
122032766,0.035485,0.028751,0.00191908,0.695148,-0.00977788,-0.0300268,-0.718173,1.0,0.0,0.0,0.0,0
122060761,-0.00796621,0.00843239,0.00930812,0.695336,-0.00981635,-0.0295155,-0.718012,1.0,0.0,0.0,0.0,0
122092777,0.0397159,-0.0107137,0.0657948,0.695775,-0.00934273,-0.0296945,-0.717585,1.0,0.0,0.0,0.0,0
122124735,0.037902,-0.0046828,0.158346,0.697313,-0.00915303,-0.0300682,-0.716078,1.0,0.0,0.0,0.0,0
122156742,0.0561491,0.0268561,0.298553,0.700122,-0.00827047,-0.0304499,-0.713325,1.0,0.0,0.0,0.0,0
122188814,0.0875718,0.0495141,0.42856,0.704615,-0.00757143,-0.0307049,-0.708885,1.0,0.0,0.0,0.0,0
122220735,0.082154,0.037441,0.568135,0.710541,-0.00639968,-0.0310023,-0.702943,1.0,0.0,0.0,0.0,0
122252737,0.0768087,0.0517036,0.717848,0.717956,-0.00563498,-0.0312429,-0.695364,1.0,0.0,0.0,0.0,0
122284769,0.0666993,0.0602988,0.851376,0.726841,-0.00472147,-0.0314562,-0.686069,1.0,0.0,0.0,0.0,0
122312738,0.0582792,0.035954,0.952355,0.735684,-0.00411177,-0.0315043,-0.67658,1.0,0.0,0.0,0.0,0
122344757,0.0558914,0.0387716,1.11065,0.747078,-0.00353211,-0.0316347,-0.663974,1.0,0.0,0.0,0.0,0
122377369,0.0571485,0.0497056,1.238,0.759842,-0.00320533,-0.0316758,-0.649327,1.0,0.0,0.0,0.0,0
122408792,-0.0350335,0.116734,1.2866,0.772874,-0.00302905,-0.0311512,-0.633787,1.0,0.0,0.0,0.0,0
122440790,-0.00570445,0.106885,1.32082,0.78604,-0.00273703,-0.0292261,-0.617478,1.0,0.0,0.0,0.0,0
122472742,-0.0435605,0.0594419,1.26804,0.798662,-0.00313144,-0.0278896,-0.601126,1.0,0.0,0.0,0.0,0
122504778,-0.0311793,0.0343921,1.19612,0.810453,-0.00385779,-0.02699,-0.585169,1.0,0.0,0.0,0.0,0
122531166,-0.0397735,0.0326454,1.15025,0.819657,-0.00446698,-0.0265942,-0.57222,1.0,0.0,0.0,0.0,0
122564744,0.0176415,-0.026244,1.08859,0.830396,-0.00491932,-0.0264465,-0.556524,1.0,0.0,0.0,0.0,0
122596822,0.0610976,-0.0584654,1.00195,0.839633,-0.00514963,-0.0269733,-0.54246,1.0,0.0,0.0,0.0,0
122628740,0.734387,0.148609,0.936699,0.847924,0.00100418,-0.030034,-0.529265,1.0,0.0,0.0,0.0,0
122660749,1.12843,0.0319961,0.82911,0.855275,0.0135315,-0.0367595,-0.516692,1.0,0.0,0.0,0.0,0
122692776,1.90185,0.116847,0.76197,0.861263,0.0369375,-0.0493322,-0.504409,1.0,0.0,0.0,0.0,0
122724733,2.10539,0.0600956,0.697613,0.865587,0.0630342,-0.064462,-0.492575,1.0,0.0,0.0,0.0,0
122756733,2.53588,0.22479,0.602967,0.867591,0.0989551,-0.0821655,-0.480357,1.0,0.0,0.0,0.0,0
122784748,2.42377,0.135438,0.523905,0.867702,0.128291,-0.0971784,-0.470309,1.0,0.0,0.0,0.0,0
122816901,2.08056,0.149289,0.446909,0.866257,0.160806,-0.113347,-0.45923,1.0,0.0,0.0,0.0,0
122848799,1.86563,0.0576833,0.375185,0.864134,0.186925,-0.12697,-0.449677,1.0,0.0,0.0,0.0,0
122880739,1.32916,0.101214,0.310097,0.861757,0.208741,-0.137848,-0.441362,1.0,0.0,0.0,0.0,0
122912740,1.14686,0.0697301,0.240602,0.859525,0.225231,-0.146655,-0.434719,1.0,0.0,0.0,0.0,0
122944886,0.723778,-0.000176214,0.186022,0.857934,0.237355,-0.152445,-0.429385,1.0,0.0,0.0,0.0,0
122976749,0.520157,0.0333368,0.128256,0.856537,0.245504,-0.157409,-0.425786,1.0,0.0,0.0,0.0,0
123008738,0.0924401,-0.0396839,0.0766653,0.85618,0.249047,-0.159358,-0.423717,1.0,0.0,0.0,0.0,0
123036728,-0.310133,0.0515133,0.0362713,0.856977,0.247578,-0.158572,-0.423261,1.0,0.0,0.0,0.0,0
123068732,-0.840433,0.0108826,-0.00549058,0.859839,0.238191,-0.153566,-0.424687,1.0,0.0,0.0,0.0,0
123102918,-1.73753,0.0648295,-0.0427401,0.864763,0.22042,-0.14333,-0.427852,1.0,0.0,0.0,0.0,0
123132798,-1.5765,0.0931624,-0.0822904,0.869805,0.199394,-0.131613,-0.431693,1.0,0.0,0.0,0.0,0
123164883,-2.16293,0.0686061,-0.0900351,0.875539,0.171854,-0.116035,-0.436387,1.0,0.0,0.0,0.0,0
123196791,-2.02507,0.0958116,-0.116122,0.879998,0.145628,-0.100972,-0.440682,1.0,0.0,0.0,0.0,0
123228735,-1.95177,0.064653,-0.0906948,0.884001,0.115434,-0.0839931,-0.445154,1.0,0.0,0.0,0.0,0
123259168,-1.93239,0.0453,-0.124104,0.886216,0.0914878,-0.0702548,-0.448681,1.0,0.0,0.0,0.0,0
123288738,-1.31693,0.0897449,-0.121409,0.887544,0.070203,-0.0581173,-0.451619,1.0,0.0,0.0,0.0,0
123320744,-1.39771,0.0204073,-0.124224,0.88802,0.0517318,-0.0475903,-0.4544,1.0,0.0,0.0,0.0,0
123352787,-0.811085,0.0542595,-0.142556,0.887877,0.0374082,-0.0391623,-0.456882,1.0,0.0,0.0,0.0,0
123384734,-0.736969,0.0035141,-0.130819,0.887433,0.0256558,-0.0327951,-0.459052,1.0,0.0,0.0,0.0,0
123414941,-0.43808,0.0316815,-0.126424,0.886802,0.019206,-0.0286813,-0.460859,1.0,0.0,0.0,0.0,0
123448784,-0.379606,0.0178407,-0.116671,0.886023,0.0121149,-0.0247899,-0.46282,1.0,0.0,0.0,0.0,0
123480738,-0.236296,-0.0188666,-0.115155,0.885231,0.00894503,-0.0228258,-0.464505,1.0,0.0,0.0,0.0,0
123512813,-0.118871,0.0360276,-0.121384,0.884515,0.00570313,-0.0210079,-0.466003,1.0,0.0,0.0,0.0,0
123540728,-0.122557,-0.0408742,-0.0920493,0.883907,0.00444417,-0.0203633,-0.467198,1.0,0.0,0.0,0.0,0
123570790,-0.0368339,0.0257163,-0.110066,0.883315,0.00287303,-0.0192711,-0.468375,1.0,0.0,0.0,0.0,0
123604864,-0.100246,0.00706192,-0.0779582,0.882648,0.00158394,-0.018876,-0.469653,1.0,0.0,0.0,0.0,0
123636721,-0.0258227,-0.0221892,-0.100326,0.882072,0.00114223,-0.0183688,-0.470755,1.0,0.0,0.0,0.0,0
123668749,-0.00898725,0.0203375,-0.0781172,0.881583,3.24635e-05,-0.0180846,-0.471683,1.0,0.0,0.0,0.0,0
123700846,-0.0457185,-0.0486888,-0.0650116,0.881136,0.000187152,-0.0178341,-0.472526,1.0,0.0,0.0,0.0,0
123732734,0.036815,0.0447578,-0.0774533,0.880717,3.47465e-05,-0.0176991,-0.473312,1.0,0.0,0.0,0.0,0
123764740,-0.0293954,-0.0337203,-0.0322082,0.880444,-0.000189741,-0.0176597,-0.47382,1.0,0.0,0.0,0.0,0
123792733,0.0282657,0.0406746,-0.0643311,0.880155,-5.49203e-06,-0.0174575,-0.474366,1.0,0.0,0.0,0.0,0
123824743,0.00791864,0.0144437,-0.0274259,0.879921,-0.000302653,-0.0176147,-0.474793,1.0,0.0,0.0,0.0,0
123856790,-0.0123044,-0.0171646,-0.0350699,0.879664,0.000129695,-0.0171468,-0.475286,1.0,0.0,0.0,0.0,0
123888733,0.00191115,0.0506231,-0.0211244,0.879551,4.2422e-05,-0.0172688,-0.475491,1.0,0.0,0.0,0.0,0
123920766,-0.0286142,-0.0558062,-0.00883471,0.879452,-6.99922e-05,-0.0170653,-0.475682,1.0,0.0,0.0,0.0,0
123952777,-0.0147402,0.0391771,-0.0315249,0.879311,-0.000103515,-0.016975,-0.475946,1.0,0.0,0.0,0.0,0
123984733,-0.0333105,-0.057146,-0.0252873,0.879277,-0.000787635,-0.0171871,-0.475999,1.0,0.0,0.0,0.0,0
124016813,0.00430901,0.0607804,3.05343e-05,0.879321,-0.000504329,-0.016492,-0.475944,1.0,0.0,0.0,0.0,0
124044876,-0.00543795,-0.059588,0.00922493,0.879354,-0.000918743,-0.0169315,-0.475867,1.0,0.0,0.0,0.0,0
124076730,-0.00109144,0.00167508,0.00599336,0.879352,-0.000561894,-0.0162446,-0.475895,1.0,0.0,0.0,0.0,0
124108774,-0.0229916,0.018751,0.0129638,0.879436,-0.00123264,-0.0170274,-0.475711,1.0,0.0,0.0,0.0,0
124140735,-0.0133214,-0.0849517,-0.00911364,0.879471,-0.000902345,-0.0167181,-0.475658,1.0,0.0,0.0,0.0,0
124172814,0.0389371,0.110654,0.00212936,0.879561,-0.00105358,-0.0166948,-0.475492,1.0,0.0,0.0,0.0,0
124204773,-0.0156461,-0.0231022,0.020021,0.879604,-0.000966932,-0.016608,-0.475415,1.0,0.0,0.0,0.0,0
124236732,0.0103133,0.0484022,0.016881,0.879775,-0.000270333,-0.0156827,-0.475132,1.0,0.0,0.0,0.0,0
124268734,-0.0109289,0.0427318,0.0262489,0.88001,-0.000560002,-0.0155288,-0.4747,1.0,0.0,0.0,0.0,0
124299055,-0.0146075,0.0109092,0.0198387,0.880182,0.000263976,-0.0147117,-0.474408,1.0,0.0,0.0,0.0,0
124328751,0.0140358,0.0567922,0.00974428,0.880288,0.000188677,-0.0146267,-0.474214,1.0,0.0,0.0,0.0,0
124360771,-0.0143516,-0.033607,0.0406328,0.880486,0.00046557,-0.0142607,-0.473857,1.0,0.0,0.0,0.0,0
124392834,0.0032927,0.0459459,0.0212567,0.880667,0.000812167,-0.0139043,-0.473532,1.0,0.0,0.0,0.0,0
124424735,0.00486908,-0.00827462,0.0313541,0.880856,0.00052703,-0.0139432,-0.473179,1.0,0.0,0.0,0.0,0
124455075,-0.0291557,-0.00284231,0.0314677,0.881022,0.000859475,-0.0136352,-0.472878,1.0,0.0,0.0,0.0,0
124488735,0.0304842,0.011079,0.0217339,0.881205,0.000542014,-0.0136803,-0.472536,1.0,0.0,0.0,0.0,0
124520733,-0.0460537,-0.0260891,0.0109892,0.881361,0.000281501,-0.0134905,-0.47225,1.0,0.0,0.0,0.0,0
124552768,0.0155566,0.0334894,0.0196164,0.88149,0.000444174,-0.0135803,-0.472006,1.0,0.0,0.0,0.0,0
124580748,-0.04419,-0.00945881,0.00635245,0.881609,9.28294e-07,-0.0132317,-0.471795,1.0,0.0,0.0,0.0,0
124610804,-0.0197973,0.0138124,0.0120671,0.881728,0.000210251,-0.013223,-0.471573,1.0,0.0,0.0,0.0,0
124644740,0.0262023,0.0251251,0.0172535,0.881851,9.17634e-05,-0.0131299,-0.471346,1.0,0.0,0.0,0.0,0
124677756,-0.0537455,0.0173524,0.0170452,0.882028,9.76547e-05,-0.0126366,-0.471027,1.0,0.0,0.0,0.0,0
124708764,0.0484266,0.0380725,0.00947108,0.882167,0.000598844,-0.0130329,-0.470756,1.0,0.0,0.0,0.0,0
124740741,0.00585237,-0.025569,0.00898338,0.88225,0.000659245,-0.0129887,-0.470601,1.0,0.0,0.0,0.0,0
124772799,-0.0121347,0.0221886,0.0198415,0.882402,0.000783022,-0.0128568,-0.470321,1.0,0.0,0.0,0.0,0
124800771,0.0237917,-0.0264515,0.0113127,0.882475,0.000776803,-0.0132284,-0.470172,1.0,0.0,0.0,0.0,0
124832750,-0.0166213,0.00304908,0.00802147,0.882559,0.00069431,-0.0129875,-0.470021,1.0,0.0,0.0,0.0,0
124864784,-0.00185325,0.0147534,-0.0018646,0.88267,0.00067098,-0.0131833,-0.469808,1.0,0.0,0.0,0.0,0
124896736,-0.00198065,-0.0297258,0.00861754,0.882734,0.000640034,-0.012605,-0.469704,1.0,0.0,0.0,0.0,0
124928827,-0.0188437,0.0674532,0.00930392,0.88282,0.00060938,-0.012505,-0.469545,1.0,0.0,0.0,0.0,0
124960775,0.00792403,-0.0248953,0.0232368,0.882898,0.000500451,-0.0127023,-0.469393,1.0,0.0,0.0,0.0,0
124992734,-0.00236734,0.022144,0.0120697,0.882945,0.000638724,-0.0121287,-0.469319,1.0,0.0,0.0,0.0,0
125024843,-0.000133328,0.0150076,0.0210591,0.882975,0.000575047,-0.012329,-0.469258,1.0,0.0,0.0,0.0,0
125052735,0.00237032,-0.0166233,-0.00134245,0.883,0.000439889,-0.012027,-0.469218,1.0,0.0,0.0,0.0,0
125084918,-0.0175844,0.0266472,-0.00693576,0.883037,0.000459425,-0.0118163,-0.469155,1.0,0.0,0.0,0.0,0
125116757,-0.0110307,0.00361926,0.0179524,0.88308,0.00036239,-0.0115615,-0.46908,1.0,0.0,0.0,0.0,0
125148736,-0.0098313,0.0178838,0.0301842,0.883119,0.00041703,-0.0112738,-0.469013,1.0,0.0,0.0,0.0,0
125180745,-0.0229513,-0.00029491,0.00496484,0.883126,0.000276656,-0.0110447,-0.469006,1.0,0.0,0.0,0.0,0
125212856,-0.00766545,0.0113482,-0.0127267,0.883152,0.000162195,-0.0109144,-0.468959,1.0,0.0,0.0,0.0,0
125244805,-0.438853,0.505364,0.0691721,0.883406,-0.000813576,-0.00646964,-0.468563,1.0,0.0,0.0,0.0,0
125276736,-1.06972,1.32731,0.138164,0.884053,-0.0044414,0.0132558,-0.467178,1.0,0.0,0.0,0.0,0
125304738,-1.60869,2.06532,0.191214,0.884312,-0.00989691,0.0438901,-0.464724,1.0,0.0,0.0,0.0,0
125339040,-2.21816,2.80834,0.289607,0.882668,-0.019378,0.0978402,-0.459292,1.0,0.0,0.0,0.0,0
125367051,-2.07448,2.55195,0.346061,0.879321,-0.0283395,0.145257,-0.45265,1.0,0.0,0.0,0.0,0
125400735,-2.13895,2.4734,0.402885,0.873616,-0.0395202,0.198797,-0.442394,1.0,0.0,0.0,0.0,0
125432731,-1.69929,1.76973,0.468084,0.868212,-0.0495815,0.240149,-0.431368,1.0,0.0,0.0,0.0,0
125464882,-1.59556,1.50993,0.489657,0.862888,-0.0597093,0.275955,-0.419175,1.0,0.0,0.0,0.0,0
125495030,-1.19854,0.98404,0.514516,0.859938,-0.0675331,0.299278,-0.407895,1.0,0.0,0.0,0.0,0
125528743,-1.0489,0.728959,0.549851,0.857479,-0.0756396,0.321084,-0.394859,1.0,0.0,0.0,0.0,0
125556722,-0.798334,0.466015,0.59517,0.857201,-0.0804375,0.332905,-0.384591,1.0,0.0,0.0,0.0,0
125588729,-0.726909,0.320786,0.614267,0.857193,-0.0857001,0.34507,-0.372561,1.0,0.0,0.0,0.0,0
125620770,-0.617831,0.2663,0.625644,0.858974,-0.0885623,0.351896,-0.361233,1.0,0.0,0.0,0.0,0
125650904,-0.298797,-0.0173196,0.6507,0.860914,-0.0905462,0.357391,-0.350571,1.0,0.0,0.0,0.0,0
125684852,-0.454712,0.175386,0.661525,0.863542,-0.0916458,0.362139,-0.33875,1.0,0.0,0.0,0.0,0
125717034,-0.116255,-0.112934,0.673389,0.867037,-0.0905601,0.363505,-0.328497,1.0,0.0,0.0,0.0,0
125748739,-0.132556,-0.0329593,0.694045,0.869941,-0.0898319,0.366361,-0.317669,1.0,0.0,0.0,0.0,0
125780731,-0.156484,-0.0228417,0.685448,0.873987,-0.0869401,0.365962,-0.307669,1.0,0.0,0.0,0.0,0
125807111,-0.0506997,-0.0528301,0.711894,0.876403,-0.0854517,0.367921,-0.298748,1.0,0.0,0.0,0.0,0
125840980,-0.136619,0.00659184,0.716329,0.880501,-0.0817074,0.367548,-0.288011,1.0,0.0,0.0,0.0,0
125872803,0.0633406,-0.126917,0.727861,0.883817,-0.0784486,0.368337,-0.277563,1.0,0.0,0.0,0.0,0
125904741,-0.145219,0.0410855,0.723285,0.887216,-0.0751157,0.368666,-0.267004,1.0,0.0,0.0,0.0,0
125936744,0.0430187,-0.125793,0.736785,0.890457,-0.071166,0.369034,-0.256586,1.0,0.0,0.0,0.0,0
125968776,-0.0660323,0.0485791,0.737108,0.89351,-0.0675111,0.369598,-0.245925,1.0,0.0,0.0,0.0,0
126001740,-0.0275933,-0.0983153,0.741556,0.896885,-0.0631953,0.369213,-0.23513,1.0,0.0,0.0,0.0,0
126032735,-0.0227483,0.00190741,0.733398,0.899285,-0.059568,0.370464,-0.224709,1.0,0.0,0.0,0.0,0
126060731,-0.023537,-0.0517416,0.755921,0.90187,-0.0558587,0.370378,-0.215247,1.0,0.0,0.0,0.0,0
126093802,0.0254553,-0.0653372,0.74071,0.9044,-0.0517294,0.371182,-0.203983,1.0,0.0,0.0,0.0,0
126124776,-0.0540391,0.0227528,0.746549,0.906931,-0.0474799,0.371151,-0.193567,1.0,0.0,0.0,0.0,0
126156787,0.0348191,-0.134276,0.757115,0.909601,-0.0432209,0.370616,-0.182761,1.0,0.0,0.0,0.0,0
126188775,-0.0557768,0.0256447,0.745807,0.911718,-0.0391502,0.371169,-0.171671,1.0,0.0,0.0,0.0,0
126220772,-0.0488695,0.00216933,0.744892,0.913926,-0.0349775,0.371057,-0.160725,1.0,0.0,0.0,0.0,0
126252882,-0.0323482,-0.0648772,0.755751,0.915622,-0.0310393,0.371895,-0.149559,1.0,0.0,0.0,0.0,0
126284741,-0.0495137,0.0555253,0.754076,0.917501,-0.0267579,0.371876,-0.138508,1.0,0.0,0.0,0.0,0
126312735,-0.0275273,-0.0382027,0.776044,0.918854,-0.023231,0.372323,-0.128621,1.0,0.0,0.0,0.0,0
126344969,-0.0451279,0.0380263,0.764757,0.920279,-0.0191711,0.372731,-0.117431,1.0,0.0,0.0,0.0,0
126379122,-0.0489773,0.0329339,0.739272,0.921725,-0.0149646,0.372861,-0.105704,1.0,0.0,0.0,0.0,0
126408740,-0.0552134,-0.0212933,0.695585,0.922711,-0.0115562,0.373205,-0.0958596,1.0,0.0,0.0,0.0,0
126440747,-0.0576665,0.0153094,0.674659,0.923728,-0.00807413,0.373286,-0.0855585,1.0,0.0,0.0,0.0,0
126472924,-0.035054,0.00753815,0.642501,0.924502,-0.00463745,0.373548,-0.0757339,1.0,0.0,0.0,0.0,0
126504731,-0.041492,0.00188369,0.611489,0.925168,-0.00160055,0.373713,-0.0663361,1.0,0.0,0.0,0.0,0
126534883,-0.0422193,0.022832,0.562776,0.925662,0.00139132,0.373851,-0.0581647,1.0,0.0,0.0,0.0,0
126564741,-0.0423843,-0.0454978,0.523945,0.926162,0.00387507,0.373712,-0.0504769,1.0,0.0,0.0,0.0,0
126596952,-0.039864,0.00480872,0.496048,0.92654,0.00637747,0.373699,-0.0428155,1.0,0.0,0.0,0.0,0
126628758,-0.0471525,-0.00661186,0.451416,0.926889,0.0085984,0.37351,-0.0359601,1.0,0.0,0.0,0.0,0
126660732,-0.0457518,0.0211131,0.403841,0.927045,0.0104736,0.373632,-0.0296157,1.0,0.0,0.0,0.0,0
126691826,-0.04264,-0.00748095,0.37133,0.927243,0.0119746,0.3735,-0.0239669,1.0,0.0,0.0,0.0,0
126724777,-0.0736198,0.00304093,0.317543,0.927384,0.0133231,0.373416,-0.0185079,1.0,0.0,0.0,0.0,0
126756738,-0.0563176,0.0285446,0.27496,0.927412,0.0142676,0.373509,-0.0139179,1.0,0.0,0.0,0.0,0
126788732,-0.0534038,0.010932,0.238584,0.927424,0.0150329,0.37358,-0.00980977,1.0,0.0,0.0,0.0,0
126820766,-0.0527537,0.0141778,0.203021,0.927414,0.0155914,0.37366,-0.00625351,1.0,0.0,0.0,0.0,0
126847041,-0.0523743,0.0132669,0.202708,0.927422,0.0158583,0.373663,-0.00369176,1.0,0.0,0.0,0.0,0
