timestamp,roll_body,pitch_body,yaw_body,yaw_sp_move_rate,q_d[0],q_d[1],q_d[2],q_d[3],thrust,landing_gear,q_d_valid,roll_reset_integral,pitch_reset_integral,yaw_reset_integral,fw_control_yaw,disable_mc_yaw_control,apply_flaps
16521399,0.0,-0.0,0.0,0.0,1.0,0.0,0.0,0.0,0.08,-1.0,1,0,0,0,0,0,0
16626717,0.0,-0.0,0.0,0.0,1.0,0.0,0.0,0.0,0.08,-1.0,1,0,0,0,0,0,0
16731417,0.0,-0.0,0.0,0.0,1.0,0.0,0.0,0.0,0.08,-1.0,1,0,0,0,0,0,0
16836423,0.0,-0.0,0.0,0.0,1.0,0.0,0.0,0.0,0.08,-1.0,1,0,0,0,0,0,0
16941397,0.0,-0.0,0.0,0.0,1.0,0.0,0.0,0.0,0.08,-1.0,1,0,0,0,0,0,0
17025397,0.0,-0.0,0.0,0.0,1.0,0.0,0.0,0.0,0.08,-1.0,1,0,0,0,0,0,0
17130433,0.0,-0.0,0.0,0.0,1.0,0.0,0.0,0.0,0.08,-1.0,1,0,0,0,0,0,0
17235419,0.0,-0.0,0.0,0.0,1.0,0.0,0.0,0.0,0.08,-1.0,1,0,0,0,0,0,0
17340395,0.0,-0.0,0.0,0.0,1.0,0.0,0.0,0.0,0.08,-1.0,1,0,0,0,0,0,0
17445402,0.0,-0.0,0.0,0.0,1.0,0.0,0.0,0.0,0.08,-1.0,1,0,0,0,0,0,0
17550394,0.0,-0.0,0.0,0.0,1.0,0.0,0.0,0.0,0.08,-1.0,1,0,0,0,0,0,0
17634397,0.0,-0.0,0.0,0.0,1.0,0.0,0.0,0.0,0.08,-1.0,1,0,0,0,0,0,0
17753932,0.0,-0.0,0.0,0.0,1.0,0.0,0.0,0.0,0.08,-1.0,1,0,0,0,0,0,0
17854147,0.0,-0.0,0.0,0.0,1.0,0.0,0.0,0.0,0.08,-1.0,1,0,0,0,0,0,0
17954826,0.0,-0.0,0.0,0.0,1.0,0.0,0.0,0.0,0.08,-1.0,1,0,0,0,0,0,0
18057935,0.0,-0.0,-0.0022487,-0.0940526,0.999999,0.0,-0.0,-0.00112435,0.131341,-1.0,1,0,0,0,0,0,0
18158246,0.0,-0.0,-0.0171504,0.0116992,0.999963,0.0,-0.0,-0.00857511,0.383673,-1.0,1,0,0,0,0,0,0
18259062,0.0,-0.0,-0.0167547,-8.06126e-05,0.999965,0.0,-0.0,-0.00837726,0.386738,-1.0,1,0,0,0,0,0,0
18362153,0.0,-0.0,-0.0167505,-1.78351e-05,0.999965,0.0,-0.0,-0.00837513,0.481274,-1.0,1,0,0,0,0,0,0
18462732,0.0,-0.0,-0.0167506,-1.97913e-07,0.999965,0.0,-0.0,-0.00837518,0.56661,-1.0,1,0,0,0,0,0,0
18566182,0.0,-0.0,-0.0167506,-4.72629e-10,0.999965,0.0,-0.0,-0.00837518,0.570011,-1.0,1,0,0,0,0,0,0
18666292,0.0,-0.0,-0.0167506,2.06811e-10,0.999965,0.0,-0.0,-0.00837518,0.568957,-1.0,1,0,0,0,0,0,0
18766986,0.0,-0.0,-0.0167506,2.80482e-12,0.999965,0.0,-0.0,-0.00837518,0.569033,-1.0,1,0,0,0,0,0,0
18869964,0.0,-0.0,-0.0167506,1.99263e-14,0.999965,0.0,-0.0,-0.00837518,0.569034,-1.0,1,0,0,0,0,0,0
18970149,0.0,-0.0,-0.0167506,-2.24729e-15,0.999965,0.0,-0.0,-0.00837518,0.569034,-1.0,1,0,0,0,0,0,0
19070966,0.0,-0.0,-0.0167506,-3.58366e-17,0.999965,0.0,-0.0,-0.00837518,0.627155,-1.0,1,0,0,0,0,0,0
19173952,0.0,-0.0,-0.0167506,7.73656e-19,0.999965,0.0,-0.0,-0.00837518,0.647831,-1.0,1,0,0,0,0,0,0
19274788,0.0,-0.0,-0.0167506,2.28349e-20,0.999965,0.0,-0.0,-0.00837518,0.644952,-1.0,1,0,0,0,0,0,0
19378162,0.0,-0.0,-0.0167506,4.24229e-22,0.999965,0.0,-0.0,-0.00837518,0.645399,-1.0,1,0,0,0,0,0,0
19477941,0.0,-0.0,-0.0167506,-4.7557e-24,0.999965,0.0,-0.0,-0.00837518,0.644946,-1.0,1,0,0,0,0,0,0
19577470,0.0,-0.0,-0.0167506,-2.14251e-25,0.999965,0.0,-0.0,-0.00837518,0.646234,-1.0,1,0,0,0,0,0,0
19678781,0.0,-0.0,-0.0167506,-5.51596e-27,0.999965,0.0,-0.0,-0.00837518,0.6459,-1.0,1,0,0,0,0,0,0
19783149,0.0,-0.0,-0.0167506,7.3772e-30,0.999965,0.0,-0.0,-0.00837518,0.64673,-1.0,1,0,0,0,0,0,0
19881936,0.0,-0.0,-0.0167506,6.82596e-30,0.999965,0.0,-0.0,-0.00837518,0.655057,-1.0,1,0,0,0,0,0,0
19985965,0.0,-0.0,-0.0167506,8.42512e-32,0.999965,0.0,-0.0,-0.00837518,0.676848,-1.0,1,0,0,0,0,0,0
20086063,0.0,-0.0,-0.016703,0.00482078,0.999965,0.0,-0.0,-0.0083514,0.699087,-1.0,1,0,0,0,0,0,0
20189926,0.0,-0.0,-0.0155166,0.0139407,0.99997,0.0,-0.0,-0.0077582,0.724716,-1.0,1,0,0,0,0,0,0
20282172,0.0,-0.0,-0.0142503,0.010997,0.999975,0.0,-0.0,-0.0071251,0.734084,-1.0,1,0,0,0,0,0,0
20390835,0.0,-0.0,-0.0136736,0.00694144,0.999977,0.0,-0.0,-0.00683674,0.765996,-1.0,1,0,0,0,0,0,0
20494055,0.0,-0.0,-0.0132021,-0.000338198,0.999978,0.0,-0.0,-0.00660099,0.77827,-1.0,1,0,0,0,0,0,0
20594163,0.0,-0.0,-0.0132145,6.11453e-06,0.999978,0.0,-0.0,-0.00660719,0.778113,-1.0,1,0,0,0,0,0,0
20693945,0.0,-0.0,-0.0132146,7.11138e-07,0.999978,0.0,-0.0,-0.00660726,0.779135,-1.0,1,0,0,0,0,0,0
20798971,0.0,-0.0,-0.0132146,6.84066e-09,0.999978,0.0,-0.0,-0.00660726,0.778086,-1.0,1,0,0,0,0,0,0
20898935,0.0,-0.0,-0.0132146,-4.77352e-10,0.999978,0.0,-0.0,-0.00660726,0.778105,-1.0,1,0,0,0,0,0,0
21002195,0.0,-0.0,-0.0132146,-8.55699e-12,0.999978,0.0,-0.0,-0.00660726,0.779135,-1.0,1,0,0,0,0,0,0
21102930,0.0,-0.0,-0.0132146,-1.0501e-13,0.999978,0.0,-0.0,-0.00660726,0.778031,-1.0,1,0,0,0,0,0,0
21105923,0.0,-0.0,-0.0132146,0.0,0.999978,0.0,-0.0,-0.00660726,0.778031,-1.0,1,0,0,0,0,0,0
21105923,0.0,-0.0,-0.0132146,0.0,0.999978,0.0,-0.0,-0.00660726,0.778031,-1.0,1,0,0,0,0,0,0
21105923,0.0,-0.0,-0.0132146,0.0,0.999978,0.0,-0.0,-0.00660726,0.778031,-1.0,1,0,0,0,0,0,0
21105923,0.0,-0.0,-0.0132146,0.0,0.999978,0.0,-0.0,-0.00660726,0.778031,-1.0,1,0,0,0,0,0,0
21105923,0.0,-0.0,-0.0132146,0.0,0.999978,0.0,-0.0,-0.00660726,0.778031,-1.0,1,0,0,0,0,0,0
21105923,0.0,-0.0,-0.0132146,0.0,0.999978,0.0,-0.0,-0.00660726,0.778031,-1.0,1,0,0,0,0,0,0
21105923,0.0,-0.0,-0.0132146,0.0,0.999978,0.0,-0.0,-0.00660726,0.778031,-1.0,1,0,0,0,0,0,0
21105923,0.0,-0.0,-0.0132146,0.0,0.999978,0.0,-0.0,-0.00660726,0.778031,-1.0,1,0,0,0,0,0,0
21105923,0.0,-0.0,-0.0132146,0.0,0.999978,0.0,-0.0,-0.00660726,0.778031,-1.0,1,0,0,0,0,0,0
21105923,0.0,-0.0,-0.0132146,0.0,0.999978,0.0,-0.0,-0.00660726,0.778031,-1.0,1,0,0,0,0,0,0
21105923,0.0,-0.0,-0.0132146,0.0,0.999978,0.0,-0.0,-0.00660726,0.778031,-1.0,1,0,0,0,0,0,0
21105923,0.0,-0.0,-0.0132146,0.0,0.999978,0.0,-0.0,-0.00660726,0.778031,-1.0,1,0,0,0,0,0,0
21105923,0.0,-0.0,-0.0132146,0.0,0.999978,0.0,-0.0,-0.00660726,0.778031,-1.0,1,0,0,0,0,0,0
21105923,0.0,-0.0,-0.0132146,0.0,0.999978,0.0,-0.0,-0.00660726,0.778031,-1.0,1,0,0,0,0,0,0
21105923,0.0,-0.0,-0.0132146,0.0,0.999978,0.0,-0.0,-0.00660726,0.778031,-1.0,1,0,0,0,0,0,0
21105923,0.0,-0.0,-0.0132146,0.0,0.999978,0.0,-0.0,-0.00660726,0.778031,-1.0,1,0,0,0,0,0,0
21105923,0.0,-0.0,-0.0132146,0.0,0.999978,0.0,-0.0,-0.00660726,0.778031,-1.0,1,0,0,0,0,0,0
21105923,0.0,-0.0,-0.0132146,0.0,0.999978,0.0,-0.0,-0.00660726,0.778031,-1.0,1,0,0,0,0,0,0
21105923,0.0,-0.0,-0.0132146,0.0,0.999978,0.0,-0.0,-0.00660726,0.778031,-1.0,1,0,0,0,0,0,0
21105923,0.0,-0.0,-0.0132146,0.0,0.999978,0.0,-0.0,-0.00660726,0.778031,-1.0,1,0,0,0,0,0,0
21105923,0.0,-0.0,-0.0132146,0.0,0.999978,0.0,-0.0,-0.00660726,0.778031,-1.0,1,0,0,0,0,0,0
21105923,0.0,-0.0,-0.0132146,0.0,0.999978,0.0,-0.0,-0.00660726,0.778031,-1.0,1,0,0,0,0,0,0
21105923,0.0,-0.0,-0.0132146,0.0,0.999978,0.0,-0.0,-0.00660726,0.778031,-1.0,1,0,0,0,0,0,0
23538971,0.0433355,-3.80825e-05,0.160784,0.0,0.996536,0.0215976,0.00172092,0.0802868,0.778566,-1.0,1,0,0,0,0,0,0
23639114,-0.000764374,9.8719e-07,0.160784,0.0,0.99677,-0.000380992,-3.01997e-05,0.0803056,0.778912,-1.0,1,0,0,0,0,0,0
23742088,-2.17055e-05,2.63721e-08,0.160784,0.0,0.99677,-1.08188e-05,-8.58393e-07,0.0803056,0.778595,-1.0,1,0,0,0,0,0,0
23842900,-2.28657e-07,2.09491e-10,0.160784,0.0,0.99677,-1.13968e-07,-9.07681e-09,0.0803056,0.778079,-1.0,1,0,0,0,0,0,0
23944926,4.95171e-09,-6.88639e-12,0.160784,0.0,0.99677,2.46814e-09,1.95393e-10,0.0803056,0.778106,-1.0,1,0,0,0,0,0,0
24046252,-0.00649732,-6.00645e-13,0.160784,0.0,0.996765,-0.00323816,-0.000260885,0.0803052,0.778449,-1.0,1,0,0,0,0,0,0
24145942,-0.0211847,-5.15365e-15,0.160784,0.0,0.996714,-0.0105579,-0.000850608,0.0803011,0.778057,-1.0,1,0,0,0,0,0,0
24245943,0.00166865,2.69002e-17,0.160784,0.0,0.99677,0.000831631,6.7001e-05,0.0803056,0.778106,-1.0,1,0,0,0,0,0,0
24351046,-2.0952e-05,7.41203e-18,0.160784,0.0,0.99677,-1.04422e-05,-8.41283e-07,0.0803056,0.779135,-1.0,1,0,0,0,0,0,0
24451306,-8.71331e-07,8.46416e-20,0.160784,0.0,0.99677,-4.34258e-07,-3.49864e-08,0.0803056,0.778086,-1.0,1,0,0,0,0,0,0
24554151,-2.05502e-08,-4.28578e-21,0.160784,0.0,0.99677,-1.02419e-08,-8.2515e-10,0.0803056,0.778105,-1.0,1,0,0,0,0,0,0
24654055,0.0,-0.0,0.160784,0.0,0.99677,0.0,0.0,0.0803056,0.778793,-1.0,1,0,0,0,0,0,0
24754881,0.0,-0.0,0.155629,-0.188131,0.996974,0.0,0.0,0.0777357,0.911279,-1.0,1,0,0,0,0,0,0
24857941,0.0,-0.0,0.103669,-0.333384,0.998657,0.0,0.0,0.0518112,0.9995,-1.0,1,0,0,0,0,0,0
24958211,0.0,-0.0,0.0721983,-0.310897,0.999349,0.0,0.0,0.0360913,1.0,-1.0,1,0,0,0,0,0,0
25061981,0.0,-0.0,0.0438467,-0.17406,0.99976,0.0,0.0,0.0219216,1.0,-1.0,1,0,0,0,0,0,0
25162753,0.0,-0.0,0.0451835,-0.000233329,0.999745,0.0,0.0,0.0225898,1.0,-1.0,1,0,0,0,0,0,0
25262912,0.0,-0.0,0.0451731,2.73759e-05,0.999745,0.0,0.0,0.0225847,1.0,-1.0,1,0,0,0,0,0,0
25365940,0.0,-0.0,0.0451732,4.33144e-07,0.999745,0.0,0.0,0.0225847,1.0,-1.0,1,0,0,0,0,0,0
25378154,0.0,-0.0,0.0451732,0.0,0.999745,0.0,0.0,0.0225847,1.0,-1.0,1,0,0,0,0,0,0
25378154,0.0,-0.0,0.0451732,0.0,0.999745,0.0,0.0,0.0225847,1.0,-1.0,1,0,0,0,0,0,0
25378154,0.0,-0.0,0.0451732,0.0,0.999745,0.0,0.0,0.0225847,1.0,-1.0,1,0,0,0,0,0,0
25378154,0.0,-0.0,0.0451732,0.0,0.999745,0.0,0.0,0.0225847,1.0,-1.0,1,0,0,0,0,0,0
25378154,0.0,-0.0,0.0451732,0.0,0.999745,0.0,0.0,0.0225847,1.0,-1.0,1,0,0,0,0,0,0
25378154,0.0,-0.0,0.0451732,0.0,0.999745,0.0,0.0,0.0225847,1.0,-1.0,1,0,0,0,0,0,0
25378154,0.0,-0.0,0.0451732,0.0,0.999745,0.0,0.0,0.0225847,1.0,-1.0,1,0,0,0,0,0,0
25378154,0.0,-0.0,0.0451732,0.0,0.999745,0.0,0.0,0.0225847,1.0,-1.0,1,0,0,0,0,0,0
25378154,0.0,-0.0,0.0451732,0.0,0.999745,0.0,0.0,0.0225847,1.0,-1.0,1,0,0,0,0,0,0
25378154,0.0,-0.0,0.0451732,0.0,0.999745,0.0,0.0,0.0225847,1.0,-1.0,1,0,0,0,0,0,0
25378154,0.0,-0.0,0.0451732,0.0,0.999745,0.0,0.0,0.0225847,1.0,-1.0,1,0,0,0,0,0,0
25378154,0.0,-0.0,0.0451732,0.0,0.999745,0.0,0.0,0.0225847,1.0,-1.0,1,0,0,0,0,0,0
25378154,0.0,-0.0,0.0451732,0.0,0.999745,0.0,0.0,0.0225847,1.0,-1.0,1,0,0,0,0,0,0
25378154,0.0,-0.0,0.0451732,0.0,0.999745,0.0,0.0,0.0225847,1.0,-1.0,1,0,0,0,0,0,0
25378154,0.0,-0.0,0.0451732,0.0,0.999745,0.0,0.0,0.0225847,1.0,-1.0,1,0,0,0,0,0,0
25378154,0.0,-0.0,0.0451732,0.0,0.999745,0.0,0.0,0.0225847,1.0,-1.0,1,0,0,0,0,0,0
25378154,0.0,-0.0,0.0451732,0.0,0.999745,0.0,0.0,0.0225847,1.0,-1.0,1,0,0,0,0,0,0
25378154,0.0,-0.0,0.0451732,0.0,0.999745,0.0,0.0,0.0225847,1.0,-1.0,1,0,0,0,0,0,0
25378154,0.0,-0.0,0.0451732,0.0,0.999745,0.0,0.0,0.0225847,1.0,-1.0,1,0,0,0,0,0,0
25378154,0.0,-0.0,0.0451732,0.0,0.999745,0.0,0.0,0.0225847,1.0,-1.0,1,0,0,0,0,0,0
25378154,0.0,-0.0,0.0451732,0.0,0.999745,0.0,0.0,0.0225847,1.0,-1.0,1,0,0,0,0,0,0
25378154,0.0,-0.0,0.0451732,0.0,0.999745,0.0,0.0,0.0225847,1.0,-1.0,1,0,0,0,0,0,0
25378154,0.0,-0.0,0.0451732,0.0,0.999745,0.0,0.0,0.0225847,1.0,-1.0,1,0,0,0,0,0,0
25378154,0.0,-0.0,0.0451732,0.0,0.999745,0.0,0.0,0.0225847,1.0,-1.0,1,0,0,0,0,0,0
25378154,0.0,-0.0,0.0451732,0.0,0.999745,0.0,0.0,0.0225847,1.0,-1.0,1,0,0,0,0,0,0
25378154,0.0,-0.0,0.0451732,0.0,0.999745,0.0,0.0,0.0225847,1.0,-1.0,1,0,0,0,0,0,0
25378154,0.0,-0.0,0.0451732,0.0,0.999745,0.0,0.0,0.0225847,1.0,-1.0,1,0,0,0,0,0,0
25378154,0.0,-0.0,0.0451732,0.0,0.999745,0.0,0.0,0.0225847,1.0,-1.0,1,0,0,0,0,0,0
25378154,0.0,-0.0,0.0451732,0.0,0.999745,0.0,0.0,0.0225847,1.0,-1.0,1,0,0,0,0,0,0
25378154,0.0,-0.0,0.0451732,0.0,0.999745,0.0,0.0,0.0225847,1.0,-1.0,1,0,0,0,0,0,0
25378154,0.0,-0.0,0.0451732,0.0,0.999745,0.0,0.0,0.0225847,1.0,-1.0,1,0,0,0,0,0,0
25378154,0.0,-0.0,0.0451732,0.0,0.999745,0.0,0.0,0.0225847,1.0,-1.0,1,0,0,0,0,0,0
25378154,0.0,-0.0,0.0451732,0.0,0.999745,0.0,0.0,0.0225847,1.0,-1.0,1,0,0,0,0,0,0
25378154,0.0,-0.0,0.0451732,0.0,0.999745,0.0,0.0,0.0225847,1.0,-1.0,1,0,0,0,0,0,0
25378154,0.0,-0.0,0.0451732,0.0,0.999745,0.0,0.0,0.0225847,1.0,-1.0,1,0,0,0,0,0,0
25378154,0.0,-0.0,0.0451732,0.0,0.999745,0.0,0.0,0.0225847,1.0,-1.0,1,0,0,0,0,0,0
25378154,0.0,-0.0,0.0451732,0.0,0.999745,0.0,0.0,0.0225847,1.0,-1.0,1,0,0,0,0,0,0
25378154,0.0,-0.0,0.0451732,0.0,0.999745,0.0,0.0,0.0225847,1.0,-1.0,1,0,0,0,0,0,0
25378154,0.0,-0.0,0.0451732,0.0,0.999745,0.0,0.0,0.0225847,1.0,-1.0,1,0,0,0,0,0,0
25378154,0.0,-0.0,0.0451732,0.0,0.999745,0.0,0.0,0.0225847,1.0,-1.0,1,0,0,0,0,0,0
25378154,0.0,-0.0,0.0451732,0.0,0.999745,0.0,0.0,0.0225847,1.0,-1.0,1,0,0,0,0,0,0
25378154,0.0,-0.0,0.0451732,0.0,0.999745,0.0,0.0,0.0225847,1.0,-1.0,1,0,0,0,0,0,0
25378154,0.0,-0.0,0.0451732,0.0,0.999745,0.0,0.0,0.0225847,1.0,-1.0,1,0,0,0,0,0,0
25378154,0.0,-0.0,0.0451732,0.0,0.999745,0.0,0.0,0.0225847,1.0,-1.0,1,0,0,0,0,0,0
25378154,0.0,-0.0,0.0451732,0.0,0.999745,0.0,0.0,0.0225847,1.0,-1.0,1,0,0,0,0,0,0
25378154,0.0,-0.0,0.0451732,0.0,0.999745,0.0,0.0,0.0225847,1.0,-1.0,1,0,0,0,0,0,0
25378154,0.0,-0.0,0.0451732,0.0,0.999745,0.0,0.0,0.0225847,1.0,-1.0,1,0,0,0,0,0,0
25378154,0.0,-0.0,0.0451732,0.0,0.999745,0.0,0.0,0.0225847,1.0,-1.0,1,0,0,0,0,0,0
25378154,0.0,-0.0,0.0451732,0.0,0.999745,0.0,0.0,0.0225847,1.0,-1.0,1,0,0,0,0,0,0
25378154,0.0,-0.0,0.0451732,0.0,0.999745,0.0,0.0,0.0225847,1.0,-1.0,1,0,0,0,0,0,0
25378154,0.0,-0.0,0.0451732,0.0,0.999745,0.0,0.0,0.0225847,1.0,-1.0,1,0,0,0,0,0,0
25378154,0.0,-0.0,0.0451732,0.0,0.999745,0.0,0.0,0.0225847,1.0,-1.0,1,0,0,0,0,0,0
25378154,0.0,-0.0,0.0451732,0.0,0.999745,0.0,0.0,0.0225847,1.0,-1.0,1,0,0,0,0,0,0
25378154,0.0,-0.0,0.0451732,0.0,0.999745,0.0,0.0,0.0225847,1.0,-1.0,1,0,0,0,0,0,0
25378154,0.0,-0.0,0.0451732,0.0,0.999745,0.0,0.0,0.0225847,1.0,-1.0,1,0,0,0,0,0,0
25378154,0.0,-0.0,0.0451732,0.0,0.999745,0.0,0.0,0.0225847,1.0,-1.0,1,0,0,0,0,0,0
25378154,0.0,-0.0,0.0451732,0.0,0.999745,0.0,0.0,0.0225847,1.0,-1.0,1,0,0,0,0,0,0
25378154,0.0,-0.0,0.0451732,0.0,0.999745,0.0,0.0,0.0225847,1.0,-1.0,1,0,0,0,0,0,0
31355659,-0.20175,-0.0566179,0.042614,0.0,0.994353,-0.100041,-0.0302996,0.0183388,0.120475,-1.0,1,0,0,0,0,0,0
31454828,-0.7498,-0.260647,0.042614,0.0,0.923458,-0.360415,-0.128637,-0.0279186,0.140147,1.0,1,0,0,0,0,0,0
31558290,-0.749859,-0.26044,0.042614,0.0,0.923459,-0.36045,-0.128541,-0.0278844,0.163249,1.0,1,0,0,0,0,0,0
31659189,-0.749897,-0.260307,0.042614,0.0,0.923459,-0.360472,-0.128479,-0.0278626,0.168898,1.0,1,0,0,0,0,0,0
31759017,-0.750016,-0.259891,0.042614,0.0,0.923461,-0.36054,-0.128286,-0.0277942,0.169639,1.0,1,0,0,0,0,0,0
31862529,-0.749653,-0.261159,0.042614,0.0,0.923455,-0.36033,-0.128875,-0.0280026,0.169702,1.0,1,0,0,0,0,0,0
31963230,-0.74929,-0.26242,0.042614,0.0,0.923449,-0.36012,-0.129461,-0.0282096,0.169705,1.0,1,0,0,0,0,0,0
32067268,-0.749273,-0.26248,0.042614,0.0,0.923448,-0.36011,-0.129489,-0.0282195,0.169705,1.0,1,0,0,0,0,0,0
32168237,-0.74965,-0.261168,0.042614,0.0,0.923455,-0.360329,-0.128879,-0.0280041,0.169703,1.0,1,0,0,0,0,0,0
32265394,-0.749802,-0.26064,0.042614,0.0,0.923458,-0.360416,-0.128633,-0.0279173,0.1697,1.0,1,0,0,0,0,0,0
32368977,-0.750501,-0.258184,0.042614,0.0,0.92347,-0.360822,-0.127492,-0.027513,0.169694,1.0,1,0,0,0,0,0,0
32470761,-0.75179,-0.253586,0.042614,0.0,0.923492,-0.361569,-0.125356,-0.0267524,0.169685,1.0,1,0,0,0,0,0,0
32573359,-0.753059,-0.248956,0.042614,0.0,0.923514,-0.362308,-0.123206,-0.025982,0.16968,1.0,1,0,0,0,0,0,0
32674999,-0.755433,-0.240017,0.042614,0.0,0.923555,-0.363692,-0.119057,-0.0244816,0.169663,1.0,1,0,0,0,0,0,0
32774175,-0.756915,-0.234231,0.042614,0.0,0.923581,-0.36456,-0.116373,-0.023502,0.169662,1.0,1,0,0,0,0,0,0
32874772,-0.759177,-0.225071,0.042614,0.0,0.923619,-0.365889,-0.112126,-0.0219377,0.169658,1.0,1,0,0,0,0,0,0
32978543,-0.761476,-0.215303,0.042614,0.0,0.923658,-0.367245,-0.107598,-0.0202524,0.169655,1.0,1,0,0,0,0,0,0
33078159,-0.763289,-0.207227,0.042614,0.0,0.923687,-0.368321,-0.103858,-0.0188463,0.16966,1.0,1,0,0,0,0,0,0
33179752,-0.765527,-0.19675,0.042614,0.0,0.923723,-0.369654,-0.0990071,-0.0170059,0.169658,1.0,1,0,0,0,0,0,0
33283212,-0.767421,-0.18737,0.042614,0.0,0.923752,-0.370789,-0.0946666,-0.0153435,0.169663,1.0,1,0,0,0,0,0,0
33382591,-0.769684,-0.175444,0.042614,0.0,0.923785,-0.372154,-0.0891505,-0.013211,0.16966,1.0,1,0,0,0,0,0,0
33486174,-0.771082,-0.167615,0.042614,0.0,0.923804,-0.373003,-0.085531,-0.0118004,0.169673,1.0,1,0,0,0,0,0,0
33586763,-0.77301,-0.156119,0.042614,0.0,0.923828,-0.374181,-0.0802183,-0.00971464,0.169673,1.0,1,0,0,0,0,0,0
33687019,-0.77444,-0.146969,0.042614,0.0,0.923845,-0.375063,-0.0759906,-0.0080428,0.169676,1.0,1,0,0,0,0,0,0
33791187,-0.775856,-0.137269,0.042614,0.0,0.923858,-0.375943,-0.0715107,-0.00626041,0.203284,1.0,1,0,0,0,0,0,0
33890827,-0.777337,-0.126298,0.042614,0.0,0.92387,-0.376871,-0.0664447,-0.00423239,0.357345,1.0,1,0,0,0,0,0,0
33994969,-0.778612,-0.115976,0.042614,0.0,0.923877,-0.37768,-0.0616795,-0.00231379,0.460622,1.0,1,0,0,0,0,0,0
34094277,-0.779692,-0.106426,0.042614,0.0,0.923879,-0.378374,-0.0572712,-0.000530241,0.524201,1.0,1,0,0,0,0,0,0
34193945,-0.780932,-0.094235,0.042614,0.0,0.923878,-0.379182,-0.0516453,0.00175681,0.567322,1.0,1,0,0,0,0,0,0
34297238,-0.781903,-0.0834119,0.042614,0.0,0.923872,-0.379829,-0.0466509,0.00379611,0.597057,1.0,1,0,0,0,0,0,0
34399160,-0.782803,-0.0719211,0.042614,0.0,0.92386,-0.380443,-0.0413488,0.00596914,0.616805,1.0,1,0,0,0,0,0,0
34499488,-0.78374,-0.0575221,0.042614,0.0,0.923839,-0.381107,-0.0347047,0.00870189,0.629254,1.0,1,0,0,0,0,0,0
34602762,-0.784557,-0.0409839,0.042614,0.0,0.923804,-0.381725,-0.027073,0.0118513,0.637254,1.0,1,0,0,0,0,0,0
34702234,-0.785103,-0.024306,0.042614,0.0,0.923757,-0.382193,-0.0193755,0.0150354,0.640544,1.0,1,0,0,0,0,0,0
34794534,-0.785385,-0.00510589,0.042614,0.0,0.92369,-0.382539,-0.0105112,0.0187069,0.640301,1.0,1,0,0,0,0,0,0
34794534,-0.785385,-0.00510589,0.042614,0.0,0.92369,-0.382539,-0.0105112,0.0187069,0.640301,1.0,1,0,0,0,0,0,0
34794534,-0.785385,-0.00510589,0.042614,0.0,0.92369,-0.382539,-0.0105112,0.0187069,0.640301,1.0,1,0,0,0,0,0,0
34794534,-0.785385,-0.00510589,0.042614,0.0,0.92369,-0.382539,-0.0105112,0.0187069,0.640301,1.0,1,0,0,0,0,0,0
34794534,-0.785385,-0.00510589,0.042614,0.0,0.92369,-0.382539,-0.0105112,0.0187069,0.640301,1.0,1,0,0,0,0,0,0
34794534,-0.785385,-0.00510589,0.042614,0.0,0.92369,-0.382539,-0.0105112,0.0187069,0.640301,1.0,1,0,0,0,0,0,0
34794534,-0.785385,-0.00510589,0.042614,0.0,0.92369,-0.382539,-0.0105112,0.0187069,0.640301,1.0,1,0,0,0,0,0,0
34794534,-0.785385,-0.00510589,0.042614,0.0,0.92369,-0.382539,-0.0105112,0.0187069,0.640301,1.0,1,0,0,0,0,0,0
34794534,-0.785385,-0.00510589,0.042614,0.0,0.92369,-0.382539,-0.0105112,0.0187069,0.640301,1.0,1,0,0,0,0,0,0
34794534,-0.785385,-0.00510589,0.042614,0.0,0.92369,-0.382539,-0.0105112,0.0187069,0.640301,1.0,1,0,0,0,0,0,0
34794534,-0.785385,-0.00510589,0.042614,0.0,0.92369,-0.382539,-0.0105112,0.0187069,0.640301,1.0,1,0,0,0,0,0,0
34794534,-0.785385,-0.00510589,0.042614,0.0,0.92369,-0.382539,-0.0105112,0.0187069,0.640301,1.0,1,0,0,0,0,0,0
34794534,-0.785385,-0.00510589,0.042614,0.0,0.92369,-0.382539,-0.0105112,0.0187069,0.640301,1.0,1,0,0,0,0,0,0
34794534,-0.785385,-0.00510589,0.042614,0.0,0.92369,-0.382539,-0.0105112,0.0187069,0.640301,1.0,1,0,0,0,0,0,0
34794534,-0.785385,-0.00510589,0.042614,0.0,0.92369,-0.382539,-0.0105112,0.0187069,0.640301,1.0,1,0,0,0,0,0,0
34794534,-0.785385,-0.00510589,0.042614,0.0,0.92369,-0.382539,-0.0105112,0.0187069,0.640301,1.0,1,0,0,0,0,0,0
36426061,0.0,-0.0,0.0302559,0.0,0.999886,0.0,0.0,0.0151274,1.0,1.0,1,0,0,0,0,0,0
36531094,0.0,-0.0,0.0302559,0.0,0.999886,0.0,0.0,0.0151274,1.0,1.0,1,0,0,0,0,0,0
36626725,0.0,-0.0,0.0302559,0.0,0.999886,0.0,0.0,0.0151274,1.0,1.0,1,0,0,0,0,0,0
36734659,0.0,-0.0,0.0302559,0.0,0.999886,0.0,0.0,0.0151274,1.0,1.0,1,0,0,0,0,0,0
36833655,0.0,-0.0,0.0302559,0.0,0.999886,0.0,0.0,0.0151274,1.0,1.0,1,0,0,0,0,0,0
36934046,0.0,-0.0,0.0302559,0.0,0.999886,0.0,0.0,0.0151274,1.0,1.0,1,0,0,0,0,0,0
37039218,0.0,-0.0,0.0302559,0.0,0.999886,0.0,0.0,0.0151274,1.0,1.0,1,0,0,0,0,0,0
37139400,0.0,-0.0,0.0302559,0.0,0.999886,0.0,0.0,0.0151274,1.0,1.0,1,0,0,0,0,0,0
37239183,0.0,-0.0,0.0302559,0.0,0.999886,0.0,0.0,0.0151274,1.0,1.0,1,0,0,0,0,0,0
37342055,0.0,-0.0,0.0326268,0.0947584,0.999867,0.0,0.0,0.0163127,0.992666,1.0,1,0,0,0,0,0,0
37442509,0.0,-0.0,0.0465464,0.149483,0.999729,0.0,0.0,0.0232711,0.816679,1.0,1,0,0,0,0,0,0
37546041,0.0,-0.0,0.0588944,0.0702817,0.999566,0.0,0.0,0.0294429,0.669454,1.0,1,0,0,0,0,0,0
37646409,0.0,-0.0,0.062436,0.0122908,0.999513,0.0,0.0,0.0312129,0.611526,1.0,1,0,0,0,0,0,0
37746616,0.0,-0.0,0.0633726,0.00431696,0.999498,0.0,0.0,0.031681,0.546436,1.0,1,0,0,0,0,0,0
37851478,0.0,-0.0,0.0641593,0.0117159,0.999485,0.0,0.0,0.0320741,0.521647,1.0,1,0,0,0,0,0,0
37951136,0.0,-0.0,0.0660567,0.0262895,0.999455,0.0,0.0,0.0330223,0.52196,1.0,1,0,0,0,0,0,0
38054162,0.0,-0.0,0.0681055,0.0103505,0.99942,0.0,0.0,0.0340462,0.521843,1.0,1,0,0,0,0,0,0
38155160,0.0,-0.0,0.068482,0.00273215,0.999414,0.0,0.0,0.0342343,0.521819,1.0,1,0,0,0,0,0,0
38253566,0.0,-0.0,0.0686737,0.000263461,0.999411,0.0,0.0,0.0343301,0.52222,1.0,1,0,0,0,0,0,0
38357060,0.0,-0.0,0.068662,1.26542e-05,0.999411,0.0,0.0,0.0343243,0.522104,1.0,1,0,0,0,0,0,0
38458029,0.0,-0.0,0.068662,2.82672e-07,0.999411,0.0,0.0,0.0343242,0.523818,1.0,1,0,0,0,0,0,0
38558044,0.0,-0.0,0.068662,-1.76488e-10,0.999411,0.0,0.0,0.0343242,0.523666,1.0,1,0,0,0,0,0,0
38662039,0.0,-0.0,0.068662,-1.04654e-10,0.999411,0.0,0.0,0.0343242,0.524697,1.0,1,0,0,0,0,0,0
38762032,0.0,-0.0,0.068662,-2.91427e-12,0.999411,0.0,0.0,0.0343242,0.526798,1.0,1,0,0,0,0,0,0
38863429,0.0,-0.0,0.068662,-2.83332e-14,0.999411,0.0,0.0,0.0343242,0.52665,1.0,1,0,0,0,0,0,0
38967059,0.0,-0.0,0.068662,6.94984e-16,0.999411,0.0,0.0,0.0343242,0.536589,1.0,1,0,0,0,0,0,0
39066420,0.0,-0.0,0.068662,6.90202e-17,0.999411,0.0,0.0,0.0343242,0.564807,1.0,1,0,0,0,0,0,0
39167161,0.0,-0.0,0.068662,6.27144e-19,0.999411,0.0,0.0,0.0343242,0.588936,1.0,1,0,0,0,0,0,0
39270634,0.0,-0.0,0.068662,-2.10237e-21,0.999411,0.0,0.0,0.0343242,0.592095,1.0,1,0,0,0,0,0,0
39371040,0.0,-0.0,0.068662,-8.41389e-22,0.999411,0.0,0.0,0.0343242,0.59166,1.0,1,0,0,0,0,0,0
39474061,0.0,-0.0,0.068662,-9.95284e-24,0.999411,0.0,0.0,0.0343242,0.591716,1.0,1,0,0,0,0,0,0
39575407,0.0,-0.0,0.068662,-3.97522e-26,0.999411,0.0,0.0,0.0343242,0.582662,1.0,1,0,0,0,0,0,0
39678424,0.0,-0.0,0.068662,9.57426e-27,0.999411,0.0,0.0,0.0343242,0.583326,1.0,1,0,0,0,0,0,0
39778143,0.0,-0.0,0.068662,1.36323e-28,0.999411,0.0,0.0,0.0343242,0.553005,1.0,1,0,0,0,0,0,0
39878106,0.0,-0.0,0.068662,-4.1412e-30,0.999411,0.0,0.0,0.0343242,0.526244,1.0,1,0,0,0,0,0,0
39980104,0.0,-0.0,0.068662,-1.02123e-31,0.999411,0.0,0.0,0.0343242,0.525622,1.0,1,0,0,0,0,0,0
40083668,0.0,-0.0,0.068871,0.00865476,0.999407,0.0,0.0,0.0344287,0.490449,1.0,1,0,0,0,0,0,0
40182070,0.0,-0.0,0.0734495,0.0928812,0.999326,0.0,0.0,0.0367165,0.387314,1.0,1,0,0,0,0,0,0
40287146,0.0,-0.0,0.0849991,0.12224,0.999097,0.0,0.0,0.0424867,0.304469,1.0,1,0,0,0,0,0,0
40387189,0.0,-0.0,0.0996157,0.162342,0.99876,0.0,0.0,0.0497872,0.239444,1.0,1,0,0,0,0,0,0
40490163,0.0,-0.0,0.118157,0.198128,0.998255,0.0,0.0,0.0590439,0.168551,1.0,1,0,0,0,0,0,0
40589550,0.0,-0.0,0.138698,0.210631,0.997596,0.0,0.0,0.0692933,0.134473,1.0,1,0,0,0,0,0,0
40693003,0.0,-0.0,0.161294,0.219344,0.99675,0.0,0.0,0.0805594,0.104587,1.0,1,0,0,0,0,0,0
40794173,0.0,-0.0,0.163494,0.219344,0.996661,0.0,0.0,0.0816561,0.0960898,1.0,1,0,0,0,0,0,0
40894024,0.0,-0.0,0.163494,0.219344,0.996661,0.0,0.0,0.0816561,0.0946359,1.0,1,0,0,0,0,0,0
40995782,0.0,-0.0,0.163494,0.219344,0.996661,0.0,0.0,0.0816561,0.08,1.0,1,0,0,0,0,0,0
41099056,0.0,-0.0,0.163494,0.219344,0.996661,0.0,0.0,0.0816561,0.08,1.0,1,0,0,0,0,0,0
41199791,0.0,-0.0,0.163494,0.219344,0.996661,0.0,0.0,0.0816561,0.08,1.0,1,0,0,0,0,0,0
41301612,0.0,-0.0,0.163494,0.219344,0.996661,0.0,0.0,0.0816561,0.08,1.0,1,0,0,0,0,0,0
41402036,0.0,-0.0,0.163494,0.219344,0.996661,0.0,0.0,0.0816561,0.08,1.0,1,0,0,0,0,0,0
41502428,0.0,-0.0,0.163494,0.219344,0.996661,0.0,0.0,0.0816561,0.08,1.0,1,0,0,0,0,0,0
41602341,0.0,-0.0,0.163494,0.219344,0.996661,0.0,0.0,0.0816561,0.08,1.0,1,0,0,0,0,0,0
41707639,0.0,-0.0,0.163494,0.219344,0.996661,0.0,0.0,0.0816561,0.08,1.0,1,0,0,0,0,0,0
41806037,0.0,-0.0,0.163494,0.219344,0.996661,0.0,0.0,0.0816561,0.08,1.0,1,0,0,0,0,0,0
41910658,0.0,-0.0,0.163494,0.219344,0.996661,0.0,0.0,0.0816561,0.08,1.0,1,0,0,0,0,0,0
42010209,0.0,-0.0,0.163494,0.219344,0.996661,0.0,0.0,0.0816561,0.08,1.0,1,0,0,0,0,0,0
42111214,0.0,-0.0,0.163494,0.219344,0.996661,0.0,0.0,0.0816561,0.08,1.0,1,0,0,0,0,0,0
42215022,0.0,-0.0,0.163494,0.219344,0.996661,0.0,0.0,0.0816561,0.08,1.0,1,0,0,0,0,0,0
42316256,0.0,-0.0,0.163494,0.219344,0.996661,0.0,0.0,0.0816561,0.08,1.0,1,0,0,0,0,0,0
42415943,0.0,-0.0,0.163494,0.219344,0.996661,0.0,0.0,0.0816561,0.08,1.0,1,0,0,0,0,0,0
42519987,0.0,-0.0,0.163494,0.219344,0.996661,0.0,0.0,0.0816561,0.08,1.0,1,0,0,0,0,0,0
42617434,0.0,-0.0,0.163494,0.219344,0.996661,0.0,0.0,0.0816561,0.08,1.0,1,0,0,0,0,0,0
42721672,0.0,-0.0,0.163494,0.219344,0.996661,0.0,0.0,0.0816561,0.08,1.0,1,0,0,0,0,0,0
42822091,0.0,-0.0,0.163494,0.219344,0.996661,0.0,0.0,0.0816561,0.08,1.0,1,0,0,0,0,0,0
42926055,0.0,-0.0,0.163494,0.219344,0.996661,0.0,0.0,0.0816561,0.08,1.0,1,0,0,0,0,0,0
43027693,0.0,-0.0,0.163494,0.219344,0.996661,0.0,0.0,0.0816561,0.08,1.0,1,0,0,0,0,0,0
43126121,0.0,-0.0,0.163494,0.219344,0.996661,0.0,0.0,0.0816561,0.08,1.0,1,0,0,0,0,0,0
43226434,0.0,-0.0,0.163494,0.219344,0.996661,0.0,0.0,0.0816561,0.08,1.0,1,0,0,0,0,0,0
43331412,0.0,-0.0,0.163494,0.219344,0.996661,0.0,0.0,0.0816561,0.08,1.0,1,0,0,0,0,0,0
43431685,0.0,-0.0,0.163494,0.219344,0.996661,0.0,0.0,0.0816561,0.08,1.0,1,0,0,0,0,0,0
43534038,0.0,-0.0,0.163494,0.219344,0.996661,0.0,0.0,0.0816561,0.08,1.0,1,0,0,0,0,0,0
43613054,0.0,-0.0,0.163494,0.0,0.996661,0.0,0.0,0.0816561,0.08,1.0,1,0,0,0,0,0,0
43734326,0.0,-0.0,0.042614,0.0,0.999773,0.0,-0.0,0.0213054,1.0,1.0,1,0,0,0,0,0,0
43839542,0.0,-0.0,0.042614,0.0,0.999773,0.0,-0.0,0.0213054,1.0,1.0,1,0,0,0,0,0,0
43938877,0.0,-0.0,0.042614,0.0,0.999773,0.0,-0.0,0.0213054,1.0,1.0,1,0,0,0,0,0,0
44042625,0.0,-0.0,0.042614,0.0,0.999773,0.0,-0.0,0.0213054,1.0,1.0,1,0,0,0,0,0,0
44143168,0.0,-0.0,0.042614,0.0,0.999773,0.0,-0.0,0.0213054,1.0,1.0,1,0,0,0,0,0,0
44242826,0.0,-0.0,0.042614,0.0,0.999773,0.0,-0.0,0.0213054,1.0,1.0,1,0,0,0,0,0,0
44346539,0.0,-0.0,0.042614,0.0,0.999773,0.0,-0.0,0.0213054,1.0,1.0,1,0,0,0,0,0,0
44446159,0.0,-0.0,0.042614,0.0,0.999773,0.0,-0.0,0.0213054,1.0,1.0,1,0,0,0,0,0,0
44547507,0.0,-0.0,0.042614,0.0,0.999773,0.0,-0.0,0.0213054,1.0,1.0,1,0,0,0,0,0,0
44645711,0.0,-0.0,0.042614,0.0,0.999773,0.0,-0.0,0.0213054,1.0,1.0,1,0,0,0,0,0,0
44749427,0.0,-0.0,0.042614,0.0,0.999773,0.0,-0.0,0.0213054,1.0,1.0,1,0,0,0,0,0,0
44853409,0.0,-0.0,0.042614,0.0,0.999773,0.0,-0.0,0.0213054,1.0,1.0,1,0,0,0,0,0,0
44955087,0.0,-0.0,0.042614,0.0,0.999773,0.0,-0.0,0.0213054,1.0,1.0,1,0,0,0,0,0,0
45054277,0.0,-0.0,0.042614,0.0,0.999773,0.0,-0.0,0.0213054,1.0,1.0,1,0,0,0,0,0,0
45158184,0.0,-0.0,0.042614,0.0,0.999773,0.0,-0.0,0.0213054,1.0,1.0,1,0,0,0,0,0,0
45258777,0.0,-0.0,0.042614,0.0,0.999773,0.0,-0.0,0.0213054,1.0,1.0,1,0,0,0,0,0,0
45362692,0.376055,-0.0456349,0.042614,0.0,0.981805,0.187308,-0.0184268,0.0251882,1.0,1.0,1,0,0,0,0,0,0
45462547,0.559244,-0.0664948,0.042614,0.0,0.960215,0.276458,-0.0260661,0.0296388,1.0,1.0,1,0,0,0,0,0,0
45562874,0.677243,-0.0770833,0.042614,0.0,0.942026,0.33264,-0.0292636,0.0328776,0.97006,1.0,1,0,0,0,0,0,0
45662301,0.65628,-0.0660286,0.042614,0.0,0.945686,0.3227,-0.0243774,0.0307932,0.911869,1.0,1,0,0,0,0,0,0
45767161,0.621353,-0.0513305,0.042614,0.0,0.95143,0.306053,-0.0179174,0.0281221,0.804133,1.0,1,0,0,0,0,0,0
45867180,0.583211,-0.0379305,0.042614,0.0,0.957278,0.28776,-0.0120354,0.0258531,0.726292,1.0,1,0,0,0,0,0,0
45970167,0.519579,-0.0233879,0.042614,0.0,0.966095,0.257042,-0.00582623,0.0235922,0.662627,1.0,1,0,0,0,0,0,0
46070589,0.456304,-0.0101869,0.042614,0.0,0.973828,0.226229,-0.00014158,0.0219048,0.620675,1.0,1,0,0,0,0,0,0
46170152,0.381278,-0.00103401,0.042614,0.0,0.981658,0.189454,0.00352956,0.0210174,0.585794,1.0,1,0,0,0,0,0,0
46274246,0.299538,0.00550771,0.042614,0.0,0.988586,0.149117,0.00590137,0.020656,0.558755,1.0,1,0,0,0,0,0,0
46375522,0.218419,0.00927741,0.042614,0.0,0.993817,0.108869,0.00693212,0.0206728,0.539563,1.0,1,0,0,0,0,0,0
46478561,0.133442,0.0114064,0.042614,0.0,0.99754,0.066534,0.00710961,0.0208775,0.52583,1.0,1,0,0,0,0,0,0
46579496,0.057212,0.0104627,0.042614,0.0,0.999353,0.0284838,0.00583739,0.0211468,0.516465,1.0,1,0,0,0,0,0,0
46677380,-0.0169516,0.00845148,0.042614,0.0,0.999727,-0.0085637,0.00404404,0.0213403,0.510358,1.0,1,0,0,0,0,0,0
46782279,-0.0846384,0.00843514,0.042614,0.0,0.998865,-0.0423863,0.00331147,0.0214645,0.507669,1.0,1,0,0,0,0,0,0
46882208,-0.144553,0.00726591,0.042614,0.0,0.997151,-0.0722738,0.00208411,0.0215119,0.507041,1.0,1,0,0,0,0,0,0
46985443,-0.197543,0.00600979,0.042614,0.0,0.994889,-0.0986521,0.000888622,0.0214977,0.507904,1.0,1,0,0,0,0,0,0
47086489,-0.242887,0.00663197,0.042614,0.0,0.992395,-0.121187,0.000709774,0.02155,0.509637,1.0,1,0,0,0,0,0,0
47187213,-0.785062,0.025915,0.042614,0.0,0.923551,-0.382664,0.00381972,0.0246387,0.148881,1.0,1,0,0,0,0,0,0
47290235,-0.785167,0.02152,0.042614,0.0,0.923573,-0.382679,0.0017885,0.0237989,0.16512,1.0,1,0,0,0,0,0,0
47391898,-0.785198,0.0200268,0.042614,0.0,0.92358,-0.382682,0.00109844,0.0235136,0.169169,1.0,1,0,0,0,0,0,0
47490196,-0.78522,0.0188519,0.042614,0.0,0.923586,-0.382683,0.000555522,0.023289,0.258733,1.0,1,0,0,0,0,0,0
47594232,-0.569495,0.0121514,0.042614,0.0,0.959461,-0.28097,-0.000155219,0.0221535,0.341544,1.0,1,0,0,0,0,0,0
47694157,-0.446174,0.0103419,0.042614,0.0,0.97496,-0.221295,0.00032806,0.0219209,0.40262,1.0,1,0,0,0,0,0,0
47794502,-0.393964,0.0109342,0.042614,0.0,0.980402,-0.195777,0.00119049,0.0219628,0.450492,1.0,1,0,0,0,0,0,0
47899563,-0.369684,0.0129087,0.042614,0.0,0.982696,-0.183881,0.00242724,0.022128,0.478846,1.0,1,0,0,0,0,0,0
47999266,-0.352207,0.015146,0.042614,0.0,0.984254,-0.175309,0.00372162,0.0223017,0.491132,1.0,1,0,0,0,0,0,0
48102154,-0.336839,0.0169384,0.042614,0.0,0.985562,-0.167758,0.0047762,0.0224225,0.496894,1.0,1,0,0,0,0,0,0
48203494,-0.326908,0.0179894,0.042614,0.0,0.986376,-0.162873,0.00540584,0.0224839,0.499888,1.0,1,0,0,0,0,0,0
48303173,-0.309119,0.0184313,0.042614,0.0,0.987783,-0.154097,0.00582386,0.0224689,0.499864,1.0,1,0,0,0,0,0,0
48407175,-0.290068,0.0195333,0.042614,0.0,0.989199,-0.144692,0.00658274,0.0224919,0.500307,1.0,1,0,0,0,0,0,0
48507622,-0.271667,0.0205978,0.042614,0.0,0.990482,-0.135596,0.00731658,0.0225023,0.500081,1.0,1,0,0,0,0,0,0
48606326,-0.247367,0.0207348,0.042614,0.0,0.992055,-0.123553,0.00765741,0.0224202,0.498483,1.0,1,0,0,0,0,0,0
48711241,-0.224053,0.0207845,0.042614,0.0,0.993428,-0.111981,0.00794292,0.0223322,0.497354,1.0,1,0,0,0,0,0,0
48812225,-0.203339,0.0211286,0.042614,0.0,0.994532,-0.10169,0.0083449,0.0222662,0.495982,1.0,1,0,0,0,0,0,0
48910261,-0.179078,0.0219469,0.042614,0.0,0.995687,-0.0896268,0.0090218,0.0221998,0.494654,1.0,1,0,0,0,0,0,0
49015858,-0.155065,0.0221111,0.042614,0.0,0.99669,-0.0776673,0.0093695,0.0220962,0.493812,1.0,1,0,0,0,0,0,0
49114693,-0.130235,0.0223515,0.042614,0.0,0.997576,-0.0652904,0.00976302,0.021986,0.492841,1.0,1,0,0,0,0,0,0
49219965,-0.106861,0.0226216,0.042614,0.0,0.99827,-0.0536303,0.0101541,0.0218775,0.491583,1.0,1,0,0,0,0,0,0
49313753,-0.0838425,0.022742,0.042614,0.0,0.99882,-0.0421388,0.0104653,0.0217617,0.490718,1.0,1,0,0,0,0,0,0
49419596,-0.0605715,0.0238859,0.042614,0.0,0.999236,-0.0305264,0.0112894,0.0216557,0.490541,1.0,1,0,0,0,0,0,0
49521216,-0.0367747,0.0231369,0.042614,0.0,0.999533,-0.0186273,0.0111719,0.021513,0.490024,1.0,1,0,0,0,0,0,0
49623181,-0.0173206,0.0228107,0.042614,0.0,0.999668,-0.00890067,0.0112176,0.021402,0.489668,1.0,1,0,0,0,0,0,0
49723638,0.00210066,0.0246262,0.042614,0.0,0.999697,0.000787685,0.0123323,0.0212908,0.489756,1.0,1,0,0,0,0,0,0
49827563,0.0200637,0.025666,0.042614,0.0,0.999643,0.00975518,0.0130428,0.0211739,0.490358,1.0,1,0,0,0,0,0,0
49926163,0.0359164,0.0257803,0.042614,0.0,0.999534,0.0176771,0.0132673,0.0210688,0.490434,1.0,1,0,0,0,0,0,0
50031292,0.0519219,0.0256997,0.042614,0.0,0.999361,0.0256763,0.0133953,0.020963,0.490874,1.0,1,0,0,0,0,0,0
50131637,0.0642845,0.0255579,0.042614,0.0,0.999184,0.0318547,0.0134537,0.0208821,0.491493,1.0,1,0,0,0,0,0,0
50231247,0.075051,0.0250006,0.042614,0.0,0.999001,0.0372391,0.0132876,0.0208199,0.492151,1.0,1,0,0,0,0,0,0
50335492,0.0854146,0.0245003,0.042614,0.0,0.998798,0.0424207,0.0131454,0.0207615,0.492654,1.0,1,0,0,0,0,0,0
50435162,0.0931765,0.023679,0.042614,0.0,0.99863,0.0463056,0.0128158,0.0207296,0.493436,1.0,1,0,0,0,0,0,0
50535811,0.101694,0.0236706,0.042614,0.0,0.998424,0.0505582,0.0128998,0.020675,0.494171,1.0,1,0,0,0,0,0,0
50639515,0.107059,0.0223018,0.042614,0.0,0.998292,0.0532511,0.012272,0.0206771,0.494042,1.0,1,0,0,0,0,0,0
50739271,0.110904,0.0209826,0.042614,0.0,0.998194,0.055185,0.0116534,0.0206902,0.494392,1.0,1,0,0,0,0,0,0
50843239,0.113862,0.0198974,0.042614,0.0,0.998116,0.0566731,0.0111424,0.0207039,0.494845,1.0,1,0,0,0,0,0,0
50944247,0.118283,0.0195664,0.042614,0.0,0.99799,0.0588825,0.0110229,0.020689,0.495465,1.0,1,0,0,0,0,0,0
51041151,0.114341,0.018538,0.042614,0.0,0.998108,0.0569269,0.0104689,0.0207402,0.495332,1.0,1,0,0,0,0,0,0
51146425,0.116536,0.0176934,0.042614,0.0,0.998048,0.0580316,0.0100702,0.0207533,0.494936,1.0,1,0,0,0,0,0,0
51250522,0.114808,0.016092,0.042614,0.0,0.998104,0.0571866,0.00925314,0.0208081,0.495163,1.0,1,0,0,0,0,0,0
51347495,0.110566,0.0151162,0.042614,0.0,0.998226,0.0550799,0.00872198,0.0208547,0.494859,1.0,1,0,0,0,0,0,0
51451764,0.106894,0.0124645,0.042614,0.0,0.998333,0.0532756,0.00736002,0.0209417,0.49469,1.0,1,0,0,0,0,0,0
51550234,0.100446,0.0113658,0.042614,0.0,0.998502,0.0500688,0.00674396,0.020993,0.494462,1.0,1,0,0,0,0,0,0
51655500,0.097461,0.00865472,0.042614,0.0,0.998581,0.0486076,0.00535903,0.0210692,0.493982,1.0,1,0,0,0,0,0,0
51754195,0.0898994,0.00771627,0.042614,0.0,0.998759,0.0448419,0.0048107,0.0211104,0.493638,1.0,1,0,0,0,0,0,0
51854525,0.0855063,0.00602001,0.042614,0.0,0.998858,0.0426662,0.00391716,0.0211572,0.49326,1.0,1,0,0,0,0,0,0
51959211,0.0786306,0.0051713,0.042614,0.0,0.998999,0.0392411,0.00342047,0.0211873,0.492809,1.0,1,0,0,0,0,0,0
52059839,0.0723923,0.00451502,0.042614,0.0,0.999117,0.0361319,0.00302652,0.0212097,0.492743,1.0,1,0,0,0,0,0,0
52159176,0.0630006,0.00349757,0.042614,0.0,0.999277,0.0314506,0.00241853,0.0212397,0.492339,1.0,1,0,0,0,0,0,0
52263210,0.0553974,0.00213918,0.042614,0.0,0.99939,0.0276661,0.00165899,0.0212676,0.492196,1.0,1,0,0,0,0,0,0
52362481,0.0483526,0.00233848,0.042614,0.0,0.999481,0.0241435,0.00168367,0.0212709,0.491929,1.0,1,0,0,0,0,0,0
52467542,0.0409237,0.00206735,0.042614,0.0,0.999564,0.0204337,0.00146914,0.0212798,0.491956,1.0,1,0,0,0,0,0,0
52567164,0.0325039,5.24157e-05,0.042614,0.0,0.999641,0.016247,0.000372437,0.0213022,0.491849,1.0,1,0,0,0,0,0,0
52670263,0.025826,8.20885e-05,0.042614,0.0,0.99969,0.0129088,0.00031614,0.0213031,0.491539,1.0,1,0,0,0,0,0,0
52771510,0.0198305,7.07423e-05,0.042614,0.0,0.999724,0.00991206,0.000246606,0.021304,0.49104,1.0,1,0,0,0,0,0,0
52871239,0.0120494,0.00126662,0.042614,0.0,0.999755,0.00600982,0.000761512,0.0213012,0.490761,1.0,1,0,0,0,0,0,0
52972176,0.00840879,0.001472,0.042614,0.0,0.999764,0.00418775,0.000825403,0.0213021,0.490549,1.0,1,0,0,0,0,0,0
53076137,0.00308096,0.00179459,0.042614,0.0,0.999771,0.00152101,0.000929912,0.021304,0.490659,1.0,1,0,0,0,0,0,0
53173509,-0.00369437,0.00263684,0.042614,0.0,0.99977,-0.00187485,0.00127877,0.0213078,0.490458,1.0,1,0,0,0,0,0,0
53278333,-0.00628009,0.00267944,0.042614,0.0,0.999767,-0.00316787,0.00127251,0.0213095,0.490112,1.0,1,0,0,0,0,0,0
53375843,-0.0109374,0.00260548,0.042614,0.0,0.999757,-0.0054952,0.00118591,0.0213122,0.489874,1.0,1,0,0,0,0,0,0
53375843,-0.0109374,0.00260548,0.042614,0.0,0.999757,-0.0054952,0.00118591,0.0213122,0.489874,1.0,1,0,0,0,0,0,0
53375843,-0.0109374,0.00260548,0.042614,0.0,0.999757,-0.0054952,0.00118591,0.0213122,0.489874,1.0,1,0,0,0,0,0,0
53375843,-0.0109374,0.00260548,0.042614,0.0,0.999757,-0.0054952,0.00118591,0.0213122,0.489874,1.0,1,0,0,0,0,0,0
53375843,-0.0109374,0.00260548,0.042614,0.0,0.999757,-0.0054952,0.00118591,0.0213122,0.489874,1.0,1,0,0,0,0,0,0
53375843,-0.0109374,0.00260548,0.042614,0.0,0.999757,-0.0054952,0.00118591,0.0213122,0.489874,1.0,1,0,0,0,0,0,0
53375843,-0.0109374,0.00260548,0.042614,0.0,0.999757,-0.0054952,0.00118591,0.0213122,0.489874,1.0,1,0,0,0,0,0,0
53375843,-0.0109374,0.00260548,0.042614,0.0,0.999757,-0.0054952,0.00118591,0.0213122,0.489874,1.0,1,0,0,0,0,0,0
53375843,-0.0109374,0.00260548,0.042614,0.0,0.999757,-0.0054952,0.00118591,0.0213122,0.489874,1.0,1,0,0,0,0,0,0
53375843,-0.0109374,0.00260548,0.042614,0.0,0.999757,-0.0054952,0.00118591,0.0213122,0.489874,1.0,1,0,0,0,0,0,0
53375843,-0.0109374,0.00260548,0.042614,0.0,0.999757,-0.0054952,0.00118591,0.0213122,0.489874,1.0,1,0,0,0,0,0,0
53375843,-0.0109374,0.00260548,0.042614,0.0,0.999757,-0.0054952,0.00118591,0.0213122,0.489874,1.0,1,0,0,0,0,0,0
53375843,-0.0109374,0.00260548,0.042614,0.0,0.999757,-0.0054952,0.00118591,0.0213122,0.489874,1.0,1,0,0,0,0,0,0
53375843,-0.0109374,0.00260548,0.042614,0.0,0.999757,-0.0054952,0.00118591,0.0213122,0.489874,1.0,1,0,0,0,0,0,0
53375843,-0.0109374,0.00260548,0.042614,0.0,0.999757,-0.0054952,0.00118591,0.0213122,0.489874,1.0,1,0,0,0,0,0,0
53375843,-0.0109374,0.00260548,0.042614,0.0,0.999757,-0.0054952,0.00118591,0.0213122,0.489874,1.0,1,0,0,0,0,0,0
53375843,-0.0109374,0.00260548,0.042614,0.0,0.999757,-0.0054952,0.00118591,0.0213122,0.489874,1.0,1,0,0,0,0,0,0
53375843,-0.0109374,0.00260548,0.042614,0.0,0.999757,-0.0054952,0.00118591,0.0213122,0.489874,1.0,1,0,0,0,0,0,0
53375843,-0.0109374,0.00260548,0.042614,0.0,0.999757,-0.0054952,0.00118591,0.0213122,0.489874,1.0,1,0,0,0,0,0,0
53375843,-0.0109374,0.00260548,0.042614,0.0,0.999757,-0.0054952,0.00118591,0.0213122,0.489874,1.0,1,0,0,0,0,0,0
53375843,-0.0109374,0.00260548,0.042614,0.0,0.999757,-0.0054952,0.00118591,0.0213122,0.489874,1.0,1,0,0,0,0,0,0
53375843,-0.0109374,0.00260548,0.042614,0.0,0.999757,-0.0054952,0.00118591,0.0213122,0.489874,1.0,1,0,0,0,0,0,0
53375843,-0.0109374,0.00260548,0.042614,0.0,0.999757,-0.0054952,0.00118591,0.0213122,0.489874,1.0,1,0,0,0,0,0,0
53375843,-0.0109374,0.00260548,0.042614,0.0,0.999757,-0.0054952,0.00118591,0.0213122,0.489874,1.0,1,0,0,0,0,0,0
53375843,-0.0109374,0.00260548,0.042614,0.0,0.999757,-0.0054952,0.00118591,0.0213122,0.489874,1.0,1,0,0,0,0,0,0
53375843,-0.0109374,0.00260548,0.042614,0.0,0.999757,-0.0054952,0.00118591,0.0213122,0.489874,1.0,1,0,0,0,0,0,0
53375843,-0.0109374,0.00260548,0.042614,0.0,0.999757,-0.0054952,0.00118591,0.0213122,0.489874,1.0,1,0,0,0,0,0,0
53375843,-0.0109374,0.00260548,0.042614,0.0,0.999757,-0.0054952,0.00118591,0.0213122,0.489874,1.0,1,0,0,0,0,0,0
53375843,-0.0109374,0.00260548,0.042614,0.0,0.999757,-0.0054952,0.00118591,0.0213122,0.489874,1.0,1,0,0,0,0,0,0
56323220,0.0,-0.0,0.042614,0.0,0.999773,0.0,-0.0,0.0213054,1.0,1.0,1,0,0,0,0,0,0
56423561,0.0,-0.0,0.042614,0.0,0.999773,0.0,-0.0,0.0213054,1.0,1.0,1,0,0,0,0,0,0
56527180,0.0,-0.0,0.042614,0.0,0.999773,0.0,-0.0,0.0213054,1.0,1.0,1,0,0,0,0,0,0
56627192,0.0,-0.0,0.042614,0.0,0.999773,0.0,-0.0,0.0213054,1.0,1.0,1,0,0,0,0,0,0
56727933,0.0,-0.0,0.042614,0.0,0.999773,0.0,-0.0,0.0213054,1.0,1.0,1,0,0,0,0,0,0
56827831,0.0,-0.0,0.042614,0.0,0.999773,0.0,-0.0,0.0213054,1.0,1.0,1,0,0,0,0,0,0
56931572,0.0,-0.0,0.042614,0.0,0.999773,0.0,-0.0,0.0213054,1.0,1.0,1,0,0,0,0,0,0
57031276,0.0,-0.0,0.042614,0.0,0.999773,0.0,-0.0,0.0213054,1.0,1.0,1,0,0,0,0,0,0
57135199,0.0,-0.0,0.042614,0.0,0.999773,0.0,-0.0,0.0213054,1.0,1.0,1,0,0,0,0,0,0
57236071,0.0,-0.0,0.042614,0.0,0.999773,0.0,-0.0,0.0213054,1.0,1.0,1,0,0,0,0,0,0
57340472,0.0,-0.0,0.042614,0.0,0.999773,0.0,-0.0,0.0213054,1.0,1.0,1,0,0,0,0,0,0
57351182,0.0,-0.0,0.042614,0.0,0.999773,0.0,-0.0,0.0213054,1.0,1.0,1,0,0,0,0,0,0
57351182,0.0,-0.0,0.042614,0.0,0.999773,0.0,-0.0,0.0213054,1.0,1.0,1,0,0,0,0,0,0
57351182,0.0,-0.0,0.042614,0.0,0.999773,0.0,-0.0,0.0213054,1.0,1.0,1,0,0,0,0,0,0
57351182,0.0,-0.0,0.042614,0.0,0.999773,0.0,-0.0,0.0213054,1.0,1.0,1,0,0,0,0,0,0
57351182,0.0,-0.0,0.042614,0.0,0.999773,0.0,-0.0,0.0213054,1.0,1.0,1,0,0,0,0,0,0
57351182,0.0,-0.0,0.042614,0.0,0.999773,0.0,-0.0,0.0213054,1.0,1.0,1,0,0,0,0,0,0
57351182,0.0,-0.0,0.042614,0.0,0.999773,0.0,-0.0,0.0213054,1.0,1.0,1,0,0,0,0,0,0
57351182,0.0,-0.0,0.042614,0.0,0.999773,0.0,-0.0,0.0213054,1.0,1.0,1,0,0,0,0,0,0
57351182,0.0,-0.0,0.042614,0.0,0.999773,0.0,-0.0,0.0213054,1.0,1.0,1,0,0,0,0,0,0
57351182,0.0,-0.0,0.042614,0.0,0.999773,0.0,-0.0,0.0213054,1.0,1.0,1,0,0,0,0,0,0
57351182,0.0,-0.0,0.042614,0.0,0.999773,0.0,-0.0,0.0213054,1.0,1.0,1,0,0,0,0,0,0
57351182,0.0,-0.0,0.042614,0.0,0.999773,0.0,-0.0,0.0213054,1.0,1.0,1,0,0,0,0,0,0
57351182,0.0,-0.0,0.042614,0.0,0.999773,0.0,-0.0,0.0213054,1.0,1.0,1,0,0,0,0,0,0
57351182,0.0,-0.0,0.042614,0.0,0.999773,0.0,-0.0,0.0213054,1.0,1.0,1,0,0,0,0,0,0
57351182,0.0,-0.0,0.042614,0.0,0.999773,0.0,-0.0,0.0213054,1.0,1.0,1,0,0,0,0,0,0
57351182,0.0,-0.0,0.042614,0.0,0.999773,0.0,-0.0,0.0213054,1.0,1.0,1,0,0,0,0,0,0
57351182,0.0,-0.0,0.042614,0.0,0.999773,0.0,-0.0,0.0213054,1.0,1.0,1,0,0,0,0,0,0
57351182,0.0,-0.0,0.042614,0.0,0.999773,0.0,-0.0,0.0213054,1.0,1.0,1,0,0,0,0,0,0
57351182,0.0,-0.0,0.042614,0.0,0.999773,0.0,-0.0,0.0213054,1.0,1.0,1,0,0,0,0,0,0
57351182,0.0,-0.0,0.042614,0.0,0.999773,0.0,-0.0,0.0213054,1.0,1.0,1,0,0,0,0,0,0
57351182,0.0,-0.0,0.042614,0.0,0.999773,0.0,-0.0,0.0213054,1.0,1.0,1,0,0,0,0,0,0
57351182,0.0,-0.0,0.042614,0.0,0.999773,0.0,-0.0,0.0213054,1.0,1.0,1,0,0,0,0,0,0
57351182,0.0,-0.0,0.042614,0.0,0.999773,0.0,-0.0,0.0213054,1.0,1.0,1,0,0,0,0,0,0
59773246,0.0948738,-0.135351,0.042614,0.0,0.996294,0.048739,-0.0665243,0.0244387,0.12,1.0,1,0,0,0,0,0,0
59875576,0.0,-0.0,0.042614,0.0,0.999773,0.0,-0.0,0.0213054,1.0,1.0,1,0,0,0,0,0,0
59975231,0.111479,-0.157481,0.042614,0.0,0.995034,0.0571987,-0.0773361,0.0255876,0.53174,1.0,1,0,0,0,0,0,0
60079158,0.0,-0.0,0.042614,0.0,0.999773,0.0,-0.0,0.0213054,1.0,1.0,1,0,0,0,0,0,0
60179522,0.0,-0.0,0.042614,0.0,0.999773,0.0,-0.0,0.0213054,1.0,1.0,1,0,0,0,0,0,0
60279183,0.0,-0.0,0.042614,0.0,0.999773,0.0,-0.0,0.0213054,1.0,1.0,1,0,0,0,0,0,0
60383557,0.0,-0.0,0.042614,0.0,0.999773,0.0,-0.0,0.0213054,1.0,1.0,1,0,0,0,0,0,0
60486500,0.0,-0.0,0.042614,0.0,0.999773,0.0,-0.0,0.0213054,1.0,1.0,1,0,0,0,0,0,0
60587543,0.0,-0.0,0.042614,0.0,0.999773,0.0,-0.0,0.0213054,1.0,1.0,1,0,0,0,0,0,0
60687201,0.0,-0.0,0.042614,0.0,0.999773,0.0,-0.0,0.0213054,1.0,1.0,1,0,0,0,0,0,0
60787805,0.0,-0.0,0.042614,0.0,0.999773,0.0,-0.0,0.0213054,1.0,1.0,1,0,0,0,0,0,0
60891546,0.0,-0.0,0.042614,0.0,0.999773,0.0,-0.0,0.0213054,1.0,1.0,1,0,0,0,0,0,0
60991550,0.0,-0.0,0.042614,0.0,0.999773,0.0,-0.0,0.0213054,1.0,1.0,1,0,0,0,0,0,0
61091183,0.0,-0.0,0.042614,0.0,0.999773,0.0,-0.0,0.0213054,1.0,1.0,1,0,0,0,0,0,0
61195181,0.0,-0.0,0.042614,0.0,0.999773,0.0,-0.0,0.0213054,1.0,1.0,1,0,0,0,0,0,0
61295957,0.0,-0.0,0.042614,0.0,0.999773,0.0,-0.0,0.0213054,1.0,1.0,1,0,0,0,0,0,0
61399953,0.0,-0.0,0.042614,0.0,0.999773,0.0,-0.0,0.0213054,1.0,1.0,1,0,0,0,0,0,0
61499275,0.0,-0.0,0.042614,0.0,0.999773,0.0,-0.0,0.0213054,1.0,1.0,1,0,0,0,0,0,0
61598048,0.0,-0.0,0.042614,0.0,0.999773,0.0,-0.0,0.0213054,1.0,1.0,1,0,0,0,0,0,0
61701843,0.193489,-0.286373,0.042614,0.0,0.984621,0.0986096,-0.139961,0.0347694,1.0,1.0,1,0,0,0,0,0,0
61806065,0.297158,-0.457151,0.042614,0.0,0.962326,0.148925,-0.220971,0.0540579,1.0,1.0,1,0,0,0,0,0,0
61903536,0.365917,-0.584675,0.042614,0.0,0.94026,0.180218,-0.279605,0.0724824,1.0,1.0,1,0,0,0,0,0,0
62007557,0.415305,-0.687555,0.042614,0.0,0.919573,0.201083,-0.325595,0.0890987,0.972648,1.0,1,0,0,0,0,0,0
62107178,0.415405,-0.687501,0.042614,0.0,0.919572,0.201131,-0.325566,0.08911,0.902648,1.0,1,0,0,0,0,0,0
62211232,0.415554,-0.687421,0.042614,0.0,0.91957,0.201201,-0.325522,0.0891267,0.826075,1.0,1,0,0,0,0,0,0
62311174,0.415829,-0.687273,0.042614,0.0,0.919567,0.201331,-0.325442,0.0891576,0.781508,1.0,1,0,0,0,0,0,0
62411813,0.416008,-0.687177,0.042614,0.0,0.919565,0.201416,-0.325389,0.0891777,0.754186,1.0,1,0,0,0,0,0,0
62515774,0.415875,-0.687249,0.042614,0.0,0.919567,0.201353,-0.325428,0.0891628,0.73587,1.0,1,0,0,0,0,0,0
62615285,0.415784,-0.687298,0.042614,0.0,0.919568,0.20131,-0.325455,0.0891525,0.724412,1.0,1,0,0,0,0,0,0
62715940,0.415779,-0.6873,0.042614,0.0,0.919568,0.201307,-0.325457,0.0891519,0.7154,1.0,1,0,0,0,0,0,0
62819769,0.416127,-0.687113,0.042614,0.0,0.919564,0.201472,-0.325355,0.0891911,0.708751,1.0,1,0,0,0,0,0,0
62920185,0.415746,-0.687318,0.042614,0.0,0.919568,0.201292,-0.325466,0.0891483,0.704655,1.0,1,0,0,0,0,0,0
63023330,0.416036,-0.687162,0.042614,0.0,0.919565,0.201429,-0.325381,0.0891809,0.702725,1.0,1,0,0,0,0,0,0
63123547,0.416761,-0.686771,0.042614,0.0,0.919557,0.201772,-0.325169,0.089262,0.701665,1.0,1,0,0,0,0,0,0
63224653,0.397754,-0.644579,0.042614,0.0,0.928272,0.193969,-0.306433,0.0823736,0.674129,1.0,1,0,0,0,0,0,0
63327215,0.360955,-0.570405,0.042614,0.0,0.942729,0.178106,-0.273049,0.0706037,0.641256,1.0,1,0,0,0,0,0,0
63428006,0.328913,-0.508335,0.042614,0.0,0.95372,0.163705,-0.244615,0.061498,0.622116,1.0,1,0,0,0,0,0,0
63527269,0.299566,-0.455457,0.042614,0.0,0.962338,0.150094,-0.22009,0.0542049,0.607281,1.0,1,0,0,0,0,0,0
63631420,0.271644,-0.405556,0.042614,0.0,0.969689,0.136852,-0.196666,0.0479399,0.592488,1.0,1,0,0,0,0,0,0
63729907,0.245903,-0.360489,0.042614,0.0,0.975683,0.124418,-0.175306,0.0427831,0.577776,1.0,1,0,0,0,0,0,0
63833750,0.226064,-0.326725,0.042614,0.0,0.979776,0.114707,-0.159191,0.0392275,0.566619,1.0,1,0,0,0,0,0,0
63935535,0.209593,-0.300575,0.042614,0.0,0.982747,0.106575,-0.146664,0.0366078,0.558396,1.0,1,0,0,0,0,0,0
64035261,0.187787,-0.264854,0.042614,0.0,0.98639,0.0957143,-0.129449,0.0334025,0.548488,1.0,1,0,0,0,0,0,0
64139176,0.0818532,-0.106642,0.042614,0.0,0.99747,0.0419823,-0.0523684,0.0234374,0.518848,1.0,1,0,0,0,0,0,0
64239825,-0.0156456,0.0343169,0.042614,0.0,0.999592,-0.00818534,0.0169866,0.0214358,0.514536,1.0,1,0,0,0,0,0,0
64339517,-0.098465,0.154383,0.042614,0.0,0.995507,-0.0506959,0.0759583,0.0250104,0.524201,1.0,1,0,0,0,0,0,0
64443554,-0.168222,0.256316,0.042614,0.0,0.98784,-0.0860175,0.125551,0.0317909,0.538749,1.0,1,0,0,0,0,0,0
64543176,-0.219616,0.335643,0.042614,0.0,0.9794,-0.111561,0.163689,0.0391803,0.553019,1.0,1,0,0,0,0,0,0
64591156,-0.240401,0.369186,0.042614,0.0,0.975228,-0.12173,0.179669,0.0427966,0.560005,1.0,1,0,0,0,0,0,0
64591156,-0.240401,0.369186,0.042614,0.0,0.975228,-0.12173,0.179669,0.0427966,0.560005,1.0,1,0,0,0,0,0,0
64591156,-0.240401,0.369186,0.042614,0.0,0.975228,-0.12173,0.179669,0.0427966,0.560005,1.0,1,0,0,0,0,0,0
64591156,-0.240401,0.369186,0.042614,0.0,0.975228,-0.12173,0.179669,0.0427966,0.560005,1.0,1,0,0,0,0,0,0
64591156,-0.240401,0.369186,0.042614,0.0,0.975228,-0.12173,0.179669,0.0427966,0.560005,1.0,1,0,0,0,0,0,0
64591156,-0.240401,0.369186,0.042614,0.0,0.975228,-0.12173,0.179669,0.0427966,0.560005,1.0,1,0,0,0,0,0,0
64591156,-0.240401,0.369186,0.042614,0.0,0.975228,-0.12173,0.179669,0.0427966,0.560005,1.0,1,0,0,0,0,0,0
64591156,-0.240401,0.369186,0.042614,0.0,0.975228,-0.12173,0.179669,0.0427966,0.560005,1.0,1,0,0,0,0,0,0
64591156,-0.240401,0.369186,0.042614,0.0,0.975228,-0.12173,0.179669,0.0427966,0.560005,1.0,1,0,0,0,0,0,0
64591156,-0.240401,0.369186,0.042614,0.0,0.975228,-0.12173,0.179669,0.0427966,0.560005,1.0,1,0,0,0,0,0,0
64591156,-0.240401,0.369186,0.042614,0.0,0.975228,-0.12173,0.179669,0.0427966,0.560005,1.0,1,0,0,0,0,0,0
64591156,-0.240401,0.369186,0.042614,0.0,0.975228,-0.12173,0.179669,0.0427966,0.560005,1.0,1,0,0,0,0,0,0
64591156,-0.240401,0.369186,0.042614,0.0,0.975228,-0.12173,0.179669,0.0427966,0.560005,1.0,1,0,0,0,0,0,0
64591156,-0.240401,0.369186,0.042614,0.0,0.975228,-0.12173,0.179669,0.0427966,0.560005,1.0,1,0,0,0,0,0,0
66067171,0.0,-0.0,0.042614,0.0,0.999773,0.0,-0.0,0.0213054,1.0,1.0,1,0,0,0,0,0,0
66167581,0.0,-0.0,0.042614,0.0,0.999773,0.0,-0.0,0.0213054,1.0,1.0,1,0,0,0,0,0,0
66271147,-0.0801764,0.294247,0.042614,0.0,0.988053,-0.0427562,0.145597,0.0269321,0.12,1.0,1,0,0,0,0,0,0
66371615,0.0,-0.0,0.042614,0.0,0.999773,0.0,-0.0,0.0213054,1.0,1.0,1,0,0,0,0,0,0
66471287,0.0,-0.0,0.042614,0.0,0.999773,0.0,-0.0,0.0213054,1.0,1.0,1,0,0,0,0,0,0
66575151,0.0,-0.0,0.042614,0.0,0.999773,0.0,-0.0,0.0213054,1.0,1.0,1,0,0,0,0,0,0
66675571,0.0,-0.0,0.042614,0.0,0.999773,0.0,-0.0,0.0213054,1.0,1.0,1,0,0,0,0,0,0
66775867,0.0,-0.0,0.042614,0.0,0.999773,0.0,-0.0,0.0213054,1.0,1.0,1,0,0,0,0,0,0
66879852,0.0,-0.0,0.042614,0.0,0.999773,0.0,-0.0,0.0213054,1.0,1.0,1,0,0,0,0,0,0
66979814,0.0,-0.0,0.042614,0.0,0.999773,0.0,-0.0,0.0213054,1.0,1.0,1,0,0,0,0,0,0
67083578,0.0,-0.0,0.042614,0.0,0.999773,0.0,-0.0,0.0213054,1.0,1.0,1,0,0,0,0,0,0
67183142,0.0,-0.0,0.042614,0.0,0.999773,0.0,-0.0,0.0213054,1.0,1.0,1,0,0,0,0,0,0
67284002,0.0,-0.0,0.042614,0.0,0.999773,0.0,-0.0,0.0213054,1.0,1.0,1,0,0,0,0,0,0
67387962,0.0,-0.0,0.042614,0.0,0.999773,0.0,-0.0,0.0213054,1.0,1.0,1,0,0,0,0,0,0
67487292,0.0,-0.0,0.042614,0.0,0.999773,0.0,-0.0,0.0213054,1.0,1.0,1,0,0,0,0,0,0
67587528,0.0,-0.0,0.042614,0.0,0.999773,0.0,-0.0,0.0213054,1.0,1.0,1,0,0,0,0,0,0
67691536,-0.0983768,0.254084,0.042614,0.0,0.990384,-0.0514574,0.12548,0.0273364,1.0,1.0,1,0,0,0,0,0,0
67794066,-0.179649,0.472809,0.042614,0.0,0.9676,-0.0921589,0.231354,0.041634,1.0,1.0,1,0,0,0,0,0,0
67895192,-0.268095,0.74763,0.042614,0.0,0.92134,-0.132099,0.359161,0.0684486,0.995489,1.0,1,0,0,0,0,0,0
67995567,-0.271344,0.74666,0.042614,0.0,0.921301,-0.13361,0.358602,0.0689747,0.898761,1.0,1,0,0,0,0,0,0
68095220,-0.273861,0.745899,0.042614,0.0,0.921271,-0.134781,0.358163,0.0693805,0.822886,1.0,1,0,0,0,0,0,0
68195487,-0.276421,0.745116,0.042614,0.0,0.92124,-0.135972,0.357713,0.0697918,0.784988,1.0,1,0,0,0,0,0,0
68299426,-0.279547,0.744149,0.042614,0.0,0.921202,-0.137426,0.357156,0.0702916,0.755051,1.0,1,0,0,0,0,0,0
68399491,-0.282957,0.743077,0.042614,0.0,0.92116,-0.139014,0.356541,0.0708342,0.734823,1.0,1,0,0,0,0,0,0
68503766,-0.28675,0.741867,0.042614,0.0,0.921114,-0.14078,0.355848,0.0714343,0.719002,1.0,1,0,0,0,0,0,0
68603154,-0.290381,0.74069,0.042614,0.0,0.921069,-0.142471,0.355174,0.0720054,0.708143,1.0,1,0,0,0,0,0,0
68707511,-0.294149,0.739448,0.042614,0.0,0.921023,-0.144227,0.354465,0.0725945,0.699777,1.0,1,0,0,0,0,0,0
68807152,-0.298084,0.73813,0.042614,0.0,0.920975,-0.146061,0.353713,0.0732054,0.694705,1.0,1,0,0,0,0,0,0
68844029,-0.299443,0.73767,0.042614,0.0,0.920958,-0.146695,0.35345,0.0734155,0.692971,1.0,1,0,0,0,0,0,0
68844029,-0.299443,0.73767,0.042614,0.0,0.920958,-0.146695,0.35345,0.0734155,0.692971,1.0,1,0,0,0,0,0,0
68844029,-0.299443,0.73767,0.042614,0.0,0.920958,-0.146695,0.35345,0.0734155,0.692971,1.0,1,0,0,0,0,0,0
68844029,-0.299443,0.73767,0.042614,0.0,0.920958,-0.146695,0.35345,0.0734155,0.692971,1.0,1,0,0,0,0,0,0
68844029,-0.299443,0.73767,0.042614,0.0,0.920958,-0.146695,0.35345,0.0734155,0.692971,1.0,1,0,0,0,0,0,0
68844029,-0.299443,0.73767,0.042614,0.0,0.920958,-0.146695,0.35345,0.0734155,0.692971,1.0,1,0,0,0,0,0,0
68844029,-0.299443,0.73767,0.042614,0.0,0.920958,-0.146695,0.35345,0.0734155,0.692971,1.0,1,0,0,0,0,0,0
68844029,-0.299443,0.73767,0.042614,0.0,0.920958,-0.146695,0.35345,0.0734155,0.692971,1.0,1,0,0,0,0,0,0
68844029,-0.299443,0.73767,0.042614,0.0,0.920958,-0.146695,0.35345,0.0734155,0.692971,1.0,1,0,0,0,0,0,0
68844029,-0.299443,0.73767,0.042614,0.0,0.920958,-0.146695,0.35345,0.0734155,0.692971,1.0,1,0,0,0,0,0,0
68844029,-0.299443,0.73767,0.042614,0.0,0.920958,-0.146695,0.35345,0.0734155,0.692971,1.0,1,0,0,0,0,0,0
68844029,-0.299443,0.73767,0.042614,0.0,0.920958,-0.146695,0.35345,0.0734155,0.692971,1.0,1,0,0,0,0,0,0
68844029,-0.299443,0.73767,0.042614,0.0,0.920958,-0.146695,0.35345,0.0734155,0.692971,1.0,1,0,0,0,0,0,0
68844029,-0.299443,0.73767,0.042614,0.0,0.920958,-0.146695,0.35345,0.0734155,0.692971,1.0,1,0,0,0,0,0,0
68844029,-0.299443,0.73767,0.042614,0.0,0.920958,-0.146695,0.35345,0.0734155,0.692971,1.0,1,0,0,0,0,0,0
68844029,-0.299443,0.73767,0.042614,0.0,0.920958,-0.146695,0.35345,0.0734155,0.692971,1.0,1,0,0,0,0,0,0
68844029,-0.299443,0.73767,0.042614,0.0,0.920958,-0.146695,0.35345,0.0734155,0.692971,1.0,1,0,0,0,0,0,0
68844029,-0.299443,0.73767,0.042614,0.0,0.920958,-0.146695,0.35345,0.0734155,0.692971,1.0,1,0,0,0,0,0,0
68844029,-0.299443,0.73767,0.042614,0.0,0.920958,-0.146695,0.35345,0.0734155,0.692971,1.0,1,0,0,0,0,0,0
68844029,-0.299443,0.73767,0.042614,0.0,0.920958,-0.146695,0.35345,0.0734155,0.692971,1.0,1,0,0,0,0,0,0
68844029,-0.299443,0.73767,0.042614,0.0,0.920958,-0.146695,0.35345,0.0734155,0.692971,1.0,1,0,0,0,0,0,0
68844029,-0.299443,0.73767,0.042614,0.0,0.920958,-0.146695,0.35345,0.0734155,0.692971,1.0,1,0,0,0,0,0,0
68844029,-0.299443,0.73767,0.042614,0.0,0.920958,-0.146695,0.35345,0.0734155,0.692971,1.0,1,0,0,0,0,0,0
68844029,-0.299443,0.73767,0.042614,0.0,0.920958,-0.146695,0.35345,0.0734155,0.692971,1.0,1,0,0,0,0,0,0
68844029,-0.299443,0.73767,0.042614,0.0,0.920958,-0.146695,0.35345,0.0734155,0.692971,1.0,1,0,0,0,0,0,0
68844029,-0.299443,0.73767,0.042614,0.0,0.920958,-0.146695,0.35345,0.0734155,0.692971,1.0,1,0,0,0,0,0,0
68844029,-0.299443,0.73767,0.042614,0.0,0.920958,-0.146695,0.35345,0.0734155,0.692971,1.0,1,0,0,0,0,0,0
68844029,-0.299443,0.73767,0.042614,0.0,0.920958,-0.146695,0.35345,0.0734155,0.692971,1.0,1,0,0,0,0,0,0
68844029,-0.299443,0.73767,0.042614,0.0,0.920958,-0.146695,0.35345,0.0734155,0.692971,1.0,1,0,0,0,0,0,0
68844029,-0.299443,0.73767,0.042614,0.0,0.920958,-0.146695,0.35345,0.0734155,0.692971,1.0,1,0,0,0,0,0,0
68844029,-0.299443,0.73767,0.042614,0.0,0.920958,-0.146695,0.35345,0.0734155,0.692971,1.0,1,0,0,0,0,0,0
68844029,-0.299443,0.73767,0.042614,0.0,0.920958,-0.146695,0.35345,0.0734155,0.692971,1.0,1,0,0,0,0,0,0
68844029,-0.299443,0.73767,0.042614,0.0,0.920958,-0.146695,0.35345,0.0734155,0.692971,1.0,1,0,0,0,0,0,0
68844029,-0.299443,0.73767,0.042614,0.0,0.920958,-0.146695,0.35345,0.0734155,0.692971,1.0,1,0,0,0,0,0,0
68844029,-0.299443,0.73767,0.042614,0.0,0.920958,-0.146695,0.35345,0.0734155,0.692971,1.0,1,0,0,0,0,0,0
68844029,-0.299443,0.73767,0.042614,0.0,0.920958,-0.146695,0.35345,0.0734155,0.692971,1.0,1,0,0,0,0,0,0
68844029,-0.299443,0.73767,0.042614,0.0,0.920958,-0.146695,0.35345,0.0734155,0.692971,1.0,1,0,0,0,0,0,0
68844029,-0.299443,0.73767,0.042614,0.0,0.920958,-0.146695,0.35345,0.0734155,0.692971,1.0,1,0,0,0,0,0,0
68844029,-0.299443,0.73767,0.042614,0.0,0.920958,-0.146695,0.35345,0.0734155,0.692971,1.0,1,0,0,0,0,0,0
72867416,0.0,-0.0,0.044491,0.0,0.999753,0.0,0.0,0.0222437,0.986193,1.0,1,0,0,0,0,0,0
72967086,0.0,-0.0,0.044491,0.0,0.999753,0.0,0.0,0.0222437,0.986193,1.0,1,0,0,0,0,0,0
73071054,0.0,-0.0,0.044491,0.0,0.999753,0.0,0.0,0.0222437,0.986193,1.0,1,0,0,0,0,0,0
73171710,0.0,-0.0,0.044491,0.0,0.999753,0.0,0.0,0.0222437,0.986193,1.0,1,0,0,0,0,0,0
73271030,0.0,-0.0,0.044491,0.0,0.999753,0.0,0.0,0.0222437,0.986193,1.0,1,0,0,0,0,0,0
73375273,0.0,-0.0,0.044491,0.0,0.999753,0.0,0.0,0.0222437,0.986193,1.0,1,0,0,0,0,0,0
73474509,0.0,-0.0,0.044491,0.0,0.999753,0.0,0.0,0.0222437,0.986193,1.0,1,0,0,0,0,0,0
73577683,0.0,-0.0,0.044491,0.0,0.999753,0.0,0.0,0.0222437,0.986193,1.0,1,0,0,0,0,0,0
73679106,0.0,-0.0,0.044491,0.0,0.999753,0.0,0.0,0.0222437,0.986193,1.0,1,0,0,0,0,0,0
73779498,0.0,-0.0,0.044491,0.0,0.999753,0.0,0.0,0.0222437,0.986193,1.0,1,0,0,0,0,0,0
73883533,0.0,-0.0,0.044491,0.0,0.999753,0.0,0.0,0.0222437,0.986193,1.0,1,0,0,0,0,0,0
73983056,0.0,-0.0,0.044491,0.0,0.999753,0.0,0.0,0.0222437,0.986193,1.0,1,0,0,0,0,0,0
74084720,0.0,-0.0,0.044491,0.0,0.999753,0.0,0.0,0.0222437,0.986193,1.0,1,0,0,0,0,0,0
74187458,0.0,-0.0,0.044491,0.0,0.999753,0.0,0.0,0.0222437,0.986193,1.0,1,0,0,0,0,0,0
74239026,0.0,-0.0,0.044491,0.0,0.999753,0.0,0.0,0.0222437,0.986193,1.0,1,0,0,0,0,0,0
74239026,0.0,-0.0,0.044491,0.0,0.999753,0.0,0.0,0.0222437,0.986193,1.0,1,0,0,0,0,0,0
74239026,0.0,-0.0,0.044491,0.0,0.999753,0.0,0.0,0.0222437,0.986193,1.0,1,0,0,0,0,0,0
74239026,0.0,-0.0,0.044491,0.0,0.999753,0.0,0.0,0.0222437,0.986193,1.0,1,0,0,0,0,0,0
74239026,0.0,-0.0,0.044491,0.0,0.999753,0.0,0.0,0.0222437,0.986193,1.0,1,0,0,0,0,0,0
74239026,0.0,-0.0,0.044491,0.0,0.999753,0.0,0.0,0.0222437,0.986193,1.0,1,0,0,0,0,0,0
74239026,0.0,-0.0,0.044491,0.0,0.999753,0.0,0.0,0.0222437,0.986193,1.0,1,0,0,0,0,0,0
74239026,0.0,-0.0,0.044491,0.0,0.999753,0.0,0.0,0.0222437,0.986193,1.0,1,0,0,0,0,0,0
74239026,0.0,-0.0,0.044491,0.0,0.999753,0.0,0.0,0.0222437,0.986193,1.0,1,0,0,0,0,0,0
74239026,0.0,-0.0,0.044491,0.0,0.999753,0.0,0.0,0.0222437,0.986193,1.0,1,0,0,0,0,0,0
74239026,0.0,-0.0,0.044491,0.0,0.999753,0.0,0.0,0.0222437,0.986193,1.0,1,0,0,0,0,0,0
74239026,0.0,-0.0,0.044491,0.0,0.999753,0.0,0.0,0.0222437,0.986193,1.0,1,0,0,0,0,0,0
74239026,0.0,-0.0,0.044491,0.0,0.999753,0.0,0.0,0.0222437,0.986193,1.0,1,0,0,0,0,0,0
74239026,0.0,-0.0,0.044491,0.0,0.999753,0.0,0.0,0.0222437,0.986193,1.0,1,0,0,0,0,0,0
74239026,0.0,-0.0,0.044491,0.0,0.999753,0.0,0.0,0.0222437,0.986193,1.0,1,0,0,0,0,0,0
74239026,0.0,-0.0,0.044491,0.0,0.999753,0.0,0.0,0.0222437,0.986193,1.0,1,0,0,0,0,0,0
74239026,0.0,-0.0,0.044491,0.0,0.999753,0.0,0.0,0.0222437,0.986193,1.0,1,0,0,0,0,0,0
74239026,0.0,-0.0,0.044491,0.0,0.999753,0.0,0.0,0.0222437,0.986193,1.0,1,0,0,0,0,0,0
74239026,0.0,-0.0,0.044491,0.0,0.999753,0.0,0.0,0.0222437,0.986193,1.0,1,0,0,0,0,0,0
74239026,0.0,-0.0,0.044491,0.0,0.999753,0.0,0.0,0.0222437,0.986193,1.0,1,0,0,0,0,0,0
74239026,0.0,-0.0,0.044491,0.0,0.999753,0.0,0.0,0.0222437,0.986193,1.0,1,0,0,0,0,0,0
74239026,0.0,-0.0,0.044491,0.0,0.999753,0.0,0.0,0.0222437,0.986193,1.0,1,0,0,0,0,0,0
74239026,0.0,-0.0,0.044491,0.0,0.999753,0.0,0.0,0.0222437,0.986193,1.0,1,0,0,0,0,0,0
74239026,0.0,-0.0,0.044491,0.0,0.999753,0.0,0.0,0.0222437,0.986193,1.0,1,0,0,0,0,0,0
74239026,0.0,-0.0,0.044491,0.0,0.999753,0.0,0.0,0.0222437,0.986193,1.0,1,0,0,0,0,0,0
74239026,0.0,-0.0,0.044491,0.0,0.999753,0.0,0.0,0.0222437,0.986193,1.0,1,0,0,0,0,0,0
76927072,0.0,-0.0,-0.0456577,0.0,0.999739,0.0,-0.0,-0.0228269,0.986193,1.0,1,0,0,0,0,0,0
77027500,0.0,-0.0,-0.0456577,0.0,0.999739,0.0,-0.0,-0.0228269,0.986193,1.0,1,0,0,0,0,0,0
77131818,0.0,-0.0,-0.0456577,0.0,0.999739,0.0,-0.0,-0.0228269,0.986193,1.0,1,0,0,0,0,0,0
77231070,0.0,-0.0,-0.0456577,0.0,0.999739,0.0,-0.0,-0.0228269,0.986193,1.0,1,0,0,0,0,0,0
77333010,0.0,-0.0,-0.0456577,0.0,0.999739,0.0,-0.0,-0.0228269,0.986193,1.0,1,0,0,0,0,0,0
77436563,0.0,-0.0,-0.0456577,0.0,0.999739,0.0,-0.0,-0.0228269,0.986193,1.0,1,0,0,0,0,0,0
77533382,0.0,-0.0,-0.0456577,0.0,0.999739,0.0,-0.0,-0.0228269,0.986193,1.0,1,0,0,0,0,0,0
77637604,0.0,-0.0,-0.0456577,0.0,0.999739,0.0,-0.0,-0.0228269,0.986193,1.0,1,0,0,0,0,0,0
77739414,0.0,-0.0,-0.0456577,0.0,0.999739,0.0,-0.0,-0.0228269,0.986193,1.0,1,0,0,0,0,0,0
77839074,0.0,-0.0,-0.0456577,0.0,0.999739,0.0,-0.0,-0.0228269,0.986193,1.0,1,0,0,0,0,0,0
77943088,0.0,-0.0,-0.0456577,0.0,0.999739,0.0,-0.0,-0.0228269,0.986193,1.0,1,0,0,0,0,0,0
78043399,0.0,-0.0,-0.0456577,0.0,0.999739,0.0,-0.0,-0.0228269,0.986193,1.0,1,0,0,0,0,0,0
78143032,0.0,-0.0,-0.0456577,0.0,0.999739,0.0,-0.0,-0.0228269,0.986193,1.0,1,0,0,0,0,0,0
78247034,0.0,-0.0,-0.0456577,0.0,0.999739,0.0,-0.0,-0.0228269,0.986193,1.0,1,0,0,0,0,0,0
78347382,0.0,-0.0,-0.0456577,0.0,0.999739,0.0,-0.0,-0.0228269,0.986193,1.0,1,0,0,0,0,0,0
78451638,0.0,-0.0,-0.0456577,0.0,0.999739,0.0,-0.0,-0.0228269,0.986193,1.0,1,0,0,0,0,0,0
78551518,0.0,-0.0,-0.0456577,0.0,0.999739,0.0,-0.0,-0.0228269,0.986193,1.0,1,0,0,0,0,0,0
78651171,0.0,-0.0,-0.0456577,0.0,0.999739,0.0,-0.0,-0.0228269,0.986193,1.0,1,0,0,0,0,0,0
78755063,0.0,-0.0,-0.0456577,0.0,0.999739,0.0,-0.0,-0.0228269,0.986193,1.0,1,0,0,0,0,0,0
78855653,0.0,-0.0,-0.0456577,0.0,0.999739,0.0,-0.0,-0.0228269,0.986193,1.0,1,0,0,0,0,0,0
78915129,0.0,-0.0,-0.0456577,0.0,0.999739,0.0,-0.0,-0.0228269,0.986193,1.0,1,0,0,0,0,0,0
78915129,0.0,-0.0,-0.0456577,0.0,0.999739,0.0,-0.0,-0.0228269,0.986193,1.0,1,0,0,0,0,0,0
78915129,0.0,-0.0,-0.0456577,0.0,0.999739,0.0,-0.0,-0.0228269,0.986193,1.0,1,0,0,0,0,0,0
78915129,0.0,-0.0,-0.0456577,0.0,0.999739,0.0,-0.0,-0.0228269,0.986193,1.0,1,0,0,0,0,0,0
78915129,0.0,-0.0,-0.0456577,0.0,0.999739,0.0,-0.0,-0.0228269,0.986193,1.0,1,0,0,0,0,0,0
78915129,0.0,-0.0,-0.0456577,0.0,0.999739,0.0,-0.0,-0.0228269,0.986193,1.0,1,0,0,0,0,0,0
78915129,0.0,-0.0,-0.0456577,0.0,0.999739,0.0,-0.0,-0.0228269,0.986193,1.0,1,0,0,0,0,0,0
78915129,0.0,-0.0,-0.0456577,0.0,0.999739,0.0,-0.0,-0.0228269,0.986193,1.0,1,0,0,0,0,0,0
78915129,0.0,-0.0,-0.0456577,0.0,0.999739,0.0,-0.0,-0.0228269,0.986193,1.0,1,0,0,0,0,0,0
78915129,0.0,-0.0,-0.0456577,0.0,0.999739,0.0,-0.0,-0.0228269,0.986193,1.0,1,0,0,0,0,0,0
78915129,0.0,-0.0,-0.0456577,0.0,0.999739,0.0,-0.0,-0.0228269,0.986193,1.0,1,0,0,0,0,0,0
78915129,0.0,-0.0,-0.0456577,0.0,0.999739,0.0,-0.0,-0.0228269,0.986193,1.0,1,0,0,0,0,0,0
78915129,0.0,-0.0,-0.0456577,0.0,0.999739,0.0,-0.0,-0.0228269,0.986193,1.0,1,0,0,0,0,0,0
78915129,0.0,-0.0,-0.0456577,0.0,0.999739,0.0,-0.0,-0.0228269,0.986193,1.0,1,0,0,0,0,0,0
