timestamp,roll_body,pitch_body,yaw_body,yaw_sp_move_rate,q_d[0],q_d[1],q_d[2],q_d[3],thrust,landing_gear,q_d_valid,roll_reset_integral,pitch_reset_integral,yaw_reset_integral,fw_control_yaw,disable_mc_yaw_control,apply_flaps
73095427,0.0,-0.0,0.017179,0.0,0.999963,0.0,0.0,0.00858941,0.0,-1.0,1,0,0,0,0,0,0
73215402,0.0,-0.0,0.0175734,0.0,0.999961,0.0,0.0,0.00878658,0.0,-1.0,1,0,0,0,0,0,0
73318291,0.0,-0.0,0.0177079,0.0,0.999961,0.0,0.0,0.00885384,0.0,-1.0,1,0,0,0,0,0,0
73419399,0.0,-0.0,0.0175581,0.0,0.999961,0.0,0.0,0.00877892,0.0,-1.0,1,0,0,0,0,0,0
73522002,0.0,-0.0,0.0178472,0.0,0.99996,0.0,0.0,0.00892348,0.0,-1.0,1,0,0,0,0,0,0
73622193,0.0,-0.0,0.0176122,0.0,0.999961,0.0,0.0,0.00880598,0.0,-1.0,1,0,0,0,0,0,0
73722456,0.0,-0.0,0.0179084,0.0,0.99996,0.0,0.0,0.00895409,0.0,-1.0,1,0,0,0,0,0,0
73826764,0.0,-0.0,0.0179968,0.0,0.99996,0.0,0.0,0.00899828,0.0,-1.0,1,0,0,0,0,0,0
73926021,0.0,-0.0,0.0180248,0.0,0.999959,0.0,0.0,0.00901229,0.0,-1.0,1,0,0,0,0,0,0
74026008,0.0,-0.0,0.0179085,0.0,0.99996,0.0,0.0,0.00895413,0.0,-1.0,1,0,0,0,0,0,0
74131144,0.0,-0.0,0.0182749,0.0,0.999958,0.0,0.0,0.0091373,0.0,-1.0,1,0,0,0,0,0,0
74232040,0.0,-0.0,0.0182385,0.0,0.999958,0.0,0.0,0.00911911,0.0,-1.0,1,0,0,0,0,0,0
74334358,0.0,-0.0,0.0183718,0.0,0.999958,0.0,0.0,0.00918576,0.0,-1.0,1,0,0,0,0,0,0
74435148,0.0,-0.0,0.0189368,0.0,0.999955,0.0,0.0,0.00946825,0.0,-1.0,1,0,0,0,0,0,0
74535177,0.0,-0.0,0.0188785,0.0,0.999955,0.0,0.0,0.0094391,0.0,-1.0,1,0,0,0,0,0,0
74638163,0.0,-0.0,0.0186624,0.0,0.999956,0.0,0.0,0.00933104,0.0661598,-1.0,1,0,0,0,0,0,0
74737038,0.0,-0.0,0.0190104,-1.03362e-08,0.999955,0.0,0.0,0.00950508,0.550147,-1.0,1,0,0,0,0,0,0
74841479,0.0,-0.0,0.0194155,0.0317861,0.999953,0.0,0.0,0.00970758,0.652655,-1.0,1,0,0,0,0,0,0
74942160,0.0,-0.0,0.0247523,0.0553614,0.999923,0.0,0.0,0.0123758,0.650778,-1.0,1,0,0,0,0,0,0
75042030,0.0,-0.0,0.0288387,0.00341616,0.999896,0.0,0.0,0.0144189,0.650886,-1.0,1,0,0,0,0,0,0
75142686,0.0,-0.0,0.0288246,0.000186271,0.999896,0.0,0.0,0.0144118,0.650888,-1.0,1,0,0,0,0,0,0
75247681,0.0,-0.0,0.0288265,1.13442e-06,0.999896,0.0,0.0,0.0144127,0.650887,-1.0,1,0,0,0,0,0,0
75346427,0.0,-0.0,0.0288265,-2.14863e-08,0.999896,0.0,0.0,0.0144128,0.650888,-1.0,1,0,0,0,0,0,0
75447040,0.0,-0.0,0.0288265,-2.43583e-09,0.999896,0.0,0.0,0.0144128,0.650888,-1.0,1,0,0,0,0,0,0
75552082,0.0,-0.0,0.0288265,-2.32345e-11,0.999896,0.0,0.0,0.0144128,0.650888,-1.0,1,0,0,0,0,0,0
75650903,0.0,-0.0,0.0288265,1.64521e-12,0.999896,0.0,0.0,0.0144128,0.650888,-1.0,1,0,0,0,0,0,0
75755740,0.0,-0.0,0.0288265,2.93681e-14,0.999896,0.0,0.0,0.0144128,0.650888,-1.0,1,0,0,0,0,0,0
75855039,0.0,-0.0,0.0288265,3.58409e-16,0.999896,0.0,0.0,0.0144128,0.65123,-1.0,1,0,0,0,0,0,0
75958021,0.0,-0.0,0.0288265,-1.57904e-17,0.999896,0.0,0.0,0.0144128,0.650889,-1.0,1,0,0,0,0,0,0
76059758,0.0,-0.0,0.0288265,-3.30925e-19,0.999896,0.0,0.0,0.0144128,0.650887,-1.0,1,0,0,0,0,0,0
76158070,0.0,-0.0,0.0288265,-4.82981e-21,0.999896,0.0,0.0,0.0144128,0.650887,-1.0,1,0,0,0,0,0,0
76258427,0.0,-0.0,0.0288265,1.37042e-22,0.999896,0.0,0.0,0.0144128,0.650887,-1.0,1,0,0,0,0,0,0
76362359,0.0,-0.0,0.0288265,3.49488e-24,0.999896,0.0,0.0,0.0144128,0.650888,-1.0,1,0,0,0,0,0,0
76463017,0.0,-0.0,0.0288265,2.0498e-26,0.999896,0.0,0.0,0.0144128,0.650888,-1.0,1,0,0,0,0,0,0
76567013,0.0,-0.0,0.0288265,-1.0051e-27,0.999896,0.0,0.0,0.0144128,0.650888,-1.0,1,0,0,0,0,0,0
76667061,0.0,-0.0,0.0288265,-3.43781e-29,0.999896,0.0,0.0,0.0144128,0.650888,-1.0,1,0,0,0,0,0,0
76770078,0.0,-0.0,0.0288265,-6.02309e-31,0.999896,0.0,0.0,0.0144128,0.650888,-1.0,1,0,0,0,0,0,0
76869065,0.0,-0.0,0.0288265,4.78456e-33,0.999896,0.0,0.0,0.0144128,0.650887,-1.0,1,0,0,0,0,0,0
76974036,0.0,-0.0,0.0288265,9.50986e-34,0.999896,0.0,0.0,0.0144128,0.65137,-1.0,1,0,0,0,0,0,0
77074011,0.0,-0.0,0.0288265,1.03768e-35,0.999896,0.0,0.0,0.0144128,0.650889,-1.0,1,0,0,0,0,0,0
77175220,0.0,-0.0,0.0288265,2.02106e-38,0.999896,0.0,0.0,0.0144128,0.651091,-1.0,1,0,0,0,0,0,0
77275713,0.0,-0.0,0.0288265,-1.10795e-38,0.999896,0.0,0.0,0.0144128,0.650832,-1.0,1,0,0,0,0,0,0
77378022,0.0,-0.0,0.0288265,-1.48417e-40,0.999896,0.0,0.0,0.0144128,0.650887,-1.0,1,0,0,0,0,0,0
77479832,0.0,-0.0,0.0288265,5.27309e-42,0.999896,0.0,0.0,0.0144128,0.650888,-1.0,1,0,0,0,0,0,0
77579153,0.0,-0.0,0.0288265,1.17709e-43,0.999896,0.0,0.0,0.0144128,0.650888,-1.0,1,0,0,0,0,0,0
77683377,0.0,-0.0,0.0288265,0.0,0.999896,0.0,0.0,0.0144128,0.650888,-1.0,1,0,0,0,0,0,0
77783024,0.0,-0.0,0.0288265,0.0,0.999896,0.0,0.0,0.0144128,0.650888,-1.0,1,0,0,0,0,0,0
77883188,0.0,-0.0,0.0288265,0.0,0.999896,0.0,0.0,0.0144128,0.650887,-1.0,1,0,0,0,0,0,0
77927037,0.0,-0.0,0.0288265,0.0,0.999896,0.0,0.0,0.0144128,0.650888,-1.0,1,0,0,0,0,0,0
77927037,0.0,-0.0,0.0288265,0.0,0.999896,0.0,0.0,0.0144128,0.650888,-1.0,1,0,0,0,0,0,0
77927037,0.0,-0.0,0.0288265,0.0,0.999896,0.0,0.0,0.0144128,0.650888,-1.0,1,0,0,0,0,0,0
77927037,0.0,-0.0,0.0288265,0.0,0.999896,0.0,0.0,0.0144128,0.650888,-1.0,1,0,0,0,0,0,0
77927037,0.0,-0.0,0.0288265,0.0,0.999896,0.0,0.0,0.0144128,0.650888,-1.0,1,0,0,0,0,0,0
77927037,0.0,-0.0,0.0288265,0.0,0.999896,0.0,0.0,0.0144128,0.650888,-1.0,1,0,0,0,0,0,0
77927037,0.0,-0.0,0.0288265,0.0,0.999896,0.0,0.0,0.0144128,0.650888,-1.0,1,0,0,0,0,0,0
77927037,0.0,-0.0,0.0288265,0.0,0.999896,0.0,0.0,0.0144128,0.650888,-1.0,1,0,0,0,0,0,0
77927037,0.0,-0.0,0.0288265,0.0,0.999896,0.0,0.0,0.0144128,0.650888,-1.0,1,0,0,0,0,0,0
77927037,0.0,-0.0,0.0288265,0.0,0.999896,0.0,0.0,0.0144128,0.650888,-1.0,1,0,0,0,0,0,0
77927037,0.0,-0.0,0.0288265,0.0,0.999896,0.0,0.0,0.0144128,0.650888,-1.0,1,0,0,0,0,0,0
77927037,0.0,-0.0,0.0288265,0.0,0.999896,0.0,0.0,0.0144128,0.650888,-1.0,1,0,0,0,0,0,0
77927037,0.0,-0.0,0.0288265,0.0,0.999896,0.0,0.0,0.0144128,0.650888,-1.0,1,0,0,0,0,0,0
77927037,0.0,-0.0,0.0288265,0.0,0.999896,0.0,0.0,0.0144128,0.650888,-1.0,1,0,0,0,0,0,0
77927037,0.0,-0.0,0.0288265,0.0,0.999896,0.0,0.0,0.0144128,0.650888,-1.0,1,0,0,0,0,0,0
77927037,0.0,-0.0,0.0288265,0.0,0.999896,0.0,0.0,0.0144128,0.650888,-1.0,1,0,0,0,0,0,0
77927037,0.0,-0.0,0.0288265,0.0,0.999896,0.0,0.0,0.0144128,0.650888,-1.0,1,0,0,0,0,0,0
77927037,0.0,-0.0,0.0288265,0.0,0.999896,0.0,0.0,0.0144128,0.650888,-1.0,1,0,0,0,0,0,0
77927037,0.0,-0.0,0.0288265,0.0,0.999896,0.0,0.0,0.0144128,0.650888,-1.0,1,0,0,0,0,0,0
77927037,0.0,-0.0,0.0288265,0.0,0.999896,0.0,0.0,0.0144128,0.650888,-1.0,1,0,0,0,0,0,0
77927037,0.0,-0.0,0.0288265,0.0,0.999896,0.0,0.0,0.0144128,0.650888,-1.0,1,0,0,0,0,0,0
77927037,0.0,-0.0,0.0288265,0.0,0.999896,0.0,0.0,0.0144128,0.650888,-1.0,1,0,0,0,0,0,0
77927037,0.0,-0.0,0.0288265,0.0,0.999896,0.0,0.0,0.0144128,0.650888,-1.0,1,0,0,0,0,0,0
77927037,0.0,-0.0,0.0288265,0.0,0.999896,0.0,0.0,0.0144128,0.650888,-1.0,1,0,0,0,0,0,0
77927037,0.0,-0.0,0.0288265,0.0,0.999896,0.0,0.0,0.0144128,0.650888,-1.0,1,0,0,0,0,0,0
77927037,0.0,-0.0,0.0288265,0.0,0.999896,0.0,0.0,0.0144128,0.650888,-1.0,1,0,0,0,0,0,0
77927037,0.0,-0.0,0.0288265,0.0,0.999896,0.0,0.0,0.0144128,0.650888,-1.0,1,0,0,0,0,0,0
77927037,0.0,-0.0,0.0288265,0.0,0.999896,0.0,0.0,0.0144128,0.650888,-1.0,1,0,0,0,0,0,0
77927037,0.0,-0.0,0.0288265,0.0,0.999896,0.0,0.0,0.0144128,0.650888,-1.0,1,0,0,0,0,0,0
77927037,0.0,-0.0,0.0288265,0.0,0.999896,0.0,0.0,0.0144128,0.650888,-1.0,1,0,0,0,0,0,0
77927037,0.0,-0.0,0.0288265,0.0,0.999896,0.0,0.0,0.0144128,0.650888,-1.0,1,0,0,0,0,0,0
77927037,0.0,-0.0,0.0288265,0.0,0.999896,0.0,0.0,0.0144128,0.650888,-1.0,1,0,0,0,0,0,0
77927037,0.0,-0.0,0.0288265,0.0,0.999896,0.0,0.0,0.0144128,0.650888,-1.0,1,0,0,0,0,0,0
77927037,0.0,-0.0,0.0288265,0.0,0.999896,0.0,0.0,0.0144128,0.650888,-1.0,1,0,0,0,0,0,0
77927037,0.0,-0.0,0.0288265,0.0,0.999896,0.0,0.0,0.0144128,0.650888,-1.0,1,0,0,0,0,0,0
77927037,0.0,-0.0,0.0288265,0.0,0.999896,0.0,0.0,0.0144128,0.650888,-1.0,1,0,0,0,0,0,0
77927037,0.0,-0.0,0.0288265,0.0,0.999896,0.0,0.0,0.0144128,0.650888,-1.0,1,0,0,0,0,0,0
77927037,0.0,-0.0,0.0288265,0.0,0.999896,0.0,0.0,0.0144128,0.650888,-1.0,1,0,0,0,0,0,0
77927037,0.0,-0.0,0.0288265,0.0,0.999896,0.0,0.0,0.0144128,0.650888,-1.0,1,0,0,0,0,0,0
77927037,0.0,-0.0,0.0288265,0.0,0.999896,0.0,0.0,0.0144128,0.650888,-1.0,1,0,0,0,0,0,0
77927037,0.0,-0.0,0.0288265,0.0,0.999896,0.0,0.0,0.0144128,0.650888,-1.0,1,0,0,0,0,0,0
77927037,0.0,-0.0,0.0288265,0.0,0.999896,0.0,0.0,0.0144128,0.650888,-1.0,1,0,0,0,0,0,0
77927037,0.0,-0.0,0.0288265,0.0,0.999896,0.0,0.0,0.0144128,0.650888,-1.0,1,0,0,0,0,0,0
77927037,0.0,-0.0,0.0288265,0.0,0.999896,0.0,0.0,0.0144128,0.650888,-1.0,1,0,0,0,0,0,0
77927037,0.0,-0.0,0.0288265,0.0,0.999896,0.0,0.0,0.0144128,0.650888,-1.0,1,0,0,0,0,0,0
77927037,0.0,-0.0,0.0288265,0.0,0.999896,0.0,0.0,0.0144128,0.650888,-1.0,1,0,0,0,0,0,0
77927037,0.0,-0.0,0.0288265,0.0,0.999896,0.0,0.0,0.0144128,0.650888,-1.0,1,0,0,0,0,0,0
77927037,0.0,-0.0,0.0288265,0.0,0.999896,0.0,0.0,0.0144128,0.650888,-1.0,1,0,0,0,0,0,0
77927037,0.0,-0.0,0.0288265,0.0,0.999896,0.0,0.0,0.0144128,0.650888,-1.0,1,0,0,0,0,0,0
77927037,0.0,-0.0,0.0288265,0.0,0.999896,0.0,0.0,0.0144128,0.650888,-1.0,1,0,0,0,0,0,0
77927037,0.0,-0.0,0.0288265,0.0,0.999896,0.0,0.0,0.0144128,0.650888,-1.0,1,0,0,0,0,0,0
77927037,0.0,-0.0,0.0288265,0.0,0.999896,0.0,0.0,0.0144128,0.650888,-1.0,1,0,0,0,0,0,0
77927037,0.0,-0.0,0.0288265,0.0,0.999896,0.0,0.0,0.0144128,0.650888,-1.0,1,0,0,0,0,0,0
83367966,0.176618,-0.0478135,0.0,0.0,0.995819,0.0881693,-0.0238113,0.00210824,0.12,1.0,1,0,0,0,0,0,0
83467156,0.197799,-0.0559744,0.0,0.0,0.994724,0.0986997,-0.0278468,0.00276305,0.12146,1.0,1,0,0,0,0,0,0
83570172,0.19396,-0.0618995,0.0,0.0,0.994824,0.0967817,-0.0307994,0.00299632,0.122379,1.0,1,0,0,0,0,0,0
83671504,0.186882,-0.0631,0.0,0.0,0.995142,0.0932585,-0.0314072,0.00294328,0.122364,1.0,1,0,0,0,0,0,0
83770164,0.175949,-0.0643271,0.0,0.0,0.995618,0.0878154,-0.0320337,0.00282543,0.122126,1.0,1,0,0,0,0,0,0
83874286,0.174043,-0.0678224,0.0,0.0,0.995643,0.0868619,-0.0337764,0.00294672,0.122117,1.0,1,0,0,0,0,0,0
83975527,0.170487,-0.0703107,0.0,0.0,0.995753,0.0850874,-0.0350205,0.00299251,0.122063,1.0,1,0,0,0,0,0,0
84074335,0.165018,-0.0741551,0.0,0.0,0.995913,0.082359,-0.036943,0.00305507,0.121985,1.0,1,0,0,0,0,0,0
84179172,0.164455,-0.0724164,0.0,0.0,0.995968,0.0820808,-0.036078,0.0029733,0.121961,1.0,1,0,0,0,0,0,0
84279673,0.159136,-0.0762791,0.0,0.0,0.996111,0.0794261,-0.0380097,0.00303074,0.121889,1.0,1,0,0,0,0,0,0
84379161,0.152445,-0.0736241,0.0,0.0,0.996421,0.0760971,-0.0366969,0.00280255,0.121733,1.0,1,0,0,0,0,0,0
84483213,0.144528,-0.0689569,0.0,0.0,0.996797,0.072158,-0.0343816,0.00248888,0.121545,1.0,1,0,0,0,0,0,0
84583491,0.137433,-0.0703251,0.0,0.0,0.997023,0.0686198,-0.0350723,0.00241384,0.121435,1.0,1,0,0,0,0,0,0
84687900,0.129735,-0.0661785,0.0,0.0,0.997351,0.0647863,-0.0330136,0.00214451,0.121274,1.0,1,0,0,0,0,0,0
84787178,0.121853,-0.0615374,0.0,0.0,0.997672,0.0608599,-0.0307067,0.00187317,0.121114,1.0,1,0,0,0,0,0,0
84888319,0.10993,-0.0611178,0.0,0.0,0.998024,0.0549115,-0.030508,0.00167856,0.120935,1.0,1,0,0,0,0,0,0
84992605,0.0985722,-0.0600092,0.0,0.0,0.998336,0.049244,-0.0299637,0.00147799,0.120783,1.0,1,0,0,0,0,0,0
85089390,0.0559305,-0.03596,0.0,0.0,0.999447,0.0279571,-0.017972,0.000502723,0.176706,1.0,1,0,0,0,0,0,0
85191629,0.0192935,-0.0148807,0.0,0.0,0.999926,0.00964633,-0.00743996,7.17736e-05,0.28462,1.0,1,0,0,0,0,0,0
85295866,0.00705027,-0.0085082,0.0,0.0,0.999985,0.0035251,-0.00425406,1.49962e-05,0.357488,1.0,1,0,0,0,0,0,0
85395351,0.00253451,-0.00630639,0.0,0.0,0.999994,0.00126725,-0.00315319,3.9959e-06,0.402438,1.0,1,0,0,0,0,0,0
85497191,-0.00148413,-0.00458677,0.0,0.0,0.999997,-0.000742065,-0.00229338,-1.70185e-06,0.431825,1.0,1,0,0,0,0,0,0
85598893,-0.00541545,-0.00325473,0.0,0.0,0.999995,-0.00270772,-0.00162736,-4.40645e-06,0.451591,1.0,1,0,0,0,0,0,0
85699199,-0.00988113,-0.00299338,0.0,0.0,0.999987,-0.00494054,-0.00149667,-7.39446e-06,0.465367,1.0,1,0,0,0,0,0,0
85802191,-0.0121213,-0.00119105,0.0,0.0,0.999981,-0.0060606,-0.000595513,-3.60923e-06,0.474657,1.0,1,0,0,0,0,0,0
85903659,-0.0156996,-7.5193e-05,0.0,0.0,0.999969,-0.00784974,-3.75953e-05,-2.95123e-07,0.481332,1.0,1,0,0,0,0,0,0
86003244,-0.0168697,-0.000602099,0.0,0.0,0.999964,-0.00843476,-0.000301039,-2.53928e-06,0.485457,1.0,1,0,0,0,0,0,0
86107159,-0.0195159,0.00116567,0.0,0.0,0.999952,-0.0097578,0.000582805,5.68717e-06,0.488323,1.0,1,0,0,0,0,0,0
86207529,-0.0210912,0.000984519,0.0,0.0,0.999944,-0.0105454,0.000492232,5.19107e-06,0.490753,1.0,1,0,0,0,0,0,0
86311537,-0.0209035,0.00226753,0.0,0.0,0.999945,-0.0104515,0.0011337,1.18496e-05,0.49245,1.0,1,0,0,0,0,0,0
86410206,-0.0212622,0.00307446,0.0,0.0,0.999942,-0.0106309,0.00153714,1.63421e-05,0.493617,1.0,1,0,0,0,0,0,0
86511387,-0.0216048,0.0044623,0.0,0.0,0.999939,-0.0108022,0.00223102,2.41013e-05,0.493875,1.0,1,0,0,0,0,0,0
86616407,-0.0205152,0.00493357,0.0,0.0,0.999944,-0.0102574,0.00246665,2.53028e-05,0.494268,1.0,1,0,0,0,0,0,0
86716408,-0.0185278,0.00600601,0.0,0.0,0.999953,-0.00926374,0.00300287,2.78191e-05,0.494397,1.0,1,0,0,0,0,0,0
86815249,-0.0174611,0.00604172,0.0,0.0,0.999957,-0.00873039,0.00302074,2.63734e-05,0.494555,1.0,1,0,0,0,0,0,0
86919300,-0.0161484,0.00585978,0.0,0.0,0.999963,-0.00807407,0.00292979,2.36562e-05,0.494308,1.0,1,0,0,0,0,0,0
87018012,-0.0150604,0.00573947,0.0,0.0,0.999968,-0.00753008,0.00286965,2.16094e-05,0.49419,1.0,1,0,0,0,0,0,0
87122099,-0.0133366,0.00502259,0.0,0.0,0.999975,-0.00666823,0.00251124,1.67459e-05,0.494338,1.0,1,0,0,0,0,0,0
87223148,-0.0124247,0.00411749,0.0,0.0,0.999979,-0.00621232,0.0020587,1.27896e-05,0.493725,1.0,1,0,0,0,0,0,0
87323557,-0.01135,0.00467708,0.0,0.0,0.999981,-0.00567496,0.0023385,1.32711e-05,0.493913,1.0,1,0,0,0,0,0,0
87427863,-0.0103637,0.00444424,0.0,0.0,0.999984,-0.00518182,0.00222209,1.15146e-05,0.493655,1.0,1,0,0,0,0,0,0
87527636,-0.00952198,0.00388065,0.0,0.0,0.999987,-0.00476096,0.0019403,9.23784e-06,0.493551,1.0,1,0,0,0,0,0,0
87627190,-0.00902464,0.00433972,0.0,0.0,0.999987,-0.00451229,0.00216984,9.79106e-06,0.493129,1.0,1,0,0,0,0,0,0
87731158,-0.00739718,0.00490253,0.0,0.0,0.99999,-0.00369857,0.00245124,9.06619e-06,0.492814,1.0,1,0,0,0,0,0,0
87831203,-0.00574533,0.00354973,0.0,0.0,0.999994,-0.00287265,0.00177485,5.09857e-06,0.492863,1.0,1,0,0,0,0,0,0
87935155,-0.00435135,0.0025118,0.0,0.0,0.999997,-0.00217567,0.0012559,2.73243e-06,0.492868,1.0,1,0,0,0,0,0,0
88035241,-0.0027497,0.00251317,0.0,0.0,0.999998,-0.00137485,0.00125658,1.72762e-06,0.492645,1.0,1,0,0,0,0,0,0
88138180,-0.00112163,0.000627945,0.0,0.0,1.0,-0.000560817,0.000313972,1.76081e-07,0.492583,1.0,1,0,0,0,0,0,0
88239880,5.94409e-05,0.000561016,0.0,0.0,1.0,2.97205e-05,0.000280508,-8.33683e-09,0.492196,1.0,1,0,0,0,0,0,0
88339148,0.00178988,0.000175627,0.0,0.0,1.0,0.000894941,8.78137e-05,-7.85881e-08,0.491903,1.0,1,0,0,0,0,0,0
88442421,0.00285302,-0.0016063,0.0,0.0,0.999999,0.00142651,-0.000803149,1.1457e-06,0.491882,1.0,1,0,0,0,0,0,0
88543535,0.00480103,-0.00165618,0.0,0.0,0.999997,0.00240051,-0.000828086,1.98784e-06,0.491881,1.0,1,0,0,0,0,0,0
88643154,0.00598555,-0.00227708,0.0,0.0,0.999995,0.00299277,-0.00113854,3.40739e-06,0.491749,1.0,1,0,0,0,0,0,0
88747245,0.00745815,-0.00296391,0.0,0.0,0.999992,0.00372906,-0.00148194,5.52631e-06,0.492127,1.0,1,0,0,0,0,0,0
88848132,0.00813297,-0.00439683,0.0,0.0,0.999989,0.00406647,-0.0021984,8.9398e-06,0.491665,1.0,1,0,0,0,0,0,0
88947703,0.00804566,-0.00456198,0.0,0.0,0.999989,0.00402281,-0.00228097,9.176e-06,0.491786,1.0,1,0,0,0,0,0,0
89051923,0.00814356,-0.00482175,0.0,0.0,0.999989,0.00407176,-0.00241085,9.81652e-06,0.491653,1.0,1,0,0,0,0,0,0
89150220,0.00930156,-0.00641009,0.0,0.0,0.999984,0.00465074,-0.00320501,1.49059e-05,0.491691,1.0,1,0,0,0,0,0,0
89253693,0.0091009,-0.00791576,0.0,0.0,0.999982,0.0045504,-0.00395783,1.801e-05,0.491691,1.0,1,0,0,0,0,0,0
89355544,0.00868805,-0.0084245,0.0,0.0,0.999982,0.00434397,-0.0042122,1.8298e-05,0.491583,1.0,1,0,0,0,0,0,0
89455516,0.00900372,-0.00799253,0.0,0.0,0.999982,0.00450181,-0.00399621,1.79905e-05,0.491764,1.0,1,0,0,0,0,0,0
89559895,0.00871834,-0.00929327,0.0,0.0,0.99998,0.00435911,-0.00464657,2.02553e-05,0.491816,1.0,1,0,0,0,0,0,0
89659155,0.00838885,-0.0100755,0.0,0.0,0.999979,0.00419436,-0.00503769,2.11304e-05,0.49189,1.0,1,0,0,0,0,0,0
89759205,0.0079183,-0.00965166,0.0,0.0,0.999981,0.0039591,-0.00482577,1.91061e-05,0.491684,1.0,1,0,0,0,0,0,0
89863153,0.00633364,-0.00890844,0.0,0.0,0.999985,0.00316678,-0.00445418,1.41056e-05,0.491591,1.0,1,0,0,0,0,0,0
89963173,0.00615252,-0.00824765,0.0,0.0,0.999987,0.00307623,-0.00412379,1.26859e-05,0.491685,1.0,1,0,0,0,0,0,0
90063862,0.00611326,-0.00817948,0.0,0.0,0.999987,0.0030566,-0.00408971,1.25008e-05,0.49169,1.0,1,0,0,0,0,0,0
90167519,0.00489449,-0.00740779,0.0,0.0,0.99999,0.00244723,-0.00370387,9.06431e-06,0.491261,1.0,1,0,0,0,0,0,0
90267183,0.00554582,-0.00677143,0.0,0.0,0.99999,0.00277289,-0.00338569,9.38824e-06,0.491053,1.0,1,0,0,0,0,0,0
90370152,0.00492034,-0.00708627,0.0,0.0,0.999991,0.00246015,-0.00354312,8.7167e-06,0.491176,1.0,1,0,0,0,0,0,0
90471567,0.00466128,-0.00697935,0.0,0.0,0.999991,0.00233062,-0.00348966,8.13315e-06,0.491215,1.0,1,0,0,0,0,0,0
90574480,0.00466527,-0.00717097,0.0,0.0,0.999991,0.00233262,-0.00358547,8.36361e-06,0.490978,1.0,1,0,0,0,0,0,0
90675907,0.00361592,-0.00692687,0.0,0.0,0.999992,0.00180795,-0.00346342,6.26174e-06,0.490549,1.0,1,0,0,0,0,0,0
90775168,0.004807,-0.00684355,0.0,0.0,0.999991,0.00240348,-0.00342176,8.22422e-06,0.490401,1.0,1,0,0,0,0,0,0
90875851,0.00446748,-0.00629624,0.0,0.0,0.999993,0.00223373,-0.00314811,7.03207e-06,0.490318,1.0,1,0,0,0,0,0,0
90980167,0.00347363,-0.00599493,0.0,0.0,0.999994,0.00173681,-0.00299745,5.20604e-06,0.490686,1.0,1,0,0,0,0,0,0
91079499,0.00247388,-0.00486786,0.0,0.0,0.999996,0.00123694,-0.00243393,3.01062e-06,0.490621,1.0,1,0,0,0,0,0,0
91183834,0.00208398,-0.00461145,0.0,0.0,0.999997,0.00104199,-0.00230572,2.40254e-06,0.490266,1.0,1,0,0,0,0,0,0
91283250,0.00163781,-0.00296556,0.0,0.0,0.999999,0.000818903,-0.00148278,1.21425e-06,0.490045,1.0,1,0,0,0,0,0,0
91382056,0.000124649,-0.00283468,0.0,0.0,0.999999,6.23244e-05,-0.00141734,8.83348e-08,0.490037,1.0,1,0,0,0,0,0,0
91486100,0.000188771,-0.00237707,0.0,0.0,0.999999,9.43854e-05,-0.00118854,1.12181e-07,0.489775,1.0,1,0,0,0,0,0,0
91589749,0.000744882,-0.00147794,0.0,0.0,1.0,0.000372441,-0.000738968,2.75222e-07,0.489745,1.0,1,0,0,0,0,0,0
91687858,0.000370581,-0.000646569,0.0,0.0,1.0,0.000185291,-0.000323285,5.99016e-08,0.489852,1.0,1,0,0,0,0,0,0
91791592,-0.00137695,0.000445789,0.0,0.0,1.0,-0.000688474,0.000222894,1.53457e-07,0.489781,1.0,1,0,0,0,0,0,0
91891204,-0.00106457,0.000546808,0.0,0.0,1.0,-0.000532286,0.000273404,1.45529e-07,0.489813,1.0,1,0,0,0,0,0,0
91995898,-0.00166948,0.00133076,0.0,0.0,0.999999,-0.000834741,0.000665382,5.55422e-07,0.490018,1.0,1,0,0,0,0,0,0
92095184,-0.00265615,0.00127147,0.0,0.0,0.999999,-0.00132807,0.000635736,8.44305e-07,0.489713,1.0,1,0,0,0,0,0,0
92195896,-0.00283622,0.00286914,0.0,0.0,0.999998,-0.00141811,0.00143457,2.03437e-06,0.489716,1.0,1,0,0,0,0,0,0
92299850,-0.00332281,0.00224258,0.0,0.0,0.999998,-0.0016614,0.00112129,1.86292e-06,0.490139,1.0,1,0,0,0,0,0,0
92399539,-0.00358633,0.00274245,0.0,0.0,0.999997,-0.00179316,0.00137122,2.45883e-06,0.49059,1.0,1,0,0,0,0,0,0
92499202,-0.00369836,0.00218022,0.0,0.0,0.999998,-0.00184918,0.00109011,2.01581e-06,0.490546,1.0,1,0,0,0,0,0,0
92603171,-0.0033989,0.00230808,0.0,0.0,0.999998,-0.00169945,0.00115404,1.96123e-06,0.490352,1.0,1,0,0,0,0,0,0
92703560,-0.00291853,0.00228113,0.0,0.0,0.999998,-0.00145926,0.00114057,1.66439e-06,0.489806,1.0,1,0,0,0,0,0,0
92807523,-0.00260267,0.00166484,0.0,0.0,0.999999,-0.00130133,0.000832421,1.08326e-06,0.48988,1.0,1,0,0,0,0,0,0
92907179,-0.00277729,0.0019606,0.0,0.0,0.999999,-0.00138864,0.000980299,1.36129e-06,0.490027,1.0,1,0,0,0,0,0,0
93007587,-0.0032625,0.0019654,0.0,0.0,0.999998,-0.00163125,0.000982701,1.60303e-06,0.489851,1.0,1,0,0,0,0,0,0
93111584,-0.00280698,0.00172947,0.0,0.0,0.999999,-0.00140349,0.000864736,1.21365e-06,0.489986,1.0,1,0,0,0,0,0,0
93211176,-0.00318257,0.00145175,0.0,0.0,0.999998,-0.00159128,0.000725874,1.15507e-06,0.489892,1.0,1,0,0,0,0,0,0
93312030,-0.00301759,0.00135803,0.0,0.0,0.999999,-0.00150879,0.000679015,1.0245e-06,0.489771,1.0,1,0,0,0,0,0,0
93416018,-0.00234495,0.00136552,0.0,0.0,0.999999,-0.00117248,0.000682761,8.00522e-07,0.489935,1.0,1,0,0,0,0,0,0
93515258,-0.00174385,0.00128505,0.0,0.0,0.999999,-0.000871927,0.000642526,5.60236e-07,0.489946,1.0,1,0,0,0,0,0,0
93619277,-0.00260838,0.0014814,0.0,0.0,0.999999,-0.00130419,0.000740701,9.66014e-07,0.489534,1.0,1,0,0,0,0,0,0
93718148,-0.00136413,0.00190623,0.0,0.0,0.999999,-0.000682063,0.000953113,6.50084e-07,0.489601,1.0,1,0,0,0,0,0,0
93822138,-0.00171574,0.00110837,0.0,0.0,0.999999,-0.00085787,0.000554183,4.75417e-07,0.489695,1.0,1,0,0,0,0,0,0
93923157,-0.00148997,-0.000284676,0.0,0.0,1.0,-0.000744985,-0.000142338,-1.0604e-07,0.48988,1.0,1,0,0,0,0,0,0
94023874,-0.00146393,0.000226694,0.0,0.0,1.0,-0.000731964,0.000113347,8.2966e-08,0.489585,1.0,1,0,0,0,0,0,0
94123170,-0.000477424,7.49431e-05,0.0,0.0,1.0,-0.000238712,3.74716e-05,8.9449e-09,0.489326,1.0,1,0,0,0,0,0,0
94227248,-0.000523914,0.00104255,0.0,0.0,1.0,-0.000261957,0.000521274,1.36552e-07,0.489431,1.0,1,0,0,0,0,0,0
94327217,-0.000291561,-0.000679923,0.0,0.0,1.0,-0.000145781,-0.000339961,-4.95598e-08,0.489561,1.0,1,0,0,0,0,0,0
94431200,-7.29061e-06,-4.83606e-06,0.0,0.0,1.0,-3.6453e-06,-2.41803e-06,-8.81445e-12,0.48933,1.0,1,0,0,0,0,0,0
94531526,0.000301725,-0.000184002,0.0,0.0,1.0,0.000150863,-9.20011e-05,1.38795e-08,0.489479,1.0,1,0,0,0,0,0,0
94631200,0.000421481,0.000306943,0.0,0.0,1.0,0.000210741,0.000153472,-3.23427e-08,0.489369,1.0,1,0,0,0,0,0,0
94735165,0.000545348,0.000569617,0.0,0.0,1.0,0.000272674,0.000284809,-7.76599e-08,0.489344,1.0,1,0,0,0,0,0,0
94835514,0.000548761,0.000495588,0.0,0.0,1.0,0.00027438,0.000247794,-6.79898e-08,0.488949,1.0,1,0,0,0,0,0,0
94935193,0.0012102,0.00026731,0.0,0.0,1.0,0.0006051,0.000133655,-8.08745e-08,0.488941,1.0,1,0,0,0,0,0,0
95039167,0.0013358,-8.03272e-05,0.0,0.0,1.0,0.000667901,-4.01636e-05,2.68253e-08,0.488945,1.0,1,0,0,0,0,0,0
95139521,0.00162223,0.000129036,0.0,0.0,1.0,0.000811117,6.45178e-05,-5.23315e-08,0.488785,1.0,1,0,0,0,0,0,0
95243858,0.00173617,0.00070343,0.0,0.0,1.0,0.000868087,0.000351715,-3.05319e-07,0.488865,1.0,1,0,0,0,0,0,0
95343196,0.00288262,-9.35532e-05,0.0,0.0,0.999999,0.00144131,-4.67765e-05,6.74194e-08,0.4893,1.0,1,0,0,0,0,0,0
95444168,0.00301418,-0.000512911,0.0,0.0,0.999999,0.00150709,-0.000256455,3.86502e-07,0.48928,1.0,1,0,0,0,0,0,0
95548378,0.00311373,-0.00481924,0.0,0.0,0.999996,0.00155686,-0.00240961,3.75144e-06,0.537018,-1.0,1,0,0,0,0,0,0
95647305,0.00284619,-0.00429505,0.0,0.0,0.999997,0.00142309,-0.00214752,3.05613e-06,0.519361,-1.0,1,0,0,0,0,0,0
95746066,0.0030141,-0.00225595,0.0,0.0,0.999998,0.00150705,-0.00112798,1.69992e-06,0.508597,-1.0,1,0,0,0,0,0,0
95850058,0.00374745,-0.00197266,0.0,0.0,0.999998,0.00187372,-0.000986326,1.8481e-06,0.501842,-1.0,1,0,0,0,0,0,0
95953573,0.00375133,-0.00159803,0.0,0.0,0.999998,0.00187566,-0.000799012,1.49868e-06,0.497879,-1.0,1,0,0,0,0,0,0
96055165,0.00238651,-0.00142496,0.0,0.0,0.999999,0.00119326,-0.000712481,8.50173e-07,0.495404,-1.0,1,0,0,0,0,0,0
96155567,0.0018524,-0.000795512,0.0,0.0,1.0,0.000926198,-0.000397756,3.68401e-07,0.493575,-1.0,1,0,0,0,0,0,0
96255247,0.00144563,-0.000638132,0.0,0.0,1.0,0.000722813,-0.000319066,2.30625e-07,0.492373,-1.0,1,0,0,0,0,0,0
96359181,0.00171557,0.00010815,0.0,0.0,1.0,0.000857784,5.40751e-05,-4.63848e-08,0.491486,-1.0,1,0,0,0,0,0,0
96459559,0.00173715,0.000423272,0.0,0.0,1.0,0.000868577,0.000211636,-1.83822e-07,0.490358,-1.0,1,0,0,0,0,0,0
96559185,0.00174677,0.000259574,0.0,0.0,1.0,0.000873387,0.000129787,-1.13354e-07,0.48999,-1.0,1,0,0,0,0,0,0
96663186,0.00175179,-0.00111912,0.0,0.0,0.999999,0.000875894,-0.000559558,4.90114e-07,0.489653,-1.0,1,0,0,0,0,0,0
96763560,0.00171598,-0.00171643,0.0,0.0,0.999999,0.000857991,-0.000858215,7.36341e-07,0.489375,-1.0,1,0,0,0,0,0,0
96867581,0.00196901,-0.0012309,0.0,0.0,0.999999,0.000984502,-0.000615449,6.05911e-07,0.489199,-1.0,1,0,0,0,0,0,0
96967186,0.00244294,-0.00113018,0.0,0.0,0.999999,0.00122147,-0.000565087,6.90238e-07,0.489044,-1.0,1,0,0,0,0,0,0
97067543,0.00269373,-0.00106465,0.0,0.0,0.999999,0.00134686,-0.000532323,7.16966e-07,0.489183,-1.0,1,0,0,0,0,0,0
97171495,0.00194234,-0.00110965,0.0,0.0,0.999999,0.000971171,-0.000554826,5.38832e-07,0.489354,-1.0,1,0,0,0,0,0,0
97271154,0.00143156,-0.000976395,0.0,0.0,1.0,0.000715778,-0.000488197,3.49441e-07,0.489833,-1.0,1,0,0,0,0,0,0
97371612,0.00175216,-0.00152603,0.0,0.0,0.999999,0.000876077,-0.000763015,6.6846e-07,0.489643,-1.0,1,0,0,0,0,0,0
97475526,0.00199919,-0.00183244,0.0,0.0,0.999999,0.000999595,-0.000916217,9.15847e-07,0.489189,-1.0,1,0,0,0,0,0,0
97575474,0.00142069,-0.00157656,0.0,0.0,0.999999,0.000710346,-0.000788281,5.59952e-07,0.489239,-1.0,1,0,0,0,0,0,0
97679275,0.000964936,-0.00209471,0.0,0.0,0.999999,0.000482468,-0.00104735,5.05314e-07,0.489246,-1.0,1,0,0,0,0,0,0
97780173,0.000710166,-0.00307101,0.0,0.0,0.999999,0.000355083,-0.00153551,5.45232e-07,0.489449,-1.0,1,0,0,0,0,0,0
97877394,0.00140343,-0.00332763,0.0,0.0,0.999998,0.000701713,-0.00166381,1.16752e-06,0.488956,-1.0,1,0,0,0,0,0,0
97981923,0.000955517,-0.00291594,0.0,0.0,0.999999,0.000477758,-0.00145797,6.96557e-07,0.489046,-1.0,1,0,0,0,0,0,0
98085491,0.000605817,-0.00244959,0.0,0.0,0.999999,0.000302908,-0.0012248,3.71001e-07,0.489406,-1.0,1,0,0,0,0,0,0
98183203,0.000229818,-0.00378685,0.0,0.0,0.999998,0.000114909,-0.00189342,2.17572e-07,0.489755,-1.0,1,0,0,0,0,0,0
98285330,-0.000205986,-0.00404303,0.0,0.0,0.999998,-0.000102993,-0.00202151,-2.08201e-07,0.489737,-1.0,1,0,0,0,0,0,0
98387573,0.000541509,-0.00394642,0.0,0.0,0.999998,0.000270754,-0.00197321,5.34255e-07,0.489859,-1.0,1,0,0,0,0,0,0
98491854,0.00108143,-0.00323554,0.0,0.0,0.999999,0.000540715,-0.00161777,8.74753e-07,0.490189,-1.0,1,0,0,0,0,0,0
98591180,0.00141267,-0.00317198,0.0,0.0,0.999999,0.000706336,-0.00158599,1.12024e-06,0.489428,-1.0,1,0,0,0,0,0,0
98692030,0.000762887,-0.00347239,0.0,0.0,0.999998,0.000381443,-0.0017362,6.62261e-07,0.489085,-1.0,1,0,0,0,0,0,0
98795851,0.000360979,-0.00353376,0.0,0.0,0.999998,0.000180489,-0.00176688,3.18904e-07,0.489022,-1.0,1,0,0,0,0,0,0
98895257,1.54302e-05,-0.00399038,0.0,0.0,0.999998,7.71511e-06,-0.00199519,1.53931e-08,0.489034,-1.0,1,0,0,0,0,0,0
98995890,-8.52901e-05,-0.00394389,0.0,0.0,0.999998,-4.2645e-05,-0.00197194,-8.40936e-08,0.489408,-1.0,1,0,0,0,0,0,0
99099882,0.000636552,-0.00446891,0.0,0.0,0.999997,0.000318275,-0.00223445,7.11172e-07,0.489792,-1.0,1,0,0,0,0,0,0
99199202,0.000989719,-0.00463195,0.0,0.0,0.999997,0.000494858,-0.00231597,1.14608e-06,0.490239,-1.0,1,0,0,0,0,0,0
99303205,0.00129292,-0.00423444,0.0,0.0,0.999998,0.00064646,-0.00211722,1.3687e-06,0.490469,-1.0,1,0,0,0,0,0,0
99403854,0.00194481,-0.00443311,0.0,0.0,0.999997,0.000972402,-0.00221655,2.15538e-06,0.490303,-1.0,1,0,0,0,0,0,0
99503252,0.00187244,-0.00442825,0.0,0.0,0.999997,0.00093622,-0.00221412,2.07291e-06,0.490222,-1.0,1,0,0,0,0,0,0
99607332,0.00149901,-0.00378765,0.0,0.0,0.999998,0.000749506,-0.00189382,1.41943e-06,0.490012,-1.0,1,0,0,0,0,0,0
99708042,0.000900729,-0.00454554,0.0,0.0,0.999997,0.000450364,-0.00227277,1.02358e-06,0.489889,-1.0,1,0,0,0,0,0,0
99807662,0.00119794,-0.00463413,0.0,0.0,0.999997,0.000598969,-0.00231706,1.38785e-06,0.490089,-1.0,1,0,0,0,0,0,0
99912139,0.00193711,-0.00439943,0.0,0.0,0.999997,0.00096855,-0.00219971,2.13054e-06,0.489892,-1.0,1,0,0,0,0,0,0
100009424,0.00121245,-0.00404978,0.0,0.0,0.999998,0.000606225,-0.00202489,1.22754e-06,0.490148,-1.0,1,0,0,0,0,0,0
100114007,0.00236411,-0.00380136,0.0,0.0,0.999997,0.00118205,-0.00190068,2.24671e-06,0.490415,-1.0,1,0,0,0,0,0,0
100215624,0.00311192,-0.00420967,0.0,0.0,0.999997,0.00155596,-0.00210483,3.27504e-06,0.490154,-1.0,1,0,0,0,0,0,0
100316644,0.00288711,-0.00369048,0.0,0.0,0.999997,0.00144355,-0.00184524,2.6637e-06,0.490448,-1.0,1,0,0,0,0,0,0
100419877,0.00229146,-0.00444678,0.0,0.0,0.999997,0.00114573,-0.00222339,2.54741e-06,0.490249,-1.0,1,0,0,0,0,0,0
100519182,0.00277481,-0.0039311,0.0,0.0,0.999997,0.0013874,-0.00196555,2.72701e-06,0.490538,-1.0,1,0,0,0,0,0,0
100619828,0.00330362,-0.00437919,0.0,0.0,0.999996,0.0016518,-0.00218959,3.61678e-06,0.490013,-1.0,1,0,0,0,0,0,0
100723525,0.00243976,-0.00313526,0.0,0.0,0.999998,0.00121988,-0.00156763,1.91232e-06,0.489961,-1.0,1,0,0,0,0,0,0
100823274,0.00275701,-0.00405151,0.0,0.0,0.999997,0.0013785,-0.00202575,2.7925e-06,0.489959,-1.0,1,0,0,0,0,0,0
100927175,0.0028586,-0.00399778,0.0,0.0,0.999997,0.0014293,-0.00199889,2.85701e-06,0.490121,-1.0,1,0,0,0,0,0,0
101027535,0.00245603,-0.0035498,0.0,0.0,0.999998,0.00122801,-0.0017749,2.1796e-06,0.49013,-1.0,1,0,0,0,0,0,0
101127238,0.00222472,-0.00398564,0.0,0.0,0.999997,0.00111236,-0.00199282,2.21673e-06,0.489718,-1.0,1,0,0,0,0,0,0
101231154,0.00172359,-0.00390972,0.0,0.0,0.999998,0.000861793,-0.00195486,1.68468e-06,0.489497,-1.0,1,0,0,0,0,0,0
101331687,0.00183812,-0.0040683,0.0,0.0,0.999997,0.000919058,-0.00203415,1.86951e-06,0.489771,-1.0,1,0,0,0,0,0,0
101431184,0.00204571,-0.00387949,0.0,0.0,0.999998,0.00102285,-0.00193974,1.98407e-06,0.489824,-1.0,1,0,0,0,0,0,0
101535205,0.00224411,-0.00492562,0.0,0.0,0.999996,0.00112205,-0.0024628,2.76341e-06,0.489759,-1.0,1,0,0,0,0,0,0
101635497,0.00189856,-0.0038893,0.0,0.0,0.999998,0.000949278,-0.00194465,1.84601e-06,0.489453,-1.0,1,0,0,0,0,0,0
101739686,0.0020029,-0.00427587,0.0,0.0,0.999997,0.00100145,-0.00213793,2.14104e-06,0.489307,-1.0,1,0,0,0,0,0,0
101839141,0.00155976,-0.00423864,0.0,0.0,0.999997,0.00077988,-0.00211932,1.65282e-06,0.489378,-1.0,1,0,0,0,0,0,0
101940179,0.00240099,-0.0043388,0.0,0.0,0.999997,0.00120049,-0.0021694,2.60435e-06,0.489517,-1.0,1,0,0,0,0,0,0
102044162,0.00302624,-0.00403333,0.0,0.0,0.999997,0.00151312,-0.00201666,3.05146e-06,0.489997,-1.0,1,0,0,0,0,0,0
102141587,0.00277524,-0.00469299,0.0,0.0,0.999996,0.00138762,-0.00234649,3.25604e-06,0.489926,-1.0,1,0,0,0,0,0,0
102245686,0.00321233,-0.00389239,0.0,0.0,0.999997,0.00160616,-0.00194619,3.12591e-06,0.489713,-1.0,1,0,0,0,0,0,0
102347647,0.00343402,-0.00323593,0.0,0.0,0.999997,0.00171701,-0.00161796,2.77806e-06,0.489709,-1.0,1,0,0,0,0,0,0
102447321,0.00302723,-0.00341222,0.0,0.0,0.999997,0.00151361,-0.00170611,2.58239e-06,0.489318,-1.0,1,0,0,0,0,0,0
102551240,0.00251949,-0.00356772,0.0,0.0,0.999998,0.00125974,-0.00178386,2.24721e-06,0.489494,-1.0,1,0,0,0,0,0,0
102651545,0.00166171,-0.00208681,0.0,0.0,0.999999,0.000830855,-0.0010434,8.66918e-07,0.489764,-1.0,1,0,0,0,0,0,0
102751211,0.00247223,-0.00311779,0.0,0.0,0.999998,0.00123611,-0.00155889,1.92697e-06,0.489697,-1.0,1,0,0,0,0,0,0
102855175,0.00182174,-0.00305459,0.0,0.0,0.999998,0.000910867,-0.00152729,1.39116e-06,0.489867,-1.0,1,0,0,0,0,0,0
102955561,0.001953,-0.00211086,0.0,0.0,0.999999,0.000976498,-0.00105543,1.03063e-06,0.489934,-1.0,1,0,0,0,0,0,0
103055243,0.00145452,-0.00222179,0.0,0.0,0.999999,0.000727261,-0.00111089,8.07909e-07,0.489975,-1.0,1,0,0,0,0,0,0
103159183,0.00101542,-0.00313494,0.0,0.0,0.999999,0.000507707,-0.00156747,7.95817e-07,0.490026,-1.0,1,0,0,0,0,0,0
103260588,0.00152652,-0.00253975,0.0,0.0,0.999999,0.000763259,-0.00126988,9.69246e-07,0.490196,-1.0,1,0,0,0,0,0,0
103363579,0.00176834,-0.00267019,0.0,0.0,0.999999,0.000884167,-0.0013351,1.18045e-06,0.490242,-1.0,1,0,0,0,0,0,0
103463153,0.00233313,-0.00279844,0.0,0.0,0.999998,0.00116656,-0.00139922,1.63228e-06,0.490341,-1.0,1,0,0,0,0,0,0
103563645,0.00176611,-0.00231474,0.0,0.0,0.999999,0.000883053,-0.00115737,1.02202e-06,0.490086,-1.0,1,0,0,0,0,0,0
103667842,0.00238948,-0.00253916,0.0,0.0,0.999998,0.00119474,-0.00126958,1.51682e-06,0.489974,-1.0,1,0,0,0,0,0,0
103767184,0.00280317,-0.00172363,0.0,0.0,0.999999,0.00140158,-0.000861813,1.20791e-06,0.489979,-1.0,1,0,0,0,0,0,0
103868020,0.00319527,-0.0013739,0.0,0.0,0.999998,0.00159763,-0.000686947,1.09749e-06,0.490078,-1.0,1,0,0,0,0,0,0
103972047,0.00287884,-0.00109089,0.0,0.0,0.999999,0.00143942,-0.000545445,7.85126e-07,0.489914,-1.0,1,0,0,0,0,0,0
104071313,0.00262881,-0.00115597,0.0,0.0,0.999999,0.0013144,-0.000577985,7.59705e-07,0.489786,-1.0,1,0,0,0,0,0,0
104175294,0.00343851,-0.00106023,0.0,0.0,0.999998,0.00171925,-0.000530115,9.11403e-07,0.489652,-1.0,1,0,0,0,0,0,0
104274120,0.00315835,-0.00157839,0.0,0.0,0.999998,0.00157917,-0.000789196,1.24628e-06,0.489399,-1.0,1,0,0,0,0,0,0
104375221,0.00244521,-0.000788885,0.0,0.0,0.999999,0.0012226,-0.000394442,4.82247e-07,0.489551,-1.0,1,0,0,0,0,0,0
104479270,0.00270301,-0.000835078,0.0,0.0,0.999999,0.0013515,-0.000417539,5.64305e-07,0.489373,-1.0,1,0,0,0,0,0,0
104579819,0.00209948,-0.00091081,0.0,0.0,0.999999,0.00104974,-0.000455405,4.78057e-07,0.489662,-1.0,1,0,0,0,0,0,0
104679222,0.00207012,-0.00114942,0.0,0.0,0.999999,0.00103506,-0.000574708,5.94858e-07,0.489709,-1.0,1,0,0,0,0,0,0
104783157,0.00175385,-0.00157335,0.0,0.0,0.999999,0.000876926,-0.000786674,6.89856e-07,0.489742,-1.0,1,0,0,0,0,0,0
104883215,0.00274176,-0.00143226,0.0,0.0,0.999999,0.00137088,-0.000716131,9.81731e-07,0.489543,-1.0,1,0,0,0,0,0,0
104987271,0.00263271,-0.00171702,0.0,0.0,0.999999,0.00131635,-0.000858508,1.1301e-06,0.489786,-1.0,1,0,0,0,0,0,0
105088017,0.00342014,-0.00215607,0.0,0.0,0.999998,0.00171007,-0.00107803,1.84352e-06,0.489654,-1.0,1,0,0,0,0,0,0
105187210,0.00413769,-0.00151192,0.0,0.0,0.999998,0.00206884,-0.000755961,1.56397e-06,0.489473,-1.0,1,0,0,0,0,0,0
105291204,0.00404583,-0.00149512,0.0,0.0,0.999998,0.00202291,-0.00074756,1.51225e-06,0.489442,-1.0,1,0,0,0,0,0,0
105391925,0.00349111,-0.00121911,0.0,0.0,0.999998,0.00174555,-0.000609556,1.06401e-06,0.489892,-1.0,1,0,0,0,0,0,0
105491213,0.00263459,-0.000945857,0.0,0.0,0.999999,0.00131729,-0.000472928,6.22985e-07,0.490052,-1.0,1,0,0,0,0,0,0
105595201,0.00307786,-0.00177336,0.0,0.0,0.999998,0.00153893,-0.000886676,1.36453e-06,0.490322,-1.0,1,0,0,0,0,0,0
105695848,0.00281645,-0.00203993,0.0,0.0,0.999999,0.00140822,-0.00101996,1.43634e-06,0.490269,-1.0,1,0,0,0,0,0,0
105795198,0.00352354,-0.00235003,0.0,0.0,0.999998,0.00176177,-0.00117501,2.0701e-06,0.49044,-1.0,1,0,0,0,0,0,0
105899175,0.00302431,-0.00198131,0.0,0.0,0.999998,0.00151216,-0.000990656,1.49803e-06,0.490259,-1.0,1,0,0,0,0,0,0
106000504,0.00320107,-0.00244057,0.0,0.0,0.999998,0.00160053,-0.00122029,1.95311e-06,0.490095,-1.0,1,0,0,0,0,0,0
106101330,0.00312355,-0.00229576,0.0,0.0,0.999998,0.00156177,-0.00114788,1.79272e-06,0.4903,-1.0,1,0,0,0,0,0,0
106203328,0.00195466,-0.00187963,0.0,0.0,0.999999,0.000977332,-0.000939815,9.18511e-07,0.490369,-1.0,1,0,0,0,0,0,0
106305727,0.00318614,-0.00301979,0.0,0.0,0.999998,0.00159307,-0.00150989,2.40537e-06,0.490458,-1.0,1,0,0,0,0,0,0
106407921,0.00334354,-0.0027737,0.0,0.0,0.999998,0.00167177,-0.00138685,2.3185e-06,0.490181,-1.0,1,0,0,0,0,0,0
106507179,0.00317566,-0.00226518,0.0,0.0,0.999998,0.00158783,-0.00113259,1.79836e-06,0.489729,-1.0,1,0,0,0,0,0,0
106611211,0.00287147,-0.00209569,0.0,0.0,0.999998,0.00143574,-0.00104785,1.50443e-06,0.489843,-1.0,1,0,0,0,0,0,0
106711509,0.00303277,-0.00217439,0.0,0.0,0.999998,0.00151638,-0.00108719,1.6486e-06,0.489882,-1.0,1,0,0,0,0,0,0
106811221,0.00313934,-0.00166619,0.0,0.0,0.999998,0.00156967,-0.000833093,1.30768e-06,0.489873,-1.0,1,0,0,0,0,0,0
106915150,0.0027945,-0.00185741,0.0,0.0,0.999999,0.00139725,-0.000928704,1.29763e-06,0.489922,-1.0,1,0,0,0,0,0,0
107015829,0.00235755,-0.00178451,0.0,0.0,0.999999,0.00117877,-0.000892253,1.05176e-06,0.489912,-1.0,1,0,0,0,0,0,0
107115297,0.00238527,-0.00199812,0.0,0.0,0.999999,0.00119263,-0.000999058,1.19151e-06,0.489554,-1.0,1,0,0,0,0,0,0
107219162,0.00237961,-0.00213344,0.0,0.0,0.999999,0.00118981,-0.00106672,1.26919e-06,0.489856,-1.0,1,0,0,0,0,0,0
107319892,0.00240157,-0.00222712,0.0,0.0,0.999999,0.00120078,-0.00111356,1.33715e-06,0.489881,-1.0,1,0,0,0,0,0,0
107423518,0.0027314,-0.0021604,0.0,0.0,0.999999,0.0013657,-0.0010802,1.47523e-06,0.490197,-1.0,1,0,0,0,0,0,0
107523182,0.00239763,-0.0018495,0.0,0.0,0.999999,0.00119881,-0.000924751,1.10861e-06,0.490345,-1.0,1,0,0,0,0,0,0
107623878,0.00268913,-0.00202526,0.0,0.0,0.999999,0.00134456,-0.00101263,1.36154e-06,0.489906,-1.0,1,0,0,0,0,0,0
107727572,0.00284579,-0.002409,0.0,0.0,0.999998,0.00142289,-0.0012045,1.71388e-06,0.489742,-1.0,1,0,0,0,0,0,0
107827210,0.00309995,-0.00234912,0.0,0.0,0.999998,0.00154998,-0.00117456,1.82054e-06,0.489609,-1.0,1,0,0,0,0,0,0
107928001,0.00278305,-0.0028508,0.0,0.0,0.999998,0.00139152,-0.0014254,1.98348e-06,0.489206,-1.0,1,0,0,0,0,0,0
108032016,0.00303099,-0.00311998,0.0,0.0,0.999998,0.00151549,-0.00155999,2.36416e-06,0.489476,-1.0,1,0,0,0,0,0,0
108131259,0.0033689,-0.00279527,0.0,0.0,0.999998,0.00168445,-0.00139763,2.35425e-06,0.48928,-1.0,1,0,0,0,0,0,0
108235299,0.00392212,-0.0032326,0.0,0.0,0.999997,0.00196105,-0.0016163,3.16966e-06,0.489167,-1.0,1,0,0,0,0,0,0
108334091,0.00397324,-0.0040026,0.0,0.0,0.999996,0.00198662,-0.00200129,3.97582e-06,0.489635,-1.0,1,0,0,0,0,0,0
108437953,0.00454187,-0.00439916,0.0,0.0,0.999995,0.00227093,-0.00219957,4.9951e-06,0.489963,-1.0,1,0,0,0,0,0,0
108539136,0.00462079,-0.00431184,0.0,0.0,0.999995,0.00231039,-0.00215591,4.98103e-06,0.489707,-1.0,1,0,0,0,0,0,0
108639534,0.00434494,-0.00456626,0.0,0.0,0.999995,0.00217246,-0.00228312,4.96002e-06,0.489501,-1.0,1,0,0,0,0,0,0
108739243,0.00419455,-0.0046466,0.0,0.0,0.999995,0.00209727,-0.00232329,4.87259e-06,0.489723,-1.0,1,0,0,0,0,0,0
108843490,0.0045582,-0.00459733,0.0,0.0,0.999995,0.00227909,-0.00229866,5.23889e-06,0.490013,-1.0,1,0,0,0,0,0,0
108943545,0.00498747,-0.00391205,0.0,0.0,0.999995,0.00249373,-0.00195602,4.87779e-06,0.490272,-1.0,1,0,0,0,0,0,0
109047902,0.00488519,-0.0038897,0.0,0.0,0.999995,0.00244259,-0.00194484,4.75048e-06,0.490122,-1.0,1,0,0,0,0,0,0
109147233,0.00431112,-0.00385981,0.0,0.0,0.999996,0.00215555,-0.0019299,4.16002e-06,0.490196,-1.0,1,0,0,0,0,0,0
109247626,0.00500087,-0.00332498,0.0,0.0,0.999995,0.00250043,-0.00166249,4.15694e-06,0.490057,-1.0,1,0,0,0,0,0,0
109351820,0.0048326,-0.00256141,0.0,0.0,0.999996,0.0024163,-0.0012807,3.09456e-06,0.489929,-1.0,1,0,0,0,0,0,0
109451206,0.00463767,-0.00263099,0.0,0.0,0.999996,0.00231883,-0.00131549,3.05041e-06,0.48967,-1.0,1,0,0,0,0,0,0
109551857,0.00438612,-0.0026709,0.0,0.0,0.999997,0.00219305,-0.00133544,2.92871e-06,0.489475,-1.0,1,0,0,0,0,0,0
109655650,0.0048691,-0.00288856,0.0,0.0,0.999996,0.00243455,-0.00144428,3.51617e-06,0.489532,-1.0,1,0,0,0,0,0,0
109755177,0.00403432,-0.00257376,0.0,0.0,0.999997,0.00201715,-0.00128688,2.59584e-06,0.489528,-1.0,1,0,0,0,0,0,0
109859163,0.00346408,-0.00267593,0.0,0.0,0.999998,0.00173204,-0.00133796,2.3174e-06,0.489597,-1.0,1,0,0,0,0,0,0
109959897,0.0040326,-0.00232614,0.0,0.0,0.999997,0.0020163,-0.00116307,2.3451e-06,0.489701,-1.0,1,0,0,0,0,0,0
110059251,0.00376879,-0.00279852,0.0,0.0,0.999997,0.00188439,-0.00139926,2.63676e-06,0.489876,-1.0,1,0,0,0,0,0,0
110163590,0.00350828,-0.00245909,0.0,0.0,0.999998,0.00175414,-0.00122954,2.15679e-06,0.48986,-1.0,1,0,0,0,0,0,0
110264661,0.00392138,-0.00243658,0.0,0.0,0.999997,0.00196069,-0.00121829,2.38868e-06,0.489942,-1.0,1,0,0,0,0,0,0
110361789,0.00377434,-0.00235661,0.0,0.0,0.999998,0.00188717,-0.0011783,2.22366e-06,0.489712,-1.0,1,0,0,0,0,0,0
110465470,0.00271477,-0.00317459,0.0,0.0,0.999998,0.00135738,-0.00158729,2.15457e-06,0.489973,-1.0,1,0,0,0,0,0,0
110569750,0.00248816,-0.00287314,0.0,0.0,0.999998,0.00124408,-0.00143657,1.78721e-06,0.490099,-1.0,1,0,0,0,0,0,0
110671501,0.0025443,-0.00350062,0.0,0.0,0.999998,0.00127215,-0.00175031,2.22666e-06,0.490181,-1.0,1,0,0,0,0,0,0
110771180,0.00221868,-0.00317617,0.0,0.0,0.999998,0.00110934,-0.00158808,1.76173e-06,0.490639,-1.0,1,0,0,0,0,0,0
110871918,0.00248294,-0.00284498,0.0,0.0,0.999998,0.00124147,-0.00142249,1.76598e-06,0.490774,-1.0,1,0,0,0,0,0,0
110975503,0.00343287,-0.00296839,0.0,0.0,0.999997,0.00171643,-0.00148419,2.54752e-06,0.490881,-1.0,1,0,0,0,0,0,0
111075235,0.00315642,-0.00346234,0.0,0.0,0.999997,0.00157821,-0.00173117,2.73215e-06,0.49058,-1.0,1,0,0,0,0,0,0
111175854,0.00339622,-0.00359986,0.0,0.0,0.999997,0.00169811,-0.00179993,3.05648e-06,0.490358,-1.0,1,0,0,0,0,0,0
111279529,0.0040426,-0.003398,0.0,0.0,0.999997,0.00202129,-0.001699,3.43418e-06,0.490053,-1.0,1,0,0,0,0,0,0
111379191,0.00318586,-0.00335755,0.0,0.0,0.999997,0.00159293,-0.00167877,2.67417e-06,0.490066,-1.0,1,0,0,0,0,0,0
111483198,0.00334945,-0.00438606,0.0,0.0,0.999996,0.00167472,-0.00219302,3.67271e-06,0.489672,-1.0,1,0,0,0,0,0,0
111555203,0.00345555,-0.0043279,0.0,0.0,0.999996,0.00172777,-0.00216394,3.73881e-06,0.489701,-1.0,1,0,0,0,0,0,0
111555203,0.00345555,-0.0043279,0.0,0.0,0.999996,0.00172777,-0.00216394,3.73881e-06,0.489701,-1.0,1,0,0,0,0,0,0
111787036,0.0,-0.0,-0.000322364,0.0,1.0,0.0,-0.0,-0.000161182,0.677013,-1.0,1,0,0,0,0,0,0
111887732,0.0,-0.0,-0.000322364,0.0,1.0,0.0,-0.0,-0.000161182,0.677525,-1.0,1,0,0,0,0,0,0
111987098,0.0,-0.0,-0.000322364,0.0,1.0,0.0,-0.0,-0.000161182,0.676359,-1.0,1,0,0,0,0,0,0
112091121,0.0,-0.0,-0.000322364,0.0,1.0,0.0,-0.0,-0.000161182,0.675494,-1.0,1,0,0,0,0,0,0
112191948,0.0,-0.0,-0.000322364,0.0,1.0,0.0,-0.0,-0.000161182,0.675747,-1.0,1,0,0,0,0,0,0
112295158,0.0,-0.0,-0.000322364,0.0,1.0,0.0,-0.0,-0.000161182,0.675493,-1.0,1,0,0,0,0,0,0
112395403,0.0,-0.0,-0.000322364,0.0,1.0,0.0,-0.0,-0.000161182,0.67555,-1.0,1,0,0,0,0,0,0
112494076,0.0,-0.0,-0.000322364,0.0,1.0,0.0,-0.0,-0.000161182,0.675885,-1.0,1,0,0,0,0,0,0
112599778,0.0,-0.0,-0.000322364,0.0,1.0,0.0,-0.0,-0.000161182,0.676572,-1.0,1,0,0,0,0,0,0
112699056,0.0,-0.0,-0.000322364,0.0,1.0,0.0,-0.0,-0.000161182,0.675522,-1.0,1,0,0,0,0,0,0
112799762,0.0,-0.0,-0.000322364,0.0,1.0,0.0,-0.0,-0.000161182,0.675542,-1.0,1,0,0,0,0,0,0
112903770,0.0,-0.0,-0.000322364,0.0,1.0,0.0,-0.0,-0.000161182,0.676399,-1.0,1,0,0,0,0,0,0
113003044,0.0,-0.0,-0.000322364,0.0,1.0,0.0,-0.0,-0.000161182,0.675522,-1.0,1,0,0,0,0,0,0
113107052,0.0,-0.0,-0.000322364,0.0,1.0,0.0,-0.0,-0.000161182,0.675542,-1.0,1,0,0,0,0,0,0
113207407,0.0,-0.0,-0.000322364,0.0,1.0,0.0,-0.0,-0.000161182,0.676399,-1.0,1,0,0,0,0,0,0
113307152,0.0,-0.0,-0.000322364,0.0,1.0,0.0,-0.0,-0.000161182,0.675551,-1.0,1,0,0,0,0,0,0
113411145,0.0,-0.0,-0.000322364,0.0,1.0,0.0,-0.0,-0.000161182,0.675542,-1.0,1,0,0,0,0,0,0
113511423,0.0,-0.0,-0.000322364,0.0,1.0,0.0,-0.0,-0.000161182,0.676399,-1.0,1,0,0,0,0,0,0
113611129,0.0,-0.0,-0.000322364,0.0,1.0,0.0,-0.0,-0.000161182,0.675551,-1.0,1,0,0,0,0,0,0
113715094,0.0,-0.0,-0.000322364,0.0,1.0,0.0,-0.0,-0.000161182,0.675542,-1.0,1,0,0,0,0,0,0
113815385,0.0,-0.0,-0.000322364,0.0,1.0,0.0,-0.0,-0.000161182,0.676399,-1.0,1,0,0,0,0,0,0
113919491,0.0,-0.0,-0.000322364,0.0,1.0,0.0,-0.0,-0.000161182,0.675755,-1.0,1,0,0,0,0,0,0
114019046,0.0,-0.0,-0.000322364,0.0,1.0,0.0,-0.0,-0.000161182,0.677576,-1.0,1,0,0,0,0,0,0
114119943,0.0,-0.0,-0.000322364,0.0,1.0,0.0,-0.0,-0.000161182,0.676454,-1.0,1,0,0,0,0,0,0
114223961,0.0,-0.0,-0.000322364,0.0,1.0,0.0,-0.0,-0.000161182,0.67759,-1.0,1,0,0,0,0,0,0
114323388,0.0,-0.0,-0.000322364,0.0,1.0,0.0,-0.0,-0.000161182,0.67545,-1.0,1,0,0,0,0,0,0
114421666,0.0,-0.0,-0.000322364,0.0,1.0,0.0,-0.0,-0.000161182,0.673655,-1.0,1,0,0,0,0,0,0
114525919,0.0,-0.0,-0.000322364,0.0,1.0,0.0,-0.0,-0.000161182,0.671057,-1.0,1,0,0,0,0,0,0
114630354,0.0,-0.0,-0.000322364,0.0,1.0,0.0,-0.0,-0.000161182,0.585058,-1.0,1,0,0,0,0,0,0
114731048,0.0,-0.0,-0.000322364,0.0,1.0,0.0,-0.0,-0.000161182,0.588131,-1.0,1,0,0,0,0,0,0
114831852,0.0,-0.0,-0.000322364,0.0,1.0,0.0,-0.0,-0.000161182,0.588669,-1.0,1,0,0,0,0,0,0
114931095,0.0,-0.0,-0.000322364,0.0,1.0,0.0,-0.0,-0.000161182,0.588757,-1.0,1,0,0,0,0,0,0
115035067,0.0,-0.0,-0.000322364,0.0,1.0,0.0,-0.0,-0.000161182,0.589786,-1.0,1,0,0,0,0,0,0
115135709,0.0,-0.0,-0.000322364,0.0,1.0,0.0,-0.0,-0.000161182,0.588737,-1.0,1,0,0,0,0,0,0
115235050,0.0,-0.0,-0.000322364,0.0,1.0,0.0,-0.0,-0.000161182,0.588756,-1.0,1,0,0,0,0,0,0
115339827,0.0,-0.0,-0.000322364,0.0,1.0,0.0,-0.0,-0.000161182,0.589786,-1.0,1,0,0,0,0,0,0
115439091,0.0,-0.0,-0.000322364,0.0,1.0,0.0,-0.0,-0.000161182,0.588737,-1.0,1,0,0,0,0,0,0
115543122,0.0,-0.0,-0.000322364,0.0,1.0,0.0,-0.0,-0.000161182,0.588757,-1.0,1,0,0,0,0,0,0
115643413,0.0,-0.0,-0.000322364,0.0,1.0,0.0,-0.0,-0.000161182,0.589614,-1.0,1,0,0,0,0,0,0
115743128,0.0,-0.0,-0.000322364,0.0,1.0,0.0,-0.0,-0.000161182,0.588766,-1.0,1,0,0,0,0,0,0
115847029,0.0,-0.0,-0.000322364,0.0,1.0,0.0,-0.0,-0.000161182,0.588757,-1.0,1,0,0,0,0,0,0
115947749,0.0,-0.0,-0.000322364,0.0,1.0,0.0,-0.0,-0.000161182,0.589076,-1.0,1,0,0,0,0,0,0
116047016,0.0,-0.0,-0.000322364,0.0,1.0,0.0,-0.0,-0.000161182,0.588079,-1.0,1,0,0,0,0,0,0
116152039,0.0,-0.0,-0.000322364,0.0,1.0,0.0,-0.0,-0.000161182,0.586943,-1.0,1,0,0,0,0,0,0
116251896,0.0,-0.0,-0.000322364,0.0,1.0,0.0,-0.0,-0.000161182,0.563356,-1.0,1,0,0,0,0,0,0
116353215,0.0,-0.0,-0.000322364,0.0,1.0,0.0,-0.0,-0.000161182,0.561855,-1.0,1,0,0,0,0,0,0
116455992,0.0,-0.0,-0.000322364,0.0,1.0,0.0,-0.0,-0.000161182,0.56115,-1.0,1,0,0,0,0,0,0
116553552,0.0,-0.0,-0.000322364,0.0,1.0,0.0,-0.0,-0.000161182,0.561348,-1.0,1,0,0,0,0,0,0
116657393,0.0,-0.0,-0.000322364,0.0,1.0,0.0,-0.0,-0.000161182,0.561463,-1.0,1,0,0,0,0,0,0
116759860,0.0,-0.0,-0.000322364,0.0,1.0,0.0,-0.0,-0.000161182,0.561151,-1.0,1,0,0,0,0,0,0
116859084,0.0,-0.0,-0.000322364,0.0,1.0,0.0,-0.0,-0.000161182,0.561144,-1.0,1,0,0,0,0,0,0
116964038,0.0,-0.0,-0.000322364,0.0,1.0,0.0,-0.0,-0.000161182,0.561463,-1.0,1,0,0,0,0,0,0
117063414,0.0,-0.0,-0.000322364,0.0,1.0,0.0,-0.0,-0.000161182,0.561151,-1.0,1,0,0,0,0,0,0
117167725,0.0,-0.0,-0.000322364,0.0,1.0,0.0,-0.0,-0.000161182,0.561348,-1.0,1,0,0,0,0,0,0
117267062,0.0,-0.0,-0.000322364,0.0,1.0,0.0,-0.0,-0.000161182,0.561094,-1.0,1,0,0,0,0,0,0
117368846,0.0,-0.0,-0.000322364,0.0,1.0,0.0,-0.0,-0.000161182,0.561145,-1.0,1,0,0,0,0,0,0
117471413,0.0,-0.0,-0.000322364,0.0,1.0,0.0,-0.0,-0.000161182,0.561831,-1.0,1,0,0,0,0,0,0
117571030,0.0,-0.0,-0.000322364,0.0,1.0,0.0,-0.0,-0.000161182,0.561063,-1.0,1,0,0,0,0,0,0
117671712,0.0,-0.0,-0.000322364,0.0,1.0,0.0,-0.0,-0.000161182,0.561145,-1.0,1,0,0,0,0,0,0
117775400,0.0,-0.0,-0.000322364,0.0,1.0,0.0,-0.0,-0.000161182,0.562173,-1.0,1,0,0,0,0,0,0
117875032,0.0,-0.0,-0.000322364,0.0,1.0,0.0,-0.0,-0.000161182,0.561124,-1.0,1,0,0,0,0,0,0
117979046,0.0,-0.0,-0.000322364,0.0,1.0,0.0,-0.0,-0.000161182,0.561143,-1.0,1,0,0,0,0,0,0
118075014,0.0,-0.0,-0.000322364,0.0,1.0,0.0,-0.0,-0.000161182,0.555503,-1.0,1,0,0,0,0,0,0
118179276,0.0,-0.0,-0.000322364,0.0,1.0,0.0,-0.0,-0.000161182,0.46575,-1.0,1,0,0,0,0,0,0
118283043,0.0,-0.0,-0.000322364,0.0,1.0,0.0,-0.0,-0.000161182,0.450625,-1.0,1,0,0,0,0,0,0
118384418,0.0,-0.0,-0.000322364,0.0,1.0,0.0,-0.0,-0.000161182,0.449652,-1.0,1,0,0,0,0,0,0
118483037,0.0,-0.0,-0.000322364,0.0,1.0,0.0,-0.0,-0.000161182,0.450733,-1.0,1,0,0,0,0,0,0
118587210,0.0,-0.0,-0.000322364,0.0,1.0,0.0,-0.0,-0.000161182,0.449623,-1.0,1,0,0,0,0,0,0
118688031,0.0,-0.0,-0.000322364,0.0,1.0,0.0,-0.0,-0.000161182,0.45145,-1.0,1,0,0,0,0,0,0
118792212,0.0,-0.0,-0.000322364,0.0,1.0,0.0,-0.0,-0.000161182,0.451671,-1.0,1,0,0,0,0,0,0
118889650,0.0,-0.0,-0.000322364,0.0,1.0,0.0,-0.0,-0.000161182,0.451708,-1.0,1,0,0,0,0,0,0
118994247,0.0,-0.0,-0.000322364,0.0,1.0,0.0,-0.0,-0.000161182,0.451678,-1.0,1,0,0,0,0,0,0
119095432,0.0,-0.0,-0.000322364,0.0,1.0,0.0,-0.0,-0.000161182,0.451677,-1.0,1,0,0,0,0,0,0
119195065,0.0,-0.0,-0.000322364,0.0,1.0,0.0,-0.0,-0.000161182,0.45188,-1.0,1,0,0,0,0,0,0
119297928,0.0,-0.0,-0.000322364,0.0,1.0,0.0,-0.0,-0.000161182,0.451743,-1.0,1,0,0,0,0,0,0
119399793,0.0,-0.0,-0.000322364,0.0,1.0,0.0,-0.0,-0.000161182,0.452794,-1.0,1,0,0,0,0,0,0
119501457,0.0,-0.0,-0.000322364,0.0,1.0,0.0,-0.0,-0.000161182,0.451947,-1.0,1,0,0,0,0,0,0
119603531,0.0,-0.0,-0.000322364,0.0,1.0,0.0,-0.0,-0.000161182,0.451981,-1.0,1,0,0,0,0,0,0
119703056,0.0,-0.0,-0.000322364,0.0,1.0,0.0,-0.0,-0.000161182,0.45157,-1.0,1,0,0,0,0,0,0
119803453,0.0,-0.0,-0.000322364,0.0,1.0,0.0,-0.0,-0.000161182,0.451708,-1.0,1,0,0,0,0,0,0
119907407,0.0,-0.0,-0.000322364,0.0,1.0,0.0,-0.0,-0.000161182,0.452224,-1.0,1,0,0,0,0,0,0
120007090,0.0,-0.0,-0.000322364,0.0,1.0,0.0,-0.0,-0.000161182,0.451965,-1.0,1,0,0,0,0,0,0
120107430,0.0,-0.0,-0.000322364,0.0,1.0,0.0,-0.0,-0.000161182,0.451682,-1.0,1,0,0,0,0,0,0
120211425,0.0,-0.0,-0.000322364,0.0,1.0,0.0,-0.0,-0.000161182,0.452488,-1.0,1,0,0,0,0,0,0
120311046,0.0,-0.0,-0.000322364,0.0,1.0,0.0,-0.0,-0.000161182,0.451613,-1.0,1,0,0,0,0,0,0
120415053,0.0,-0.0,-0.000322364,0.0,1.0,0.0,-0.0,-0.000161182,0.451624,-1.0,1,0,0,0,0,0,0
120515715,0.0,-0.0,-0.000322364,0.0,1.0,0.0,-0.0,-0.000161182,0.452361,-1.0,1,0,0,0,0,0,0
120616030,0.0,-0.0,-0.000322364,0.0,1.0,0.0,-0.0,-0.000161182,0.451678,-1.0,1,0,0,0,0,0,0
120719138,0.0,-0.0,-0.000322364,0.0,1.0,0.0,-0.0,-0.000161182,0.452018,-1.0,1,0,0,0,0,0,0
120820256,0.0,-0.0,-0.000322364,0.0,1.0,0.0,-0.0,-0.000161182,0.451682,-1.0,1,0,0,0,0,0,0
120919153,0.0,-0.0,-0.000322364,0.0,1.0,0.0,-0.0,-0.000161182,0.451676,-1.0,1,0,0,0,0,0,0
121023194,0.0,-0.0,-0.000322364,0.0,1.0,0.0,-0.0,-0.000161182,0.452844,-1.0,1,0,0,0,0,0,0
121122269,0.0,-0.0,-0.000322364,0.0,1.0,0.0,-0.0,-0.000161182,0.451976,-1.0,1,0,0,0,0,0,0
121226295,0.0,-0.0,-0.000322364,0.0,1.0,0.0,-0.0,-0.000161182,0.452708,-1.0,1,0,0,0,0,0,0
121327058,0.0,-0.0,-0.000322364,0.0,1.0,0.0,-0.0,-0.000161182,0.452796,-1.0,1,0,0,0,0,0,0
121427791,0.0,-0.0,-0.000322364,0.0,1.0,0.0,-0.0,-0.000161182,0.451569,-1.0,1,0,0,0,0,0,0
121531714,0.0,-0.0,-0.000322364,0.0,1.0,0.0,-0.0,-0.000161182,0.452304,-1.0,1,0,0,0,0,0,0
121631030,0.0,-0.0,-0.000322364,0.0,1.0,0.0,-0.0,-0.000161182,0.452661,-1.0,1,0,0,0,0,0,0
121731880,0.0,-0.0,-0.000322364,0.0,1.0,0.0,-0.0,-0.000161182,0.452665,-1.0,1,0,0,0,0,0,0
121835388,0.0,-0.0,-0.000322364,0.0,1.0,0.0,-0.0,-0.000161182,0.45335,-1.0,1,0,0,0,0,0,0
121935139,0.0,-0.0,-0.000322364,0.0,1.0,0.0,-0.0,-0.000161182,0.453381,-1.0,1,0,0,0,0,0,0
122039051,0.0,-0.0,-0.000322364,0.0,1.0,0.0,-0.0,-0.000161182,0.453199,-1.0,1,0,0,0,0,0,0
122139411,0.0,-0.0,-0.000322364,0.0,1.0,0.0,-0.0,-0.000161182,0.452812,-1.0,1,0,0,0,0,0,0
122239839,0.0,-0.0,-0.000322364,0.0,1.0,0.0,-0.0,-0.000161182,0.451809,-1.0,1,0,0,0,0,0,0
122343424,0.0,-0.0,-0.000322364,0.0,1.0,0.0,-0.0,-0.000161182,0.453064,-1.0,1,0,0,0,0,0,0
122443090,0.0,-0.0,-0.000322364,0.0,1.0,0.0,-0.0,-0.000161182,0.453408,-1.0,1,0,0,0,0,0,0
122543738,0.0,-0.0,-0.000322364,0.0,1.0,0.0,-0.0,-0.000161182,0.453409,-1.0,1,0,0,0,0,0,0
122647411,0.0,-0.0,-0.000322364,0.0,1.0,0.0,-0.0,-0.000161182,0.451553,-1.0,1,0,0,0,0,0,0
122747075,0.0,-0.0,-0.000322364,0.0,1.0,0.0,-0.0,-0.000161182,0.452083,-1.0,1,0,0,0,0,0,0
122851019,0.0,-0.0,-0.000322364,0.0,1.0,0.0,-0.0,-0.000161182,0.452027,-1.0,1,0,0,0,0,0,0
122952964,0.0,-0.0,-0.000322364,0.0,1.0,0.0,-0.0,-0.000161182,0.45317,-1.0,1,0,0,0,0,0,0
123051222,0.0,-0.0,-0.000322364,0.0,1.0,0.0,-0.0,-0.000161182,0.451657,-1.0,1,0,0,0,0,0,0
123155274,0.0,-0.0,-0.000322364,0.0,1.0,0.0,-0.0,-0.000161182,0.451676,-1.0,1,0,0,0,0,0,0
123255500,0.0,-0.0,-0.000322364,0.0,1.0,0.0,-0.0,-0.000161182,0.452363,-1.0,1,0,0,0,0,0,0
123357760,0.0,-0.0,-0.000322364,0.0,1.0,0.0,-0.0,-0.000161182,0.451715,-1.0,1,0,0,0,0,0,0
123459095,0.0,-0.0,-0.000322364,0.0,1.0,0.0,-0.0,-0.000161182,0.45168,-1.0,1,0,0,0,0,0,0
123559401,0.0,-0.0,-0.000322364,0.0,1.0,0.0,-0.0,-0.000161182,0.451677,-1.0,1,0,0,0,0,0,0
123663449,0.0,-0.0,-0.000322364,0.0,1.0,0.0,-0.0,-0.000161182,0.449555,-1.0,1,0,0,0,0,0,0
123763025,0.0,-0.0,-0.000322364,0.0,1.0,0.0,-0.0,-0.000161182,0.450763,-1.0,1,0,0,0,0,0,0
123863102,0.0,-0.0,-0.000322364,0.0,1.0,0.0,-0.0,-0.000161182,0.450347,-1.0,1,0,0,0,0,0,0
123967153,0.0,-0.0,-0.000322364,0.0,1.0,0.0,-0.0,-0.000161182,0.450225,-1.0,1,0,0,0,0,0,0
124067749,0.0,-0.0,-0.000322364,0.0,1.0,0.0,-0.0,-0.000161182,0.428146,-1.0,1,0,0,0,0,0,0
124167097,0.0,-0.0,-0.000322364,0.0,1.0,0.0,-0.0,-0.000161182,0.424268,-1.0,1,0,0,0,0,0,0
124271069,0.0,-0.0,-0.000322364,0.0,1.0,0.0,-0.0,-0.000161182,0.42407,-1.0,1,0,0,0,0,0,0
124371056,0.0,-0.0,-0.000322364,0.0,1.0,0.0,-0.0,-0.000161182,0.424063,-1.0,1,0,0,0,0,0,0
124475051,0.0,-0.0,-0.000322364,0.0,1.0,0.0,-0.0,-0.000161182,0.424063,-1.0,1,0,0,0,0,0,0
124575865,0.0,-0.0,-0.000322364,0.0,1.0,0.0,-0.0,-0.000161182,0.424063,-1.0,1,0,0,0,0,0,0
124675107,0.0,-0.0,-0.000322364,0.0,1.0,0.0,-0.0,-0.000161182,0.424063,-1.0,1,0,0,0,0,0,0
124779421,0.0,-0.0,-0.000322364,0.0,1.0,0.0,-0.0,-0.000161182,0.424063,-1.0,1,0,0,0,0,0,0
124879243,0.0,-0.0,-0.000322364,0.0,1.0,0.0,-0.0,-0.000161182,0.424095,-1.0,1,0,0,0,0,0,0
124979905,0.0,-0.0,-0.000322364,0.0,1.0,0.0,-0.0,-0.000161182,0.424069,-1.0,1,0,0,0,0,0,0
125083899,0.0,-0.0,-0.000322364,0.0,1.0,0.0,-0.0,-0.000161182,0.424063,-1.0,1,0,0,0,0,0,0
125183523,0.0,-0.0,-0.000322364,0.0,1.0,0.0,-0.0,-0.000161182,0.424063,-1.0,1,0,0,0,0,0,0
125285621,0.0,-0.0,-0.000322364,0.0,1.0,0.0,-0.0,-0.000161182,0.424063,-1.0,1,0,0,0,0,0,0
125386024,0.0,-0.0,-0.000322364,0.0,1.0,0.0,-0.0,-0.000161182,0.424063,-1.0,1,0,0,0,0,0,0
125487115,0.0,-0.0,-0.000322364,0.0,1.0,0.0,-0.0,-0.000161182,0.424063,-1.0,1,0,0,0,0,0,0
125591129,0.0,-0.0,-0.000322364,0.0,1.0,0.0,-0.0,-0.000161182,0.424063,-1.0,1,0,0,0,0,0,0
125691441,0.0,-0.0,-0.000322364,0.0,1.0,0.0,-0.0,-0.000161182,0.424063,-1.0,1,0,0,0,0,0,0
125791058,0.0,-0.0,-0.000322364,0.0,1.0,0.0,-0.0,-0.000161182,0.424546,-1.0,1,0,0,0,0,0,0
125895185,0.0,-0.0,-0.000322364,0.0,1.0,0.0,-0.0,-0.000161182,0.424036,-1.0,1,0,0,0,0,0,0
125995436,0.0,-0.0,-0.000322364,0.0,1.0,0.0,-0.0,-0.000161182,0.424063,-1.0,1,0,0,0,0,0,0
126099142,0.0,-0.0,-0.000322364,0.0,1.0,0.0,-0.0,-0.000161182,0.424063,-1.0,1,0,0,0,0,0,0
126199773,0.0,-0.0,-0.000322364,0.0,1.0,0.0,-0.0,-0.000161182,0.424063,-1.0,1,0,0,0,0,0,0
126299110,0.0,-0.0,-0.000322364,0.0,1.0,0.0,-0.0,-0.000161182,0.424063,-1.0,1,0,0,0,0,0,0
126403041,0.0,-0.0,-0.000322364,0.0,1.0,0.0,-0.0,-0.000161182,0.424063,-1.0,1,0,0,0,0,0,0
126503461,0.0,-0.0,-0.000322364,0.0,1.0,0.0,-0.0,-0.000161182,0.424063,-1.0,1,0,0,0,0,0,0
126603061,0.0,-0.0,-0.000322364,0.0,1.0,0.0,-0.0,-0.000161182,0.424063,-1.0,1,0,0,0,0,0,0
126707043,0.0,-0.0,-0.000322364,0.0,1.0,0.0,-0.0,-0.000161182,0.424063,-1.0,1,0,0,0,0,0,0
126807410,0.0,-0.0,-0.000322364,0.0,1.0,0.0,-0.0,-0.000161182,0.424095,-1.0,1,0,0,0,0,0,0
126911410,0.0,-0.0,-0.000322364,0.0,1.0,0.0,-0.0,-0.000161182,0.424065,-1.0,1,0,0,0,0,0,0
127011097,0.0,-0.0,-0.000322364,0.0,1.0,0.0,-0.0,-0.000161182,0.424063,-1.0,1,0,0,0,0,0,0
127112014,0.0,-0.0,-0.000322364,0.0,1.0,0.0,-0.0,-0.000161182,0.424063,-1.0,1,0,0,0,0,0,0
127216250,0.0,-0.0,-0.000322364,0.0,1.0,0.0,-0.0,-0.000161182,0.424063,-1.0,1,0,0,0,0,0,0
127315157,0.0,-0.0,-0.000322364,0.0,1.0,0.0,-0.0,-0.000161182,0.424095,-1.0,1,0,0,0,0,0,0
127414332,0.0,-0.0,-0.000322364,0.0,1.0,0.0,-0.0,-0.000161182,0.424269,-1.0,1,0,0,0,0,0,0
127518009,0.0,-0.0,-0.000322364,0.0,1.0,0.0,-0.0,-0.000161182,0.443275,-1.0,1,0,0,0,0,0,0
127622031,0.0,-0.0,-0.000322364,0.0,1.0,0.0,-0.0,-0.000161182,0.460763,-1.0,1,0,0,0,0,0,0
127723070,0.0,-0.0,-0.000322364,0.0,1.0,0.0,-0.0,-0.000161182,0.459992,-1.0,1,0,0,0,0,0,0
127823765,0.0,-0.0,-0.000322364,0.0,1.0,0.0,-0.0,-0.000161182,0.462241,-1.0,1,0,0,0,0,0,0
127923137,0.0,-0.0,-0.000322364,0.0,1.0,0.0,-0.0,-0.000161182,0.461832,-1.0,1,0,0,0,0,0,0
128027027,0.0,-0.0,-0.000322364,0.0,1.0,0.0,-0.0,-0.000161182,0.462231,-1.0,1,0,0,0,0,0,0
128127823,0.0,-0.0,-0.000322364,0.0,1.0,0.0,-0.0,-0.000161182,0.461458,-1.0,1,0,0,0,0,0,0
128227070,0.0,-0.0,-0.000322364,0.0,1.0,0.0,-0.0,-0.000161182,0.462568,-1.0,1,0,0,0,0,0,0
128331063,0.0,-0.0,-0.000322364,0.0,1.0,0.0,-0.0,-0.000161182,0.461518,-1.0,1,0,0,0,0,0,0
128431767,0.0,-0.0,-0.000322364,0.0,1.0,0.0,-0.0,-0.000161182,0.461857,-1.0,1,0,0,0,0,0,0
128535483,0.0,-0.0,-0.000322364,0.0,1.0,0.0,-0.0,-0.000161182,0.461751,-1.0,1,0,0,0,0,0,0
128635062,0.0,-0.0,-0.000322364,0.0,1.0,0.0,-0.0,-0.000161182,0.461489,-1.0,1,0,0,0,0,0,0
128735090,0.0,-0.0,-0.000322364,0.0,1.0,0.0,-0.0,-0.000161182,0.462232,-1.0,1,0,0,0,0,0,0
128837689,0.0,-0.0,-0.000322364,0.0,1.0,0.0,-0.0,-0.000161182,0.461458,-1.0,1,0,0,0,0,0,0
128939718,0.0,-0.0,-0.000322364,0.0,1.0,0.0,-0.0,-0.000161182,0.462598,-1.0,1,0,0,0,0,0,0
129039192,0.0,-0.0,-0.000322364,0.0,1.0,0.0,-0.0,-0.000161182,0.461463,-1.0,1,0,0,0,0,0,0
129143055,0.0,-0.0,-0.000322364,0.0,1.0,0.0,-0.0,-0.000161182,0.462339,-1.0,1,0,0,0,0,0,0
129244334,0.0,-0.0,-0.000322364,0.0,1.0,0.0,-0.0,-0.000161182,0.462233,-1.0,1,0,0,0,0,0,0
129348305,0.0,-0.0,-0.000322364,0.0,1.0,0.0,-0.0,-0.000161182,0.46183,-1.0,1,0,0,0,0,0,0
129448144,0.0,-0.0,-0.000322364,0.0,1.0,0.0,-0.0,-0.000161182,0.462231,-1.0,1,0,0,0,0,0,0
129546406,0.0,-0.0,-0.000322364,0.0,1.0,0.0,-0.0,-0.000161182,0.461458,-1.0,1,0,0,0,0,0,0
129650020,0.0,-0.0,-0.000322364,0.0,1.0,0.0,-0.0,-0.000161182,0.462568,-1.0,1,0,0,0,0,0,0
129751031,0.0,-0.0,-0.000322364,0.0,1.0,0.0,-0.0,-0.000161182,0.461518,-1.0,1,0,0,0,0,0,0
129851407,0.0,-0.0,-0.000322364,0.0,1.0,0.0,-0.0,-0.000161182,0.461857,-1.0,1,0,0,0,0,0,0
129955391,0.0,-0.0,-0.000322364,0.0,1.0,0.0,-0.0,-0.000161182,0.461751,-1.0,1,0,0,0,0,0,0
130055061,0.0,-0.0,-0.000322364,0.0,1.0,0.0,-0.0,-0.000161182,0.462313,-1.0,1,0,0,0,0,0,0
130159042,0.0,-0.0,-0.000322364,0.0,1.0,0.0,-0.0,-0.000161182,0.46175,-1.0,1,0,0,0,0,0,0
130259534,0.0,-0.0,-0.000322364,0.0,1.0,0.0,-0.0,-0.000161182,0.461857,-1.0,1,0,0,0,0,0,0
130359605,0.0,-0.0,-0.000322364,0.0,1.0,0.0,-0.0,-0.000161182,0.461749,-1.0,1,0,0,0,0,0,0
130463504,0.0,-0.0,-0.000322364,0.0,1.0,0.0,-0.0,-0.000161182,0.462517,-1.0,1,0,0,0,0,0,0
130563073,0.0,-0.0,-0.000322364,0.0,1.0,0.0,-0.0,-0.000161182,0.461465,-1.0,1,0,0,0,0,0,0
130663791,0.0,-0.0,-0.000322364,0.0,1.0,0.0,-0.0,-0.000161182,0.462566,-1.0,1,0,0,0,0,0,0
130768414,0.0,-0.0,-0.000322364,0.0,1.0,0.0,-0.0,-0.000161182,0.46303,-1.0,1,0,0,0,0,0,0
130868044,0.0,-0.0,-0.000322364,0.0,1.0,0.0,-0.0,-0.000161182,0.461837,-1.0,1,0,0,0,0,0,0
130971060,0.0,-0.0,0.000202068,0.00706057,1.0,0.0,0.0,0.000101034,0.463573,-1.0,1,0,0,0,0,0,0
131071729,0.0,-0.0,0.00137287,0.0139902,1.0,0.0,0.0,0.000686435,0.463533,-1.0,1,0,0,0,0,0,0
131171322,0.0,-0.0,0.00275285,0.0138584,0.999999,0.0,0.0,0.00137642,0.462475,-1.0,1,0,0,0,0,0,0
131275024,0.0,-0.0,0.00434988,0.0140761,0.999998,0.0,0.0,0.00217494,0.463127,-1.0,1,0,0,0,0,0,0
131375032,0.0,-0.0,0.0057289,0.013891,0.999996,0.0,0.0,0.00286444,0.463326,-1.0,1,0,0,0,0,0,0
131476431,0.0,-0.0,0.00713365,0.0138522,0.999994,0.0,0.0,0.00356682,0.463561,-1.0,1,0,0,0,0,0,0
131581089,0.0,-0.0,0.00858322,0.0138518,0.999991,0.0,0.0,0.0042916,0.462481,-1.0,1,0,0,0,0,0,0
131678236,0.0,-0.0,0.00992902,0.0138518,0.999988,0.0,0.0,0.00496449,0.463592,-1.0,1,0,0,0,0,0,0
131781736,0.0,-0.0,0.011377,0.0152825,0.999984,0.0,0.0,0.00568846,0.462451,-1.0,1,0,0,0,0,0,0
131883418,0.0,-0.0,0.0129232,0.0136646,0.999979,0.0,0.0,0.00646156,0.463529,-1.0,1,0,0,0,0,0,0
131983166,0.0,-0.0,0.0143992,0.0172391,0.999974,0.0,0.0,0.00719954,0.462655,-1.0,1,0,0,0,0,0,0
132087095,0.0,-0.0,0.015901,0.0138586,0.999968,0.0,0.0,0.0079504,0.463299,-1.0,1,0,0,0,0,0,0
132187388,0.0,-0.0,0.0172915,0.013851,0.999963,0.0,0.0,0.00864564,0.463561,-1.0,1,0,0,0,0,0,0
132285842,0.0,-0.0,0.0186553,0.0138518,0.999956,0.0,0.0,0.00932749,0.462817,-1.0,1,0,0,0,0,0,0
132391101,0.0,-0.0,0.0206967,0.0270935,0.999946,0.0,0.0,0.0103482,0.463249,-1.0,1,0,0,0,0,0,0
132491735,0.0,-0.0,0.0233364,0.0266083,0.999932,0.0,0.0,0.0116679,0.463135,-1.0,1,0,0,0,0,0,0
132595770,0.0,-0.0,0.0255607,0.0134446,0.999918,0.0,0.0,0.01278,0.469715,-1.0,1,0,0,0,0,0,0
132695076,0.0,-0.0,0.0270796,0.0140929,0.999908,0.0,0.0,0.0135394,0.491997,-1.0,1,0,0,0,0,0,0
132795841,0.0,-0.0,0.0283281,0.00907153,0.9999,0.0,0.0,0.0141636,0.502405,-1.0,1,0,0,0,0,0,0
132899884,0.0,-0.0,0.0290296,0.00697212,0.999895,0.0,0.0,0.0145143,0.501983,-1.0,1,0,0,0,0,0,0
133000062,0.0,-0.0,0.0297236,0.0069266,0.99989,0.0,0.0,0.0148613,0.501973,-1.0,1,0,0,0,0,0,0
133100907,0.0,-0.0,0.0301525,0.00331157,0.999886,0.0,0.0,0.0150757,0.502487,-1.0,1,0,0,0,0,0,0
133203449,0.0,-0.0,0.0305312,0.00489047,0.999883,0.0,0.0,0.015265,0.502466,-1.0,1,0,0,0,0,0,0
133303123,0.0,-0.0,0.0312119,0.00689005,0.999878,0.0,0.0,0.0156053,0.501951,-1.0,1,0,0,0,0,0,0
133407069,0.0,-0.0,0.0319311,0.00692644,0.999873,0.0,0.0,0.0159649,0.501972,-1.0,1,0,0,0,0,0,0
133507898,0.0,-0.0,0.0325511,0.00353585,0.999868,0.0,0.0,0.0162748,0.502455,-1.0,1,0,0,0,0,0,0
133607242,0.0,-0.0,0.0328857,0.00349877,0.999865,0.0,0.0,0.0164421,0.50246,-1.0,1,0,0,0,0,0,0
133711635,0.0,-0.0,0.0334561,0.00872806,0.99986,0.0,0.0,0.0167273,0.502262,-1.0,1,0,0,0,0,0,0
