timestamp,rollspeed,pitchspeed,yawspeed,q[0],q[1],q[2],q[3],delta_q_reset[0],delta_q_reset[1],delta_q_reset[2],delta_q_reset[3],quat_reset_counter
121634825,0.0198763,0.00467891,-0.00225766,0.999944,-0.000748741,-0.000152638,0.0106032,1.0,0.0,0.0,0.0,0
121754751,0.00343388,-0.00847591,-0.0124251,0.999942,-0.000773571,-0.000213631,0.0107551,1.0,0.0,0.0,0.0,0
121853770,-0.016329,-0.0127071,0.000315755,0.999941,-0.000783628,-9.43245e-05,0.0108593,1.0,0.0,0.0,0.0,0
121957765,-0.00703255,0.0140485,-0.0043417,0.999941,-0.000753535,-6.94113e-06,0.0108409,1.0,0.0,0.0,0.0,0
122057753,-0.00276699,-0.00434024,0.000720559,0.999941,-0.000720429,-5.20388e-05,0.0108897,1.0,0.0,0.0,0.0,0
122157853,-0.000468977,-0.00776744,-0.00150549,0.999939,-0.000940052,-6.7847e-05,0.0109727,1.0,0.0,0.0,0.0,0
122261867,-0.00589661,0.000743691,-0.0117486,0.99994,-0.000920873,0.000163492,0.0108811,1.0,0.0,0.0,0.0,0
122362762,0.0159987,0.00515384,0.0179137,0.999942,-0.000817359,0.000144361,0.0107824,1.0,0.0,0.0,0.0,0
122461757,-0.0142046,-0.00733638,0.0140848,0.999941,-0.000661889,0.000186097,0.010795,1.0,0.0,0.0,0.0,0
122566742,0.0188212,0.0109549,0.081701,0.999925,-0.00022554,0.000173484,0.0122617,1.0,0.0,0.0,0.0,0
122666768,0.0249778,0.00889571,0.211998,0.999809,5.20549e-05,4.28557e-05,0.0195331,1.0,0.0,0.0,0.0,0
122766765,-0.00543425,-0.0183699,0.284771,0.999475,0.000212813,-0.000188275,0.0323903,1.0,0.0,0.0,0.0,0
122870746,-0.0309388,0.00339917,0.246974,0.998919,-4.70143e-06,-0.000202444,0.0464808,1.0,0.0,0.0,0.0,0
122970731,-0.0143199,0.00553336,0.213834,0.99833,-3.97708e-07,-0.000275678,0.0577648,1.0,0.0,0.0,0.0,0
123073798,-0.00671387,-0.0179337,0.150193,0.997773,0.000348832,-5.19061e-06,0.0667014,1.0,0.0,0.0,0.0,0
123174744,-0.0220413,-0.00866953,0.0957543,0.997365,0.000400831,0.000407969,0.0725407,1.0,0.0,0.0,0.0,0
123274854,0.0042958,-0.0460107,0.0610529,0.997093,0.00060884,0.000351929,0.0761935,1.0,0.0,0.0,0.0,0
123377743,-0.00548207,-0.0304828,0.0137994,0.996976,0.000155332,-0.000139757,0.0777081,1.0,0.0,0.0,0.0,0
123478894,-0.00598836,-0.0194575,-0.0105714,0.996993,3.97737e-05,-3.51321e-06,0.0774881,1.0,0.0,0.0,0.0,0
123581724,0.0387276,-0.0571573,-0.0206051,0.997075,9.79959e-05,0.00065003,0.0764321,1.0,0.0,0.0,0.0,0
123680658,0.0230323,-0.0201988,-0.0315652,0.997191,-0.000181701,0.000643675,0.074893,1.0,0.0,0.0,0.0,0
123784667,0.035651,-0.0167483,-0.0435115,0.997353,-0.000351217,0.000266904,0.0727151,1.0,0.0,0.0,0.0,0
123881890,0.0525231,-0.00301017,-0.0281184,0.997464,-0.000241833,0.000149824,0.0711688,1.0,0.0,0.0,0.0,0
123986814,0.0240316,-0.0254968,-0.0351272,0.997577,-0.000286476,-0.00016118,0.0695637,1.0,0.0,0.0,0.0,0
124086739,-0.00452965,0.0321854,-0.0158375,0.997656,-0.000693848,0.000205624,0.0684252,1.0,0.0,0.0,0.0,0
124189908,-0.000650396,0.0245583,-0.00364692,0.997706,-0.00055735,0.000276046,0.0676977,1.0,0.0,0.0,0.0,0
124289778,-0.00975926,0.01404,-0.00101001,0.997726,-0.000436793,0.000318007,0.0673952,1.0,0.0,0.0,0.0,0
124393762,-0.0125967,0.0109949,0.012268,0.997745,-8.80655e-05,0.000306773,0.0671218,1.0,0.0,0.0,0.0,0
124493736,0.0052972,0.0152708,0.0156426,0.997745,-8.32717e-05,0.000274088,0.0671214,1.0,0.0,0.0,0.0,0
124593744,0.0126812,0.0330077,-0.00775285,0.997735,5.23012e-05,0.000194146,0.0672647,1.0,0.0,0.0,0.0,0
124697742,-0.0174657,0.00944451,0.00555644,0.997715,-5.14934e-05,0.000121888,0.0675665,1.0,0.0,0.0,0.0,0
124797847,-0.034807,-0.0237849,0.00975479,0.99769,-0.000224318,8.42486e-05,0.067926,1.0,0.0,0.0,0.0,0
124897916,0.00451975,-0.0207858,-0.00239977,0.997679,-0.000133641,-0.000285302,0.0680904,1.0,0.0,0.0,0.0,0
125002727,0.0086528,-0.0160117,0.0110738,0.997654,-4.50031e-05,-0.000219027,0.0684587,1.0,0.0,0.0,0.0,0
125101765,-0.00265436,-0.00136062,0.015893,0.99764,-2.38638e-05,6.61166e-06,0.0686583,1.0,0.0,0.0,0.0,0
125205730,-0.0125921,-0.0512332,0.011737,0.997622,-0.00018155,-0.000532183,0.0689225,1.0,0.0,0.0,0.0,0
125306803,0.0155521,0.0334531,-0.00832573,0.997619,-0.000274373,-0.000773331,0.0689684,1.0,0.0,0.0,0.0,0
125405803,0.0341966,0.0315575,0.00542404,0.997614,-0.000178711,-0.000595989,0.0690364,1.0,0.0,0.0,0.0,0
125505798,-0.00335464,0.0178533,-0.0104545,0.997614,-0.000357751,-0.000438504,0.0690353,1.0,0.0,0.0,0.0,0
125610730,0.00854017,0.0107856,0.000968693,0.997614,-8.20231e-05,-0.000117007,0.069042,1.0,0.0,0.0,0.0,0
125708547,0.0660741,0.00113485,-0.00260692,0.997626,-0.000733233,-0.000111913,0.0688685,1.0,0.0,0.0,0.0,0
125812636,0.0228155,-0.00663855,0.0134783,0.997641,-0.000525158,-0.00023945,0.0686388,1.0,0.0,0.0,0.0,0
125913727,0.0127706,0.0132063,0.0136452,0.997647,-0.000610469,-0.000222933,0.0685571,1.0,0.0,0.0,0.0,0
126013770,-0.0131141,-0.0253011,0.00282355,0.997646,-0.000278866,-0.00018095,0.0685677,1.0,0.0,0.0,0.0,0
126118824,-0.00808985,0.043836,0.00771458,0.997622,1.3996e-06,0.000216311,0.068919,1.0,0.0,0.0,0.0,0
126218788,-0.00736546,0.018974,-0.00939439,0.997621,0.000390043,0.000399456,0.0689333,1.0,0.0,0.0,0.0,0
126321870,-0.017514,0.00160041,-0.00888805,0.997617,0.00047234,8.76161e-05,0.0689999,1.0,0.0,0.0,0.0,0
126421768,-0.00795432,0.0167966,-0.00127361,0.997613,0.000330524,3.98123e-05,0.0690571,1.0,0.0,0.0,0.0,0
126521735,-0.00650848,-0.00989757,-0.00836999,0.997617,0.000114633,-2.03267e-05,0.0689916,1.0,0.0,0.0,0.0,0
126626824,0.0263683,-0.00219489,0.0057293,0.997623,0.000254978,-0.000191957,0.0689031,1.0,0.0,0.0,0.0,0
126725745,0.0306418,-0.00615638,-0.00770743,0.997621,0.000273675,-0.000117381,0.0689321,1.0,0.0,0.0,0.0,0
126829820,0.00879003,0.00670004,0.00015965,0.997611,0.000291512,-2.1337e-05,0.0690882,1.0,0.0,0.0,0.0,0
126929730,0.0122311,0.00373927,0.00301206,0.997596,0.00024167,-3.59893e-05,0.0692949,1.0,0.0,0.0,0.0,0
127029741,0.00835796,0.0182923,-0.00899163,0.997606,0.000210763,-0.000133991,0.0691585,1.0,0.0,0.0,0.0,0
127133754,0.0113449,0.0225398,0.00495621,0.997615,0.000293821,3.16896e-06,0.0690268,1.0,0.0,0.0,0.0,0
127233741,0.00709173,-0.00297607,-0.0118227,0.997625,0.000214808,5.63438e-05,0.0688721,1.0,0.0,0.0,0.0,0
127333761,0.0112294,-0.018862,-0.00280902,0.997618,6.4268e-05,0.00016088,0.0689742,1.0,0.0,0.0,0.0,0
127437732,0.00950207,-0.0147474,-0.0128003,0.997623,0.000278778,0.000351752,0.0689138,1.0,0.0,0.0,0.0,0
127537762,-0.0156339,-0.0148987,0.00208031,0.997624,0.00033684,0.000152338,0.0688995,1.0,0.0,0.0,0.0,0
127641740,0.0138728,-0.00751592,0.0134625,0.997619,0.000134797,5.84917e-05,0.0689719,1.0,0.0,0.0,0.0,0
127741841,0.0076251,0.00519537,-0.00468582,0.997616,8.03905e-05,4.94857e-05,0.0690116,1.0,0.0,0.0,0.0,0
127840458,-0.0110679,-0.00890674,-0.00536021,0.997622,-5.03146e-05,-6.35639e-05,0.068916,1.0,0.0,0.0,0.0,0
127944676,0.00116715,0.0130167,-0.00404393,0.997624,6.31109e-05,-0.000480206,0.0688929,1.0,0.0,0.0,0.0,0
128045743,-0.0452172,0.0251979,0.0135373,0.99762,-0.000164151,-6.43989e-05,0.0689544,1.0,0.0,0.0,0.0,0
128145751,0.0136508,0.00937252,-0.0102449,0.997622,0.000322657,0.000233123,0.0689179,1.0,0.0,0.0,0.0,0
128249760,0.0442244,0.0117799,-0.0129207,0.997618,0.000460838,-1.25271e-05,0.0689824,1.0,0.0,0.0,0.0,0
128349787,0.00213613,0.0114468,0.00324336,0.997622,0.000335637,-3.69748e-05,0.0689227,1.0,0.0,0.0,0.0,0
128453747,-0.0163719,0.00715001,0.00312645,0.997621,0.000232799,-9.22682e-05,0.0689304,1.0,0.0,0.0,0.0,0
128553746,0.017554,-0.001958,0.0188071,0.997619,0.000528581,-0.000347453,0.0689686,1.0,0.0,0.0,0.0,0
128653775,0.0385374,-0.0252092,0.00540461,0.997615,0.000554262,-0.000586334,0.0690245,1.0,0.0,0.0,0.0,0
128757881,0.0232851,-0.0100269,-0.00756346,0.997607,0.000444711,-0.000287352,0.0691407,1.0,0.0,0.0,0.0,0
128857826,0.036013,0.0156204,-0.0164312,0.997609,9.56811e-05,-1.45159e-05,0.0691139,1.0,0.0,0.0,0.0,0
128957742,0.0595072,0.000713032,-0.0129072,0.997604,0.000623815,0.000194432,0.0691811,1.0,0.0,0.0,0.0,0
129061769,0.0739772,0.0278674,0.0152681,0.997595,0.000577229,0.000236575,0.0693124,1.0,0.0,0.0,0.0,0
129161737,0.00576829,-0.00637123,-3.10818e-05,0.997599,0.000505712,0.000296155,0.0692499,1.0,0.0,0.0,0.0,0
129265826,-0.0209975,-0.0135066,0.0170987,0.997601,0.000291521,0.000281618,0.0692267,1.0,0.0,0.0,0.0,0
129365747,-0.0161472,-0.0106761,0.00350577,0.997609,0.000119534,0.000408036,0.0691149,1.0,0.0,0.0,0.0,0
129465747,-0.00694351,-0.0297606,-0.000805563,0.997615,-0.000122986,0.000198503,0.0690301,1.0,0.0,0.0,0.0,0
129569786,-0.0128187,-0.0229609,0.0107585,0.997616,1.79852e-05,-0.000316472,0.0690123,1.0,0.0,0.0,0.0,0
129669733,-0.00203752,0.00810575,-0.00381812,0.997616,8.70028e-05,-0.000509784,0.0690048,1.0,0.0,0.0,0.0,0
129769760,0.00472092,-0.00217375,-0.0052544,0.997614,6.46212e-05,-1.52171e-05,0.069045,1.0,0.0,0.0,0.0,0
129873786,-0.00537798,0.000827016,-0.0137346,0.997617,-4.64012e-05,7.08087e-05,0.0689885,1.0,0.0,0.0,0.0,0
129972282,0.00327134,-0.0010327,0.00638883,0.997607,-9.40812e-05,0.000245591,0.0691383,1.0,0.0,0.0,0.0,0
130076258,-0.0233927,-0.0186778,-0.00212009,0.997607,5.91876e-05,0.000143971,0.0691378,1.0,0.0,0.0,0.0,0
130177760,-0.00670931,-0.00796428,0.0210212,0.9976,0.000452597,0.000514905,0.0692381,1.0,0.0,0.0,0.0,0
130277801,-0.00213249,0.00519027,-0.00169464,0.997594,0.000312604,0.000349595,0.0693311,1.0,0.0,0.0,0.0,0
130381783,-0.0051383,-0.00962365,-0.00162521,0.997578,0.000165365,-2.40563e-05,0.0695529,1.0,0.0,0.0,0.0,0
130481754,-0.00363593,-0.0111574,0.00112164,0.997597,0.000120378,7.87201e-05,0.0692768,1.0,0.0,0.0,0.0,0
130581919,0.00337134,0.00320918,-0.0102788,0.997598,0.000119667,9.64694e-05,0.0692759,1.0,0.0,0.0,0.0,0
130685900,-0.00680919,-0.00460927,-0.00141958,0.997601,5.48357e-05,4.46587e-05,0.0692317,1.0,0.0,0.0,0.0,0
130785741,0.0171086,-0.345383,-0.0617498,0.997626,0.00110455,-0.00368044,0.0687646,1.0,0.0,0.0,0.0,0
130889727,0.00022583,-0.216945,-0.183644,0.997921,0.00258856,-0.0162717,0.0623166,1.0,0.0,0.0,0.0,0
130989760,-0.00415852,-0.0274445,-0.269278,0.998479,0.00268424,-0.0199818,0.0513189,1.0,0.0,0.0,0.0,0
131089813,-0.0151081,0.0892169,-0.249405,0.999093,0.00249101,-0.0183091,0.0383703,1.0,0.0,0.0,0.0,0
131193738,-0.00720654,0.0829872,-0.254546,0.999554,0.00253433,-0.0161687,0.025001,1.0,0.0,0.0,0.0,0
131293882,-0.00876658,0.0930754,-0.213745,0.999806,0.00274819,-0.0137744,0.0137811,1.0,0.0,0.0,0.0,0
131393739,0.0242294,-0.00498913,-0.162176,0.999913,0.0026676,-0.0118914,0.0051183,1.0,0.0,0.0,0.0,0
131497781,0.00986268,-0.0174835,-0.100973,0.999931,0.00248159,-0.0113786,-0.00154842,1.0,0.0,0.0,0.0,0
131597750,-0.0378138,-0.00776345,-0.0651629,0.999934,0.00217619,-0.0098394,-0.00553448,1.0,0.0,0.0,0.0,0
131701852,-0.00500947,0.00874304,-0.00817234,0.999937,0.00159109,-0.00825569,-0.00751767,1.0,0.0,0.0,0.0,0
131801744,-0.0413733,0.0344175,-0.00683241,0.999945,0.00138501,-0.00668146,-0.00791842,1.0,0.0,0.0,0.0,0
131901738,0.0004662,0.0321886,0.0390429,0.99996,0.00117751,-0.00536919,-0.00710979,1.0,0.0,0.0,0.0,0
132005773,-0.0575262,0.0262581,0.0431826,0.999972,0.00106794,-0.00470299,-0.00570485,1.0,0.0,0.0,0.0,0
132104199,-0.0138544,0.0255204,0.0351004,0.999984,0.00076097,-0.00378537,-0.004193,1.0,0.0,0.0,0.0,0
132208739,-0.030712,-0.00152087,0.0293102,0.999992,0.000876877,-0.002995,-0.00251058,1.0,0.0,0.0,0.0,0
132309779,-0.035905,0.00787674,0.0295151,0.999997,0.000543888,-0.00216995,-0.00112952,1.0,0.0,0.0,0.0,0
132409770,-0.0139882,0.00702133,-0.00696273,0.999999,0.000209952,-0.00120682,0.000153614,1.0,0.0,0.0,0.0,0
132513801,0.024256,0.0197461,0.0111755,0.999999,-0.000250592,-0.000604951,0.00106134,1.0,0.0,0.0,0.0,0
132613770,-0.0350281,-0.00350187,0.0199373,0.999998,-0.000764569,-0.000307497,0.00158136,1.0,0.0,0.0,0.0,0
132713741,0.0139802,-0.0213271,0.00560471,0.999998,-0.000789412,7.60159e-05,0.00185453,1.0,0.0,0.0,0.0,0
132817786,0.00469938,-0.0195335,-0.0104716,0.999998,-0.000578695,-7.08979e-05,0.00216734,1.0,0.0,0.0,0.0,0
132917747,0.00104097,0.00835308,-0.00503523,0.999997,-8.56335e-05,0.000465587,0.00243948,1.0,0.0,0.0,0.0,0
133017782,-0.0102076,0.00989989,-0.0187336,0.999997,0.000136617,0.000396531,0.00240186,1.0,0.0,0.0,0.0,0
133121742,-0.0133812,0.00575353,0.0115543,0.999997,4.82874e-05,0.000179395,0.00242496,1.0,0.0,0.0,0.0,0
133221771,-0.0128992,0.00690596,-0.00663269,0.999997,-0.000162238,9.96355e-05,0.00229236,1.0,0.0,0.0,0.0,0
133325783,0.00128397,0.0274086,0.00721227,0.999998,-0.000234614,0.000163136,0.0021145,1.0,0.0,0.0,0.0,0
133425739,-0.00323897,0.0218107,-0.000423576,0.999998,-0.000255886,-1.47636e-05,0.00182876,1.0,0.0,0.0,0.0,0
133525771,-0.00688565,-0.0235518,0.00398229,0.999998,-0.000103727,-0.00027494,0.00185058,1.0,0.0,0.0,0.0,0
133629738,0.0051651,0.00224187,0.0121151,0.999998,-6.97252e-05,-0.000382311,0.00201255,1.0,0.0,0.0,0.0,0
133729759,0.0115244,-0.00212434,-0.00804464,0.999998,-5.8265e-05,-0.000149334,0.00221471,1.0,0.0,0.0,0.0,0
133829785,0.00112097,-0.0142638,-0.00048748,0.999998,-0.000156954,3.45765e-05,0.00211656,1.0,0.0,0.0,0.0,0
133933787,-0.0086668,0.00912216,-0.0279969,0.999998,-0.000176329,-0.000220615,0.00212144,1.0,0.0,0.0,0.0,0
134034852,-0.0167953,-0.0229712,-0.0062383,0.999998,-0.000241601,-0.000301978,0.00205451,1.0,0.0,0.0,0.0,0
134137821,-0.0427019,0.000193473,-0.0130166,0.999998,-0.000326621,-0.000110011,0.00195876,1.0,0.0,0.0,0.0,0
134236339,0.00571173,0.0215507,-0.011655,0.999998,0.000212979,9.8019e-05,0.00175419,1.0,0.0,0.0,0.0,0
134340274,0.0134105,-0.00857476,-0.00460158,0.999999,0.000356893,0.000135849,0.00163044,1.0,0.0,0.0,0.0,0
134441771,-0.0105534,-0.00707236,0.022854,0.999999,4.49823e-05,4.16071e-05,0.00173669,1.0,0.0,0.0,0.0,0
134541738,0.00132412,-0.00387161,-0.0047043,0.999999,-0.000105665,-8.87689e-05,0.00177075,1.0,0.0,0.0,0.0,0
134641761,-0.0209559,0.0106965,0.000473386,0.999998,-0.000210986,-0.000186839,0.0018369,1.0,0.0,0.0,0.0,0
134745750,-0.0119836,-0.00875118,0.00412894,0.999998,-0.000136723,-0.000239311,0.00185766,1.0,0.0,0.0,0.0,0
134845767,-0.0182147,-0.00490919,0.0106275,0.999998,-0.000156991,-0.000406982,0.00188719,1.0,0.0,0.0,0.0,0
134949745,0.0120505,-0.0102825,-0.00953384,0.999998,0.000416495,-0.000941093,0.00183233,1.0,0.0,0.0,0.0,0
135049775,0.0201912,-0.047718,0.00194697,0.999998,0.000281498,-0.00057335,0.001879,1.0,0.0,0.0,0.0,0
135149754,0.060225,-0.0728856,0.00385091,0.999998,-0.000615224,0.000531669,0.00172086,1.0,0.0,0.0,0.0,0
135253903,0.0126223,-0.0295698,-0.0170378,0.999999,-0.000442306,0.000202507,0.00162199,1.0,0.0,0.0,0.0,0
135353744,-0.0203658,0.000130111,-0.0124281,0.999999,-4.17254e-05,-0.000134909,0.00142083,1.0,0.0,0.0,0.0,0
135453747,-0.0173218,0.00196688,-0.0158527,0.999999,5.04666e-05,0.000110927,0.00148054,1.0,0.0,0.0,0.0,0
135557754,-0.00867152,0.00580525,0.0112109,0.999999,-0.000223422,3.06135e-06,0.00150649,1.0,0.0,0.0,0.0,0
135657779,-0.00859512,-0.0230877,0.000950383,0.999999,-0.000127579,-0.000204211,0.00140586,1.0,0.0,0.0,0.0,0
135761755,-0.0107151,0.0140977,0.0238285,0.999999,0.000262446,-3.63128e-05,0.00151333,1.0,0.0,0.0,0.0,0
135861727,0.015236,-0.00579832,-0.008056,0.999999,0.000195659,-3.04815e-05,0.00149834,1.0,0.0,0.0,0.0,0
135961780,-0.0199192,0.035433,0.00288798,0.999999,0.000172542,-0.00016663,0.00157785,1.0,0.0,0.0,0.0,0
136065754,0.0240142,0.0616558,0.00819734,0.999999,-6.19983e-05,-0.000408141,0.00144595,1.0,0.0,0.0,0.0,0
136165780,0.0170579,0.0361779,-0.00424492,0.999999,-9.88554e-05,-0.000380606,0.00145285,1.0,0.0,0.0,0.0,0
136264167,-0.0138969,0.0325652,0.0232702,0.999999,-0.000196977,-0.000256833,0.00159286,1.0,0.0,0.0,0.0,0
136368251,-0.0164241,0.00314422,0.00326748,0.999999,-1.07146e-05,-1.6753e-05,0.00177231,1.0,0.0,0.0,0.0,0
136472100,-0.022334,0.00947029,0.015959,0.999998,-2.36514e-06,5.63993e-06,0.00193057,1.0,0.0,0.0,0.0,0
136573769,-0.0163563,0.00929711,0.00844523,0.999999,-1.96664e-05,-0.000160005,0.00169991,1.0,0.0,0.0,0.0,0
136673793,-0.00137453,0.0107562,-0.0139628,0.999999,-0.000113757,-0.000383438,0.00167311,1.0,0.0,0.0,0.0,0
136773812,-0.0101263,0.0103366,0.0208064,0.999999,0.000113041,-9.35017e-05,0.00167174,1.0,0.0,0.0,0.0,0
136877740,-0.000701756,-0.00364487,-0.00964311,0.999999,-1.09751e-05,4.03567e-05,0.00164338,1.0,0.0,0.0,0.0,0
136977769,5.09352e-05,0.00438243,-0.0168464,0.999999,-0.000102171,0.00016532,0.0015267,1.0,0.0,0.0,0.0,0
137077789,0.00125489,-0.0230286,-0.000476162,0.999999,0.000320481,0.000113797,0.00149788,1.0,0.0,0.0,0.0,0
137181746,-0.0105356,-0.00622258,0.0190525,0.999999,0.000147087,-2.82526e-05,0.0014889,1.0,0.0,0.0,0.0,0
137281770,-0.00542226,0.0053992,-0.00052906,0.999999,9.54423e-05,0.000237613,0.00146099,1.0,0.0,0.0,0.0,0
137385862,-0.0298169,-0.0100388,-0.0109866,0.999999,-1.2149e-05,-8.83867e-06,0.00149849,1.0,0.0,0.0,0.0,0
137485776,-0.00721825,0.00686686,0.00549021,0.999999,-8.35569e-05,0.000156663,0.00165879,1.0,0.0,0.0,0.0,0
137585768,0.000738729,0.00522802,0.00433404,0.999999,-4.13441e-05,0.000165446,0.00157354,1.0,0.0,0.0,0.0,0
137689780,-0.00957073,0.0179577,-0.000638843,0.999999,-0.000233502,0.000324344,0.0016737,1.0,0.0,0.0,0.0,0
137789764,0.00585418,-0.00508493,-0.00281701,0.999999,-8.40396e-05,0.000235893,0.0015729,1.0,0.0,0.0,0.0,0
137889767,0.0296165,-0.0308556,-0.0104071,0.999999,0.000124841,-6.89215e-05,0.00171839,1.0,0.0,0.0,0.0,0
137993748,0.0476231,-0.0249869,-0.0213102,0.999999,8.55688e-05,0.000190194,0.00155738,1.0,0.0,0.0,0.0,0
138093769,-0.0136189,-0.0117933,0.0159906,0.999999,0.000127612,4.36017e-05,0.0017228,1.0,0.0,0.0,0.0,0
138197739,-0.0284598,0.0210999,0.000295424,0.999999,-0.000168408,0.000296932,0.00165497,1.0,0.0,0.0,0.0,0
138297810,-0.0533705,0.0368973,0.00239048,0.999999,0.00059882,-0.00032544,0.00160579,1.0,0.0,0.0,0.0,0
138396165,-0.018316,0.0611255,0.0200195,0.999998,0.00076093,-0.000779363,0.00153818,1.0,0.0,0.0,0.0,0
138500455,0.0188206,0.0526879,-0.00138182,0.999998,0.000101927,-0.00124788,0.00151138,1.0,0.0,0.0,0.0,0
138601781,0.00139777,0.0423339,0.0031491,0.999997,-0.000574216,-0.00142032,0.00160755,1.0,0.0,0.0,0.0,0
138701806,-0.0203192,-0.0474219,0.00629311,0.999997,-0.000537682,-0.0014327,0.0016358,1.0,0.0,0.0,0.0,0
138805775,0.000325154,-0.0403259,0.00773809,0.999999,-0.000249915,-0.000472364,0.00157338,1.0,0.0,0.0,0.0,0
138905740,-0.000152492,-0.0144921,-0.0084658,0.999999,0.000146902,0.000357493,0.00164161,1.0,0.0,0.0,0.0,0
139009768,-0.00576699,0.0334693,0.00630866,0.999998,0.000280975,0.000822554,0.00161593,1.0,0.0,0.0,0.0,0
139109771,-0.000404342,-0.0195443,-0.00863502,0.999999,-5.54629e-05,0.000322621,0.00162285,1.0,0.0,0.0,0.0,0
139209737,-0.0192068,-0.0267586,-0.00704129,0.999999,-1.95017e-05,5.59201e-05,0.00162522,1.0,0.0,0.0,0.0,0
139313818,-0.0227992,-0.0166504,-0.0123579,0.999998,-0.000349487,-4.96127e-05,0.00173448,1.0,0.0,0.0,0.0,0
139414871,-0.0243748,-0.0127379,0.00587291,0.999998,-0.000456039,-9.14751e-05,0.00191527,1.0,0.0,0.0,0.0,0
139513764,0.0093564,0.0227826,0.0143995,0.999998,-0.000429014,-9.86262e-05,0.00191504,1.0,0.0,0.0,0.0,0
139617752,-0.00221238,0.00576639,-0.00577125,0.999999,-0.000297318,-6.14734e-06,0.00174157,1.0,0.0,0.0,0.0,0
139717770,0.0340385,0.0241412,0.0114408,0.999999,0.000213117,0.000247769,0.00164311,1.0,0.0,0.0,0.0,0
139821819,0.00150292,0.00643863,-0.00467766,0.999998,0.000478661,0.000159602,0.00172662,1.0,0.0,0.0,0.0,0
139921792,0.00655311,-0.0248668,-0.00560265,0.999998,0.000138391,0.000564013,0.00177233,1.0,0.0,0.0,0.0,0
140021723,0.0140782,-0.0483589,0.00130864,0.999998,-0.000332388,0.0010165,0.00169233,1.0,0.0,0.0,0.0,0
140125778,0.0011849,0.000659446,-0.0115617,0.999999,-0.00034605,0.000498507,0.00149522,1.0,0.0,0.0,0.0,0
140225726,0.011718,0.00805473,0.00883704,0.999999,5.70597e-05,0.000248546,0.00156803,1.0,0.0,0.0,0.0,0
140325737,-0.0475771,0.00898783,0.0101365,0.999999,0.000156089,-0.000487572,0.00152637,1.0,0.0,0.0,0.0,0
140429743,-0.0416623,0.015374,-0.00504522,0.999999,0.000665894,-0.000477935,0.00129987,1.0,0.0,0.0,0.0,0
140528039,-0.0379117,0.0146994,0.00856749,0.999999,0.000389014,-0.000166231,0.00145293,1.0,0.0,0.0,0.0,0
140631985,0.00117801,-0.00328355,0.00586424,0.999999,0.000332329,-7.3108e-05,0.00145427,1.0,0.0,0.0,0.0,0
140733743,0.0140504,-0.00208891,0.00401854,0.999999,-0.00012335,0.000151223,0.00152274,1.0,0.0,0.0,0.0,0
140833785,-0.0105332,0.0414283,0.00527823,0.999999,-0.000240187,0.000165428,0.00161753,1.0,0.0,0.0,0.0,0
140937738,0.00446507,0.00401675,-0.00521691,0.999999,-0.000355312,-0.000175842,0.00151756,1.0,0.0,0.0,0.0,0
141037772,-0.0287909,-0.0275724,0.00920372,0.999999,-0.00033749,-0.000436714,0.00163123,1.0,0.0,0.0,0.0,0
141137797,-0.00353955,-0.0192908,0.0188085,0.999999,-0.000379183,-0.000255776,0.00163943,1.0,0.0,0.0,0.0,0
141241877,-0.0239383,0.0125065,0.000678814,0.999999,-8.95516e-05,-0.000317509,0.00148828,1.0,0.0,0.0,0.0,0
141341739,0.000359262,-0.00982499,-0.0127965,0.999999,-3.36136e-05,4.33282e-05,0.00142918,1.0,0.0,0.0,0.0,0
141445785,-0.0133122,0.0289028,-0.0115011,0.999999,7.21855e-05,4.33647e-05,0.0014595,1.0,0.0,0.0,0.0,0
141545744,0.000322895,0.0230572,-0.0134756,0.999999,5.49178e-05,9.19015e-05,0.00142114,1.0,0.0,0.0,0.0,0
141645730,0.00609593,0.000825634,-0.00279503,0.999999,-3.4767e-05,-0.000143014,0.00158047,1.0,0.0,0.0,0.0,0
141749825,0.000791131,-0.01563,-0.0146884,0.999999,0.000254841,-0.000299387,0.00153405,1.0,0.0,0.0,0.0,0
141849758,-0.0018042,-0.011533,0.0126294,0.999999,0.000142556,-0.000370338,0.0014479,1.0,0.0,0.0,0.0,0
141949790,0.0225158,-0.00455677,0.00421837,0.999999,2.11991e-05,-0.000230925,0.00135774,1.0,0.0,0.0,0.0,0
142053780,-0.0210155,-0.00741082,-0.00169486,0.999999,0.000235413,-1.48909e-05,0.00137584,1.0,0.0,0.0,0.0,0
142153782,0.040456,-0.00626915,-0.0151775,0.999999,1.44246e-05,-6.56115e-05,0.0013562,1.0,0.0,0.0,0.0,0
142257750,0.0637832,0.0164654,0.00862095,0.999999,-8.67501e-05,-0.000109767,0.00139516,1.0,0.0,0.0,0.0,0
142357773,0.130679,0.128434,0.00372226,0.999998,-0.00130788,-0.00112093,0.00140504,1.0,0.0,0.0,0.0,0
142457819,0.037046,0.0173538,0.00886938,0.999998,-0.0010392,-0.000718737,0.00161202,1.0,0.0,0.0,0.0,0
142561779,-0.0865691,-0.0301558,0.000692829,0.999999,-0.000390848,-9.85712e-05,0.00170001,1.0,0.0,0.0,0.0,0
142660097,-0.0988465,-0.0515066,0.0160617,0.999998,0.000319673,0.000442155,0.00178074,1.0,0.0,0.0,0.0,0
142763829,-0.0793773,-0.0731804,0.00245932,0.999998,0.000819717,0.000614701,0.00180733,1.0,0.0,0.0,0.0,0
142865748,0.000328963,-0.0439754,0.00413413,0.999996,0.00191628,0.00134657,0.00168157,1.0,0.0,0.0,0.0,0
142964744,0.0210426,0.0207632,-0.00499,0.999996,0.00155797,0.00135821,0.00177055,1.0,0.0,0.0,0.0,0
143069748,-0.00792316,-0.0222107,-0.00516432,0.999997,0.00115467,0.00106477,0.00166439,1.0,0.0,0.0,0.0,0
143169734,-0.0245834,-0.00721258,0.00145885,0.999998,0.000592971,0.000626996,0.00175228,1.0,0.0,0.0,0.0,0
143272838,0.00671886,0.00153792,-0.00239234,0.999998,0.000410389,0.00101584,0.0015752,1.0,0.0,0.0,0.0,0
143372724,0.00204388,0.0609488,0.00942829,0.999998,0.000286669,0.0010171,0.0016735,1.0,0.0,0.0,0.0,0
143472741,0.0301154,0.0633928,-0.0130941,0.999999,0.000172853,0.000194152,0.00160726,1.0,0.0,0.0,0.0,0
143576768,0.0285729,0.015498,0.0120534,0.999999,0.000110314,0.000400068,0.00163492,1.0,0.0,0.0,0.0,0
143677778,0.0402135,0.0317487,-0.000657881,0.999999,0.000207268,0.000268224,0.00157453,1.0,0.0,0.0,0.0,0
143777841,0.013477,0.00988129,0.00545061,0.999999,0.000254402,0.000269424,0.00148416,1.0,0.0,0.0,0.0,0
143880731,-0.0110352,0.0381137,-0.00474629,0.999999,-0.000123194,0.000166715,0.00148556,1.0,0.0,0.0,0.0,0
143980739,-0.0106717,-0.000299988,-0.0188524,0.999999,4.00164e-05,0.000365834,0.00157949,1.0,0.0,0.0,0.0,0
144080828,0.0230448,-0.0133884,0.0202305,0.999999,-5.45684e-05,0.00023919,0.0016332,1.0,0.0,0.0,0.0,0
144185848,-0.00464158,-0.0176704,-0.00431298,0.999999,-0.000185335,0.000137712,0.00155312,1.0,0.0,0.0,0.0,0
144285810,0.00194776,0.0126586,0.00982024,0.999999,-0.000442659,-4.1373e-05,0.00155901,1.0,0.0,0.0,0.0,0
144385823,0.0161893,-0.00681987,0.00650223,0.999999,-0.000343952,-1.07919e-05,0.00146691,1.0,0.0,0.0,0.0,0
144489730,-0.00496362,-0.0266624,0.0311008,0.999999,-0.000385543,-0.000232146,0.00135757,1.0,0.0,0.0,0.0,0
144589771,-0.0276281,-0.0213051,0.00715615,0.999999,-0.000129607,-2.42938e-05,0.0014338,1.0,0.0,0.0,0.0,0
144693737,-0.0276168,-0.0172974,0.0110589,0.999999,-0.000201931,-0.000179133,0.00127664,1.0,0.0,0.0,0.0,0
144791840,-0.00164244,0.00477191,0.000938215,0.999999,4.68693e-05,-0.000276244,0.00130842,1.0,0.0,0.0,0.0,0
144895873,0.0163304,-0.00218515,0.00891313,0.999999,-6.05369e-05,-0.000104498,0.0013369,1.0,0.0,0.0,0.0,0
144996874,-0.010945,-0.0121982,0.0190103,0.999999,-0.000240966,0.000194977,0.00135404,1.0,0.0,0.0,0.0,0
145096727,-0.0344463,0.019858,-0.0041416,0.999999,-7.69487e-05,0.000218736,0.0013294,1.0,0.0,0.0,0.0,0
145197738,-0.0165635,0.00713068,0.0152356,0.999999,1.94779e-05,0.000149493,0.00151927,1.0,0.0,0.0,0.0,0
145301750,-0.000812187,-0.0205066,0.0111678,0.999999,1.86914e-05,0.000150733,0.00154144,1.0,0.0,0.0,0.0,0
145401830,0.0165391,0.0124019,-0.000330508,0.999999,-3.33518e-05,7.19518e-05,0.00158992,1.0,0.0,0.0,0.0,0
145504739,0.0406602,0.0133048,-0.00258261,0.999999,0.00023139,-0.000125928,0.00163061,1.0,0.0,0.0,0.0,0
145604739,0.0416523,0.0121457,-0.00100781,0.999999,0.00012053,-5.13939e-05,0.00162344,1.0,0.0,0.0,0.0,0
145708723,0.0169611,-0.00548334,-0.00207903,0.999999,-6.34645e-05,-6.44415e-05,0.00165642,1.0,0.0,0.0,0.0,0
145808738,0.0155999,-0.00289686,-0.0081539,0.999999,-0.000564477,-8.95648e-05,0.00160246,1.0,0.0,0.0,0.0,0
145908812,0.00671514,-0.00495412,0.0129794,0.999999,-0.000565382,-0.000287251,0.00158607,1.0,0.0,0.0,0.0,0
146008770,0.0205445,-0.00777647,-0.0141039,0.999999,-0.000273842,-0.00039497,0.00138969,1.0,0.0,0.0,0.0,0
146112736,0.0151082,-0.00905081,-0.010679,0.999999,-0.000125589,-0.000239886,0.00144279,1.0,0.0,0.0,0.0,0
146213791,0.00686575,-0.016332,0.00724004,0.999999,-0.000132567,-7.2825e-05,0.00115477,1.0,0.0,0.0,0.0,0
146317844,-0.0065335,-0.0197144,-0.0159636,0.999999,-0.000143274,6.92813e-06,0.00119889,1.0,0.0,0.0,0.0,0
146416746,-0.0219607,0.00313178,0.00479801,0.999999,0.00010452,0.000135387,0.00119691,1.0,0.0,0.0,0.0,0
146517745,0.00314189,-0.00934659,-0.0039193,1.0,-1.20722e-05,-8.01632e-05,0.00107051,1.0,0.0,0.0,0.0,0
146620768,0.0288572,-0.0361905,-0.0144031,0.999999,-0.000102155,-0.000291377,0.00122255,1.0,0.0,0.0,0.0,0
146722003,0.0401083,-0.0167823,0.011245,0.999999,0.00015134,-0.000421944,0.00118573,1.0,0.0,0.0,0.0,0
146823725,-0.0168114,0.0260178,0.0122898,0.999999,0.000236735,-0.000467554,0.00125202,1.0,0.0,0.0,0.0,0
146924737,0.00582293,-0.00413903,-0.00225315,0.999999,0.000367377,-0.000648548,0.00138678,1.0,0.0,0.0,0.0,0
147024734,0.00161196,0.00366278,-0.0127832,0.999999,0.000258388,-0.000700805,0.00161936,1.0,0.0,0.0,0.0,0
147128740,-0.0348602,0.00982928,0.00930863,0.999999,9.05598e-05,-0.00066749,0.00159768,1.0,0.0,0.0,0.0,0
147228736,0.0238652,-0.0173384,-0.00789,0.999998,-9.25827e-05,-0.000299174,0.00180667,1.0,0.0,0.0,0.0,0
147332739,-0.00110046,0.00583473,0.0106538,0.999999,-0.000161458,-2.5339e-05,0.00171348,1.0,0.0,0.0,0.0,0
147432739,-0.0149741,-0.00537493,0.00487169,0.999999,-0.000200274,0.000106139,0.00169653,1.0,0.0,0.0,0.0,0
147532749,-0.0133638,0.0138596,-0.00121406,0.999999,-1.9292e-05,9.34058e-05,0.00155549,1.0,0.0,0.0,0.0,0
147632747,0.00851607,-0.0196368,-0.0188515,0.999999,-9.69518e-05,0.000190429,0.00143456,1.0,0.0,0.0,0.0,0
147736854,-0.015733,-0.00958902,0.00380071,0.999999,-0.000134939,0.00040057,0.00140184,1.0,0.0,0.0,0.0,0
147835682,-0.00962638,0.0401378,0.0052563,0.999999,2.14118e-05,0.00038848,0.00135441,1.0,0.0,0.0,0.0,0
147940742,-0.0368197,0.0087478,-0.0019695,0.999999,-0.000263451,0.000125783,0.00135339,1.0,0.0,0.0,0.0,0
148040741,0.0103811,0.00260244,-0.0053036,0.999999,-0.000161553,-1.77016e-05,0.00145506,1.0,0.0,0.0,0.0,0
148144792,-0.0293778,-0.015877,0.00311698,0.999999,-0.000154388,-9.46271e-05,0.00156894,1.0,0.0,0.0,0.0,0
148244747,0.00584807,-0.000744422,-0.00556179,0.999999,-0.000183792,-0.000133762,0.00165593,1.0,0.0,0.0,0.0,0
148344826,-0.0104956,0.00432672,0.00446559,0.999999,-5.05598e-05,0.000102516,0.00165656,1.0,0.0,0.0,0.0,0
148448740,-0.00421417,0.0211927,-0.00849281,0.999999,-0.00013731,0.000148973,0.00171851,1.0,0.0,0.0,0.0,0
148548744,0.0128138,0.0276132,0.00656728,0.999999,-0.000210486,0.000298621,0.00156528,1.0,0.0,0.0,0.0,0
148648753,-0.0167005,0.0274266,-0.00961545,0.999999,-0.000257678,0.000254033,0.00147835,1.0,0.0,0.0,0.0,0
148753792,0.0118113,0.0105949,0.00232146,0.999999,-9.76289e-05,0.000196466,0.0015075,1.0,0.0,0.0,0.0,0
148856744,0.00605875,0.0152809,0.0105948,0.999999,6.75522e-05,0.000315314,0.00145849,1.0,0.0,0.0,0.0,0
148955572,0.0299137,0.023207,-0.00462856,0.999999,-0.000207661,2.50062e-05,0.00141994,1.0,0.0,0.0,0.0,0
149059930,0.0197339,0.0177976,0.00347888,0.999999,-8.63065e-05,-5.01196e-05,0.00144407,1.0,0.0,0.0,0.0,0
149160741,0.0291252,0.00147964,-0.00570355,0.999999,1.2112e-05,5.68709e-05,0.00157308,1.0,0.0,0.0,0.0,0
149263622,0.0506312,0.00183799,0.00470218,0.999999,-0.00022106,0.000292377,0.00167142,1.0,0.0,0.0,0.0,0
149364729,0.00496389,0.0164248,-0.0187504,0.999998,-0.000540833,8.97896e-05,0.00170451,1.0,0.0,0.0,0.0,0
149464723,0.000692343,0.0194543,0.00898106,0.999998,-0.00056607,0.000107028,0.00177278,1.0,0.0,0.0,0.0,0
149564733,-0.010067,0.0295204,-0.00119481,0.999998,-0.000258908,0.000158976,0.00179369,1.0,0.0,0.0,0.0,0
149669821,-0.00220634,0.000660876,-0.017089,0.999999,0.000112164,0.000141388,0.00163042,1.0,0.0,0.0,0.0,0
149769851,-0.0353935,0.000445975,0.00916222,0.999999,9.45052e-05,8.47454e-05,0.0015421,1.0,0.0,0.0,0.0,0
149872752,0.00395903,-0.00273167,0.000504484,0.999999,-2.35191e-05,3.7918e-05,0.00162259,1.0,0.0,0.0,0.0,0
149969946,0.00358567,0.000729847,-0.0147924,0.999999,-0.000110795,1.62991e-05,0.00152572,1.0,0.0,0.0,0.0,0
150072723,0.00820181,0.0246203,0.00736137,0.999999,-7.01854e-05,-4.30729e-05,0.00169527,1.0,0.0,0.0,0.0,0
150176820,0.0125776,-0.0124271,-0.00965312,0.999999,0.000181977,-7.79088e-05,0.00171683,1.0,0.0,0.0,0.0,0
150276738,0.0199027,0.00210269,-0.00414926,0.999999,6.76851e-05,7.20279e-05,0.001543,1.0,0.0,0.0,0.0,0
150380725,0.0097098,0.0138579,-0.00708376,0.999999,7.47282e-05,0.000129893,0.00173837,1.0,0.0,0.0,0.0,0
150480740,0.00401149,-0.0134436,0.00308021,0.999999,8.21042e-06,-1.84801e-05,0.00152237,1.0,0.0,0.0,0.0,0
150580738,0.0107112,-0.0136163,0.0035945,0.999999,-0.000118247,-4.62908e-05,0.00140996,1.0,0.0,0.0,0.0,0
150685756,0.0191296,0.0159485,-0.00388976,0.999999,-3.33163e-05,-5.92762e-05,0.00143703,1.0,0.0,0.0,0.0,0
150785771,0.0174519,0.0164494,0.00612792,0.999999,0.000120742,0.000162061,0.00135227,1.0,0.0,0.0,0.0,0
150885735,0.0182833,-0.000402307,0.0181653,0.999999,-3.27743e-05,-5.93923e-05,0.00139067,1.0,0.0,0.0,0.0,0
150988747,0.00184173,-0.0103985,0.0147594,0.999999,0.000183876,0.000120612,0.00150631,1.0,0.0,0.0,0.0,0
151087683,0.0101223,0.0160858,0.00716986,0.999999,0.000144464,-2.2977e-05,0.00155239,1.0,0.0,0.0,0.0,0
151191736,-0.00533455,-0.020488,-0.00598657,0.999999,-2.72265e-05,2.4899e-05,0.0016035,1.0,0.0,0.0,0.0,0
151292741,0.00506995,-0.0209945,0.0233169,0.999998,-0.000118089,3.56141e-05,0.00182099,1.0,0.0,0.0,0.0,0
151392737,0.0124351,-0.00794793,-0.00174893,0.999998,-0.000207478,0.000186492,0.00177698,1.0,0.0,0.0,0.0,0
151496731,0.00343413,-0.0243616,0.00768413,0.999999,-0.000169411,-0.000173459,0.00165815,1.0,0.0,0.0,0.0,0
151596908,-0.0131033,-0.00136277,-0.0116256,0.999999,-0.00022421,-0.000210306,0.0017342,1.0,0.0,0.0,0.0,0
151700736,0.0048835,0.0161002,-0.0122172,0.999999,-1.19303e-06,-7.52128e-05,0.0017332,1.0,0.0,0.0,0.0,0
151801776,-0.0164041,-0.00730305,0.0147771,0.999999,-6.52707e-05,-0.000162506,0.00160554,1.0,0.0,0.0,0.0,0
151900735,-0.0180518,0.013477,-0.0046439,0.999999,-6.15931e-05,-0.000202227,0.00134454,1.0,0.0,0.0,0.0,0
152004733,-0.00698808,0.00280688,3.90804e-05,0.999999,-8.92081e-05,7.1715e-05,0.00140919,1.0,0.0,0.0,0.0,0
152104749,-0.000215149,-0.001571,-0.000273948,0.999999,0.00010009,0.000173756,0.0014423,1.0,0.0,0.0,0.0,0
152204818,-0.0304389,-7.79192e-05,0.000553305,0.999999,-1.46792e-05,0.000101646,0.00131524,1.0,0.0,0.0,0.0,0
152308759,0.00217846,-0.00217293,-0.0146711,0.999999,-0.000200788,5.52926e-06,0.0011168,1.0,0.0,0.0,0.0,0
152408736,0.00382749,0.00811062,0.00340339,0.999999,0.000155491,2.94394e-05,0.00143368,1.0,0.0,0.0,0.0,0
152512753,-0.0340992,-0.522873,0.00592527,0.999996,3.08685e-05,-0.00231354,0.00140043,1.0,0.0,0.0,0.0,0
152612737,0.0234036,-1.03349,0.00525228,0.998393,0.000759872,-0.0566507,0.00140478,1.0,0.0,0.0,0.0,0
152712970,0.0457853,-0.528701,0.00136613,0.995161,0.00212497,-0.0982245,0.0013672,1.0,0.0,0.0,0.0,0
152816791,0.0263437,-0.0482378,-0.00309185,0.993817,0.00411514,-0.110948,0.00133667,1.0,0.0,0.0,0.0,0
152916737,0.0229075,0.109383,-0.0198982,0.994222,0.00602361,-0.107165,0.00134456,1.0,0.0,0.0,0.0,0
153016815,0.0201229,0.136033,-0.0152946,0.994977,0.00769499,-0.0997993,0.00133835,1.0,0.0,0.0,0.0,0
153120785,-0.0381895,0.601622,-0.0184497,0.996752,0.00813485,-0.0801167,0.00123657,1.0,0.0,0.0,0.0,0
153219877,-0.0245574,0.58079,-0.0175401,0.998737,0.00679251,-0.0497731,0.00104824,1.0,0.0,0.0,0.0,0
153324748,0.00485504,0.312842,-0.0102899,0.99965,0.00498657,-0.025955,0.000671381,1.0,0.0,0.0,0.0,0
153424778,-0.00465433,0.149346,-0.0131977,0.999881,0.00440026,-0.0147596,0.000447501,1.0,0.0,0.0,0.0,0
153524735,0.00942151,0.0525445,0.0131954,0.999941,0.00413467,-0.0100079,0.000337159,1.0,0.0,0.0,0.0,0
153628857,0.0254464,0.0372305,0.0234147,0.999962,0.00403069,-0.00768787,0.000133239,1.0,0.0,0.0,0.0,0
153728737,-0.0201119,0.0283165,0.00613394,0.999975,0.00370171,-0.00600105,0.000203891,1.0,0.0,0.0,0.0,0
153828736,-0.0153691,0.00874237,0.0107231,0.999978,0.00408921,-0.00513139,0.000200344,1.0,0.0,0.0,0.0,0
153932746,-0.00447327,0.00591509,-0.00363942,0.99998,0.0043689,-0.00468788,0.000174997,1.0,0.0,0.0,0.0,0
154032939,-0.0054189,0.0357767,-0.0101208,0.99998,0.0044821,-0.00445069,0.000233801,1.0,0.0,0.0,0.0,0
154136739,-0.00555646,0.0172753,0.0113879,0.99998,0.00444419,-0.00446316,0.000267832,1.0,0.0,0.0,0.0,0
154236746,0.00848371,0.00804351,-0.00197818,0.999978,0.00473893,-0.00467404,2.64481e-05,1.0,0.0,0.0,0.0,0
154336770,0.00870908,0.021928,0.0137907,0.999977,0.00475757,-0.00478743,1.28009e-05,1.0,0.0,0.0,0.0,0
154440739,0.00754605,0.0017627,0.00682418,0.999978,0.00477837,-0.00461659,0.000141218,1.0,0.0,0.0,0.0,0
154540740,0.0565346,0.0324489,-0.0122565,0.999977,0.00482899,-0.0046817,0.00011376,1.0,0.0,0.0,0.0,0
154640738,0.011481,0.0106647,-0.00345956,0.999978,0.00456575,-0.0048518,-4.30039e-05,1.0,0.0,0.0,0.0,0
154744728,-0.00193933,0.00386697,-0.00770433,0.99998,0.00406372,-0.00476458,3.65315e-05,1.0,0.0,0.0,0.0,0
154844711,-0.025392,-0.0145991,0.014892,0.999984,0.0029498,-0.00487735,-8.57821e-05,1.0,0.0,0.0,0.0,0
154948735,-0.0240921,0.00351438,-0.0185845,0.999986,0.00154542,-0.00512087,-0.000112569,1.0,0.0,0.0,0.0,0
155048719,-0.0257205,-0.0173625,-0.00687123,0.999986,0.000374226,-0.00536351,-7.61735e-05,1.0,0.0,0.0,0.0,0
155148826,-0.0224021,0.0030321,-0.00274583,0.999983,-0.000850873,-0.00579132,-0.000151116,1.0,0.0,0.0,0.0,0
155252824,-0.00236511,-0.00507967,-0.00230404,0.99998,-0.0020805,-0.00602808,-0.000161622,1.0,0.0,0.0,0.0,0
155351570,-0.00846153,-0.00675522,0.00795271,0.999974,-0.00337418,-0.00634089,-0.0001791,1.0,0.0,0.0,0.0,0
155455197,-0.0350527,0.00797796,0.0186095,0.999967,-0.0045324,-0.00665589,-0.000536173,1.0,0.0,0.0,0.0,0
155556787,-0.015459,-0.0259392,0.00747692,0.999959,-0.00579138,-0.00701809,-0.00050082,1.0,0.0,0.0,0.0,0
155656719,-0.0175684,0.0123561,-0.00535447,0.999949,-0.00700821,-0.0072435,-0.000603513,1.0,0.0,0.0,0.0,0
155760718,-0.027705,0.00144112,0.0026543,0.999934,-0.00842977,-0.007808,-0.000620128,1.0,0.0,0.0,0.0,0
155860722,-0.0287452,0.00631861,-0.00849757,0.999923,-0.00949852,-0.00802431,-0.000710737,1.0,0.0,0.0,0.0,0
155960721,-0.0169493,-0.00472317,-0.00159838,0.999911,-0.0106188,-0.00803635,-0.000783941,1.0,0.0,0.0,0.0,0
156064711,-0.0132822,-0.0111431,0.0189,0.999891,-0.0121755,-0.00834108,-0.0005483,1.0,0.0,0.0,0.0,0
156164728,-0.0253643,-0.0113469,-0.00803132,0.999876,-0.013267,-0.00843313,-0.00080648,1.0,0.0,0.0,0.0,0
156264719,-0.0213146,-0.00355408,-0.00742605,0.999857,-0.0144231,-0.00874135,-0.000985429,1.0,0.0,0.0,0.0,0
156368730,-0.0381212,-0.0150561,0.0125684,0.999834,-0.0157716,-0.00907013,-0.00114026,1.0,0.0,0.0,0.0,0
156468800,-0.0423145,-0.00218331,0.0058519,0.999811,-0.0171021,-0.0091247,-0.00123133,1.0,0.0,0.0,0.0,0
156572811,0.211711,0.0450755,0.029537,0.999809,-0.0171504,-0.00929744,-0.00110931,1.0,0.0,0.0,0.0,0
156672786,0.240842,0.0707745,-0.00259197,0.999953,-0.0067878,-0.00688807,-0.000878125,1.0,0.0,0.0,0.0,0
156772874,0.171202,0.0429056,-0.00507443,0.999986,0.000640643,-0.00521172,-0.000741548,1.0,0.0,0.0,0.0,0
156876742,0.040494,-0.000811491,-0.0061644,0.999979,0.00459128,-0.004579,-0.000671796,1.0,0.0,0.0,0.0,0
156976828,-0.0984808,-0.0186426,-0.00123622,0.999978,0.00480168,-0.00458501,-0.000624045,1.0,0.0,0.0,0.0,0
157078734,-0.149319,-0.0385095,-0.00228681,0.999976,0.00542068,-0.00422562,-0.000469881,1.0,0.0,0.0,0.0,0
157181788,-0.116838,-0.05631,-0.00337174,0.999978,0.00490247,-0.00449784,-0.00016182,1.0,0.0,0.0,0.0,0
157279125,-0.032361,-0.0246246,0.00562689,0.99998,0.00431652,-0.00459029,-2.60899e-07,1.0,0.0,0.0,0.0,0
157383664,-0.0324527,-0.0303868,-0.0103551,0.999981,0.00448968,-0.00417252,0.000143302,1.0,0.0,0.0,0.0,0
157484744,-0.0245839,0.0024645,0.00875649,0.999981,0.00488565,-0.0037345,0.000325975,1.0,0.0,0.0,0.0,0
157584735,-0.0126769,-0.00167453,0.0164718,0.99998,0.00461505,-0.00440855,0.000349611,1.0,0.0,0.0,0.0,0
157688764,0.0491315,0.0342774,-0.00873663,0.999981,0.00405805,-0.00469426,0.000138054,1.0,0.0,0.0,0.0,0
157788744,0.00712372,-0.00468495,-0.0155528,0.999983,0.00350952,-0.00465572,0.000111835,1.0,0.0,0.0,0.0,0
157888739,0.00075157,-0.00464262,-0.00637755,0.999982,0.00367048,-0.0046892,4.30306e-05,1.0,0.0,0.0,0.0,0
157992742,0.0203664,-0.0155659,0.00747156,0.999981,0.00398871,-0.00473916,6.37398e-05,1.0,0.0,0.0,0.0,0
158092740,-0.00772414,-0.00189633,0.00641822,0.99998,0.00416482,-0.00471676,-9.18337e-05,1.0,0.0,0.0,0.0,0
158196737,-0.00942329,-0.0137707,0.00113974,0.99998,0.00447162,-0.00440833,-0.000121318,1.0,0.0,0.0,0.0,0
158296854,-0.0167443,0.00809976,-0.011309,0.99998,0.004317,-0.0046276,-8.855e-05,1.0,0.0,0.0,0.0,0
158396738,-0.0147856,0.0107059,0.0260063,0.999981,0.00401172,-0.00461705,0.000119319,1.0,0.0,0.0,0.0,0
158500741,-0.00683077,-0.0198363,0.00449739,0.999981,0.0041192,-0.004578,-4.84673e-05,1.0,0.0,0.0,0.0,0
158600739,-0.0258195,-0.0273227,0.00976205,0.99998,0.00416239,-0.00467085,-5.70739e-05,1.0,0.0,0.0,0.0,0
158700741,0.00663412,-0.0137462,0.0082366,0.999981,0.00408429,-0.00467748,-0.000163794,1.0,0.0,0.0,0.0,0
158804743,0.00352423,0.0123996,-0.0121839,0.999981,0.00423028,-0.00448462,-0.000210278,1.0,0.0,0.0,0.0,0
158904748,0.0128721,0.0649775,0.00227018,0.999981,0.0044863,-0.00433932,-0.000365293,1.0,0.0,0.0,0.0,0
159008739,-0.0385931,0.00620088,0.00702439,0.999982,0.00441376,-0.0041032,-0.000201201,1.0,0.0,0.0,0.0,0
159108819,-0.0104575,-0.0151655,0.00461391,0.999981,0.00424278,-0.00445412,-3.72532e-05,1.0,0.0,0.0,0.0,0
159208791,-0.0276681,0.00773748,0.0234584,0.999982,0.00397068,-0.00440587,-8.2067e-05,1.0,0.0,0.0,0.0,0
159312729,0.00558106,0.00638854,-0.0282322,0.999981,0.00403953,-0.00458477,-0.000199742,1.0,0.0,0.0,0.0,0
159411176,0.00469336,-0.00186704,-0.00115103,0.99998,0.00432314,-0.0047219,-0.000156085,1.0,0.0,0.0,0.0,0
159515193,-0.0776826,0.0261893,-0.0244504,0.999986,0.00361454,-0.00387571,-0.00059936,1.0,0.0,0.0,0.0,0
159616749,-0.0601305,0.0373351,-0.108427,0.999986,0.000962043,-0.00278811,-0.00443337,1.0,0.0,0.0,0.0,0
159716861,0.00731582,0.0166677,-0.148364,0.999944,0.000178922,-0.00144947,-0.0104778,1.0,0.0,0.0,0.0,0
159820744,-0.00716958,0.00659318,-0.162191,0.99983,-2.73598e-05,-0.000555547,-0.0184264,1.0,0.0,0.0,0.0,0
159920743,0.0180282,0.00870369,-0.198876,0.999628,4.16448e-05,-6.89191e-05,-0.0272775,1.0,0.0,0.0,0.0,0
160020749,-0.0146469,0.0348586,-0.177454,0.999333,-0.000117065,0.000214725,-0.0365295,1.0,0.0,0.0,0.0,0
160124900,-0.0133442,-0.0141157,-0.18165,0.998907,0.000201128,0.000199824,-0.04674,1.0,0.0,0.0,0.0,0
160224741,-0.00913999,-0.0071749,-0.197513,0.998421,0.000216074,0.000164931,-0.0561802,1.0,0.0,0.0,0.0,0
160324827,0.0284631,0.00449536,-0.18084,0.99788,4.6095e-05,-1.15956e-05,-0.0650809,1.0,0.0,0.0,0.0,0
160428742,0.0207136,0.0163048,-0.140542,0.997297,6.59168e-05,-5.77428e-05,-0.0734731,1.0,0.0,0.0,0.0,0
160528740,0.0198137,0.00772299,-0.126355,0.996738,-9.98123e-05,-0.000110718,-0.0807078,1.0,0.0,0.0,0.0,0
160632873,0.0162153,-0.0258086,-0.11042,0.996153,6.1065e-05,-0.00023938,-0.0876284,1.0,0.0,0.0,0.0,0
160732861,0.00022794,0.0168151,-0.103545,0.995639,-0.00010832,-0.00016184,-0.0932915,1.0,0.0,0.0,0.0,0
160832741,-0.000551374,0.0246466,-0.118457,0.995129,-6.73253e-05,-2.85106e-05,-0.0985823,1.0,0.0,0.0,0.0,0
160936738,0.0131131,0.0297889,-0.109579,0.994621,6.31534e-05,2.26845e-06,-0.103581,1.0,0.0,0.0,0.0,0
161036891,0.00377318,-0.0361884,-0.0595099,0.994235,0.000136277,-0.000230534,-0.107226,1.0,0.0,0.0,0.0,0
161136736,0.0067356,-0.0101216,-0.041847,0.994007,9.84166e-05,0.000208674,-0.109313,1.0,0.0,0.0,0.0,0
161240748,0.0308172,-0.0222555,-0.0270625,0.993859,-0.000259486,3.05685e-05,-0.110653,1.0,0.0,0.0,0.0,0
161340829,0.000254538,0.00353129,-0.0105687,0.993762,-0.000141798,2.19562e-05,-0.111522,1.0,0.0,0.0,0.0,0
161444744,0.0242016,0.0372751,-0.0173085,0.993646,-9.2972e-05,2.23147e-05,-0.11255,1.0,0.0,0.0,0.0,0
161543005,0.0314938,-0.00548368,-0.0407456,0.993523,-0.000469268,4.55263e-05,-0.11363,1.0,0.0,0.0,0.0,0
161647288,0.00341339,0.00222866,-0.0100235,0.993396,-0.00038961,0.000174307,-0.114739,1.0,0.0,0.0,0.0,0
161748747,0.00581239,-0.0137796,-0.0232586,0.993271,-0.000303202,0.000238131,-0.115816,1.0,0.0,0.0,0.0,0
161848744,-0.0251926,0.00875777,-0.0408843,0.993094,-0.000313649,0.000232762,-0.117324,1.0,0.0,0.0,0.0,0
161948747,-0.0169491,0.0323026,-0.0538116,0.992836,-9.17566e-05,0.000343966,-0.119484,1.0,0.0,0.0,0.0,0
162052751,0.022417,-0.0114453,-0.0268711,0.992579,-0.000163179,0.000243226,-0.121599,1.0,0.0,0.0,0.0,0
162152870,0.0185158,-0.0169634,-0.0353906,0.992373,-7.14542e-05,0.000148143,-0.123269,1.0,0.0,0.0,0.0,0
162256751,-0.019997,-0.0295963,-0.0166728,0.992202,8.84796e-05,-0.000156265,-0.124639,1.0,0.0,0.0,0.0,0
162356756,-0.00741233,-0.0315703,-0.00693999,0.992127,6.51921e-06,-4.98456e-05,-0.125239,1.0,0.0,0.0,0.0,0
162456747,-0.0140314,0.0114286,-0.0105039,0.992065,0.000461026,0.000191731,-0.125728,1.0,0.0,0.0,0.0,0
162560878,-0.054286,-0.0111465,-0.00122815,0.992075,-6.25771e-05,0.000176311,-0.125647,1.0,0.0,0.0,0.0,0
162660752,-0.0526772,-0.0277234,-0.00345847,0.992065,-0.000342455,4.37289e-05,-0.125729,1.0,0.0,0.0,0.0,0
162760739,-0.0372845,-0.040034,0.0103704,0.992101,-0.000174331,-0.000122042,-0.125442,1.0,0.0,0.0,0.0,0
162864769,-0.00457125,-0.00711228,0.00607622,0.992131,-0.00038226,-0.000263182,-0.125202,1.0,0.0,0.0,0.0,0
162964726,0.0480206,0.0282421,0.00598046,0.992163,-0.000429178,-0.000241513,-0.124948,1.0,0.0,0.0,0.0,0
163068738,0.0231361,0.0310559,-0.00770565,0.992161,-0.000162323,-0.000233418,-0.124968,1.0,0.0,0.0,0.0,0
163168726,0.0432971,-0.0193087,0.00374937,0.992179,-0.000364258,-7.88764e-05,-0.124826,1.0,0.0,0.0,0.0,0
163268737,0.00966788,0.0191877,0.00422392,0.992181,-0.000527215,7.67429e-05,-0.124807,1.0,0.0,0.0,0.0,0
163369783,-0.0224091,0.0105643,0.00968642,0.992199,-0.000797395,4.08892e-05,-0.124659,1.0,0.0,0.0,0.0,0
163472877,-0.035776,0.0153707,0.00899887,0.9922,-0.000197169,-5.79393e-05,-0.124653,1.0,0.0,0.0,0.0,0
163571070,0.00209164,-0.00411108,-0.0119601,0.992233,0.00074236,-0.000117773,-0.124394,1.0,0.0,0.0,0.0,0
163675175,0.0110304,0.0271664,0.00513059,0.99224,0.00071642,-0.000108354,-0.124333,1.0,0.0,0.0,0.0,0
163779210,0.00639935,-0.00681308,0.00699781,0.992239,0.000179375,-0.000480274,-0.124346,1.0,0.0,0.0,0.0,0
163880738,-0.00885882,-0.0101348,-0.0177931,0.992235,3.03239e-05,-0.000398478,-0.124375,1.0,0.0,0.0,0.0,0
163980740,-0.0124511,0.0222626,-0.0100302,0.992198,0.000237153,-0.000246882,-0.124673,1.0,0.0,0.0,0.0,0
164080960,-0.0169721,-0.0220268,0.0102049,0.992193,8.14285e-05,-0.000174947,-0.12471,1.0,0.0,0.0,0.0,0
164184758,-0.00329994,-0.0315157,0.0171702,0.992193,-7.03569e-05,-0.000613057,-0.12471,1.0,0.0,0.0,0.0,0
164284740,-0.00240464,0.00161642,0.00415548,0.992198,-2.54368e-05,-0.000620514,-0.124669,1.0,0.0,0.0,0.0,0
164384741,-0.00689818,0.0125721,-0.00178226,0.992168,9.39873e-05,-0.000476641,-0.124911,1.0,0.0,0.0,0.0,0
164488756,0.016596,-0.0412031,-0.0104656,0.992181,0.000140284,-7.03408e-05,-0.124806,1.0,0.0,0.0,0.0,0
164588780,-0.0212465,-0.0877201,-0.00292006,0.992188,0.000237975,8.70139e-05,-0.124748,1.0,0.0,0.0,0.0,0
164692734,-0.0297309,-0.00543929,-0.00490682,0.992172,9.03949e-06,-0.000425178,-0.124879,1.0,0.0,0.0,0.0,0
164792743,-0.0228226,0.0461975,0.00547664,0.992174,-0.000153848,-0.000179475,-0.124864,1.0,0.0,0.0,0.0,0
164892740,0.0195225,0.0190892,0.00222264,0.992185,-0.000398048,0.000106269,-0.124774,1.0,0.0,0.0,0.0,0
164996723,0.0175402,0.0188644,-0.00645528,0.992175,0.000416061,0.00056316,-0.124853,1.0,0.0,0.0,0.0,0
165096811,0.0555257,0.0226165,-0.0154997,0.992161,0.00248054,0.00160043,-0.124933,1.0,0.0,0.0,0.0,0
165199749,0.0285132,0.0289417,0.00528151,0.992165,0.00453745,0.00274344,-0.124824,1.0,0.0,0.0,0.0,0
165300721,0.0468523,0.0268114,0.00759761,0.992123,0.00638357,0.00362208,-0.125056,1.0,0.0,0.0,0.0,0
165399711,0.0323174,0.0319019,-0.0203872,0.99209,0.00824398,0.0046615,-0.125173,1.0,0.0,0.0,0.0,0
165504710,0.0493097,0.0299365,0.00664825,0.992024,0.0104766,0.00563935,-0.125489,1.0,0.0,0.0,0.0,0
165608734,0.0184546,0.022623,0.00277515,0.991981,0.0123805,0.006605,-0.125609,1.0,0.0,0.0,0.0,0
165708726,0.0264089,0.00943764,-0.0155464,0.991896,0.0141105,0.007355,-0.126051,1.0,0.0,0.0,0.0,0
165812735,0.0393579,0.0285871,0.0135135,0.991838,0.0160409,0.00831265,-0.126215,1.0,0.0,0.0,0.0,0
165912723,0.0314558,0.0282429,-0.000442172,0.991784,0.0177743,0.00919703,-0.126347,1.0,0.0,0.0,0.0,0
166014911,0.0423204,0.0290122,0.00385864,0.991731,0.0195964,0.010346,-0.126408,1.0,0.0,0.0,0.0,0
166115719,0.0320055,0.01379,0.0101535,0.991666,0.0215096,0.0111559,-0.126536,1.0,0.0,0.0,0.0,0
166216741,0.0463659,0.027665,0.00440453,0.991585,0.0234304,0.0121834,-0.126735,1.0,0.0,0.0,0.0,0
166316723,0.0512587,0.0247899,0.0208911,0.991538,0.0254484,0.0131629,-0.126615,1.0,0.0,0.0,0.0,0
166420730,0.0346963,0.0288813,-0.0105401,0.991468,0.0273436,0.0141217,-0.126664,1.0,0.0,0.0,0.0,0
166520721,0.0410007,0.0396511,0.0106297,0.991372,0.0295936,0.0152732,-0.126779,1.0,0.0,0.0,0.0,0
166624720,0.0389301,0.0346561,0.00263943,0.99127,0.0315052,0.0163069,-0.126984,1.0,0.0,0.0,0.0,0
166723790,0.036963,0.0212747,0.00362782,0.991188,0.0333399,0.0171221,-0.127049,1.0,0.0,0.0,0.0,0
166824745,0.0338372,0.0413619,0.00456121,0.991112,0.0353128,0.0180748,-0.126981,1.0,0.0,0.0,0.0,0
166928720,0.0368741,0.0346908,-0.00245256,0.99099,0.037418,0.0190856,-0.127179,1.0,0.0,0.0,0.0,0
167028737,0.0353668,0.0120122,-0.00943044,0.99088,0.0392739,0.020014,-0.12733,1.0,0.0,0.0,0.0,0
167128722,0.0215719,0.00595347,-1.55786e-05,0.990796,0.0410054,0.0209495,-0.127295,1.0,0.0,0.0,0.0,0
167232727,0.0508014,0.0193479,-0.00145992,0.990694,0.0427633,0.0219275,-0.127343,1.0,0.0,0.0,0.0,0
167331719,0.0450527,0.0101802,-0.030404,0.990568,0.0446564,0.0231454,-0.12746,1.0,0.0,0.0,0.0,0
167436722,0.0512854,0.0426315,-0.0179032,0.990432,0.0467501,0.0242792,-0.127551,1.0,0.0,0.0,0.0,0
167536711,0.0348822,0.0264373,-0.0103619,0.990297,0.0487688,0.0252201,-0.127661,1.0,0.0,0.0,0.0,0
167636715,0.0401474,0.0168013,0.0134514,0.99017,0.0505927,0.0261251,-0.127755,1.0,0.0,0.0,0.0,0
167739856,0.0385584,0.0277038,0.00185902,0.990063,0.0526602,0.0271,-0.127542,1.0,0.0,0.0,0.0,0
167839820,0.0430575,0.0110137,0.0199647,0.989948,0.0545705,0.0280384,-0.12743,1.0,0.0,0.0,0.0,0
167943736,0.0569843,0.0281989,-0.0101076,0.989811,0.0563587,0.0290195,-0.1275,1.0,0.0,0.0,0.0,0
168042872,-0.227017,-0.153207,0.0207641,0.989751,0.0574129,0.0294562,-0.127392,1.0,0.0,0.0,0.0,0
168146800,-0.418874,-0.274413,-0.00230887,0.991263,0.0301552,0.0156446,-0.127449,1.0,0.0,0.0,0.0,0
168247965,-0.201455,-0.139846,0.013366,0.991787,0.0103316,0.00566131,-0.127354,1.0,0.0,0.0,0.0,0
168347838,-0.0950679,-0.0405692,0.0172968,0.991905,0.00267511,0.00169162,-0.126945,1.0,0.0,0.0,0.0,0
168447728,-0.0452107,-0.0566537,0.0140791,0.99198,0.000738325,0.00061214,-0.126393,1.0,0.0,0.0,0.0,0
168552755,-0.00161535,-0.0351795,0.0110306,0.99202,-4.83005e-05,-3.30266e-05,-0.126077,1.0,0.0,0.0,0.0,0
168652769,-0.00504312,0.0109842,0.00489025,0.992055,-0.000142911,-0.000224437,-0.125807,1.0,0.0,0.0,0.0,0
168755827,0.00258985,-0.00338676,0.00288137,0.992068,-7.97293e-05,-6.5032e-05,-0.125699,1.0,0.0,0.0,0.0,0
168855797,0.00978316,-0.00204308,-0.00030935,0.992091,0.000231483,-6.80404e-05,-0.125518,1.0,0.0,0.0,0.0,0
168956792,-0.00190302,0.00474118,-0.00794594,0.992105,0.000340122,0.000295587,-0.12541,1.0,0.0,0.0,0.0,0
169059761,-0.00339121,-0.0160733,0.0019877,0.992114,3.5179e-05,-3.98214e-05,-0.125338,1.0,0.0,0.0,0.0,0
169159851,0.0182969,0.0115983,0.0169162,0.992098,-5.25162e-06,-0.000210795,-0.125467,1.0,0.0,0.0,0.0,0
169262707,-0.00188406,0.0179024,0.00214408,0.992087,2.3997e-05,2.30655e-05,-0.125552,1.0,0.0,0.0,0.0,0
169363868,3.497e-05,0.0152626,0.00517581,0.992106,4.74193e-05,-2.43696e-06,-0.125402,1.0,0.0,0.0,0.0,0
169463727,0.00696079,-0.0204343,0.000453727,0.992087,0.000370338,-0.000150748,-0.125556,1.0,0.0,0.0,0.0,0
169567771,0.0143863,-0.00566424,-0.00262456,0.992095,9.99904e-05,4.33098e-05,-0.125486,1.0,0.0,0.0,0.0,0
169668789,0.0104689,0.00555203,-0.00808314,0.992125,6.9259e-05,-0.000194367,-0.125254,1.0,0.0,0.0,0.0,0
169770819,-0.00927733,0.00620452,-0.00394003,0.992133,-8.20125e-05,-1.61018e-05,-0.125188,1.0,0.0,0.0,0.0,0
169872769,-0.0131336,0.0189737,-0.000227268,0.99214,-0.000186595,0.000115351,-0.125136,1.0,0.0,0.0,0.0,0
169971772,-0.0142475,0.0237259,-0.00514907,0.992129,0.000122983,-0.000653488,-0.125222,1.0,0.0,0.0,0.0,0
170075747,0.0110578,0.0232688,0.00488684,0.992113,0.000164695,-0.000602425,-0.125344,1.0,0.0,0.0,0.0,0
170175734,0.0062516,-0.00979737,0.00154262,0.992091,-0.000114379,-0.00083982,-0.125521,1.0,0.0,0.0,0.0,0
170278560,0.0286027,0.0218587,0.00694485,0.992089,0.000278865,-0.000284875,-0.125538,1.0,0.0,0.0,0.0,0
170379751,0.00630297,-0.00949963,-0.00216454,0.992096,2.51855e-05,0.000116257,-0.125481,1.0,0.0,0.0,0.0,0
170479831,0.0138593,-0.0219665,-0.00832819,0.9921,-6.65165e-05,0.000141748,-0.125448,1.0,0.0,0.0,0.0,0
170579780,-0.0115527,0.00457491,-0.00449425,0.992107,-8.24089e-05,0.00011184,-0.125392,1.0,0.0,0.0,0.0,0
170684731,-0.0260413,-0.00419738,-0.013181,0.992078,0.000145069,-6.18418e-05,-0.12562,1.0,0.0,0.0,0.0,0
170783741,0.0110427,-3.5085e-05,-0.015536,0.992061,9.18555e-06,-0.000119467,-0.125754,1.0,0.0,0.0,0.0,0
170883743,-0.00523504,0.000874718,-0.00368818,0.992077,4.69617e-05,0.000127243,-0.125635,1.0,0.0,0.0,0.0,0
170987777,0.0117751,-0.0204548,0.00423582,0.99209,0.000199093,0.0001245,-0.125527,1.0,0.0,0.0,0.0,0
171087843,0.0187245,0.00476392,0.00593716,0.992088,0.000222363,0.000180827,-0.125545,1.0,0.0,0.0,0.0,0
171191737,-0.00500302,-0.00315016,-0.00354599,0.992074,-1.32119e-05,0.000177875,-0.125654,1.0,0.0,0.0,0.0,0
171291746,-0.00201333,0.0309107,-0.0116895,0.992065,-2.60999e-05,0.000299669,-0.125725,1.0,0.0,0.0,0.0,0
171391780,0.00582358,-0.00118033,0.00576672,0.992083,9.9837e-05,0.000218182,-0.125582,1.0,0.0,0.0,0.0,0
171495778,-0.00256345,-0.0048236,0.0122122,0.992071,-8.09035e-05,1.76915e-05,-0.12568,1.0,0.0,0.0,0.0,0
171595764,-0.0132942,-0.00470301,-0.00328149,0.992088,-0.000140383,0.000118066,-0.125546,1.0,0.0,0.0,0.0,0
171699740,-0.0093048,0.00269525,0.00343195,0.992092,-2.94732e-05,6.97453e-05,-0.125511,1.0,0.0,0.0,0.0,0
171799764,-0.00793462,-0.00863785,-0.00693879,0.992082,0.000199435,-0.000106891,-0.125595,1.0,0.0,0.0,0.0,0
171899741,0.00403119,0.0172466,0.00561615,0.992084,0.000308646,3.28154e-05,-0.125578,1.0,0.0,0.0,0.0,0
172003765,0.0168564,0.0142983,-0.000317266,0.992064,0.000154617,-4.99251e-06,-0.125733,1.0,0.0,0.0,0.0,0
172103846,0.0267574,0.0108868,0.011688,0.99207,-0.000218046,-3.22443e-05,-0.125683,1.0,0.0,0.0,0.0,0
172206728,0.032342,0.0018237,-0.0272899,0.99204,4.97258e-05,-8.71016e-05,-0.125926,1.0,0.0,0.0,0.0,0
172307821,0.0246137,0.00517008,0.00527313,0.992044,-2.26715e-05,-0.000134427,-0.125889,1.0,0.0,0.0,0.0,0
172409746,0.00294223,0.00163691,0.0113275,0.992062,9.60362e-05,9.60766e-05,-0.125748,1.0,0.0,0.0,0.0,0
172510753,-0.00131028,-0.0389115,0.00502344,0.992072,4.17609e-05,4.76722e-05,-0.125668,1.0,0.0,0.0,0.0,0
172611729,-0.00613303,-0.0203907,-0.00671593,0.992061,0.000178154,0.000521438,-0.125754,1.0,0.0,0.0,0.0,0
172712775,0.0185616,-0.0520322,0.0106873,0.992069,9.01114e-05,0.00064274,-0.125692,1.0,0.0,0.0,0.0,0
172813764,0.000468145,-0.0188252,-0.0180221,0.992074,-0.000152604,0.000295856,-0.125655,1.0,0.0,0.0,0.0,0
172914742,-0.00897048,-0.0140355,0.0148824,0.992071,-0.000193721,0.000201253,-0.125677,1.0,0.0,0.0,0.0,0
173015866,-0.00643307,0.0280841,0.00294338,0.992059,-5.42502e-05,0.000222678,-0.125775,1.0,0.0,0.0,0.0,0
173120738,-0.0377611,0.0340909,-0.0117847,0.992071,0.000204521,4.13369e-05,-0.125676,1.0,0.0,0.0,0.0,0
173218737,0.115564,0.036611,0.00768184,0.992058,0.0014308,-0.000414133,-0.125774,1.0,0.0,0.0,0.0,0
173323910,2.37913,0.0457964,0.00653231,0.989529,0.0707854,-0.00933533,-0.125438,1.0,0.0,0.0,0.0,0
173424726,2.08136,0.111839,0.00602537,0.973192,0.192841,-0.0234912,-0.123117,1.0,0.0,0.0,0.0,0
173526759,0.882882,0.134848,-0.00219103,0.956895,0.263442,-0.0245104,-0.11979,1.0,0.0,0.0,0.0,0
173623771,0.274161,-0.108415,-0.0042983,0.949674,0.288139,-0.0279766,-0.119638,1.0,0.0,0.0,0.0,0
173729800,-0.345418,-0.0835946,-0.00587703,0.951465,0.281088,-0.0317124,-0.121235,1.0,0.0,0.0,0.0,0
173830753,-0.815661,-0.0440578,-0.0159679,0.958224,0.25653,-0.0308771,-0.122662,1.0,0.0,0.0,0.0,0
173932862,-1.47948,-0.0177907,0.00988491,0.971477,0.200296,-0.0247816,-0.124498,1.0,0.0,0.0,0.0,0
174033809,-1.6513,-0.0172164,0.00545264,0.984201,0.123543,-0.0155068,-0.125876,1.0,0.0,0.0,0.0,0
174135726,-1.09263,-0.00315787,0.0094609,0.99058,0.0520378,-0.0066706,-0.126485,1.0,0.0,0.0,0.0,0
174236740,-0.465636,0.0186893,0.00460907,0.991866,0.0162679,-0.0020507,-0.126227,1.0,0.0,0.0,0.0,0
174338912,-0.114532,-0.00270329,-0.00279995,0.992009,0.00373125,-0.000358425,-0.126114,1.0,0.0,0.0,0.0,0
174436733,-0.0731178,-0.0018234,0.00796098,0.99205,0.000496467,-2.78498e-06,-0.125845,1.0,0.0,0.0,0.0,0
174538909,0.588763,-0.0109119,-0.0127435,0.991984,0.0106293,-0.00140026,-0.125907,1.0,0.0,0.0,0.0,0
174639741,1.11731,0.038421,-0.00236422,0.990319,0.0582308,-0.00759149,-0.125774,1.0,0.0,0.0,0.0,0
174741748,0.458167,0.0386097,-0.00039482,0.987075,0.0990407,-0.0126209,-0.125359,1.0,0.0,0.0,0.0,0
174843750,-1.17217,0.0194803,0.00159403,0.989199,0.0745248,-0.00981723,-0.125839,1.0,0.0,0.0,0.0,0
174945816,-1.5925,0.00675262,-0.0173287,0.991958,0.00716899,-0.00144843,-0.126359,1.0,0.0,0.0,0.0,0
175047882,-1.71024,0.0411064,0.00464005,0.989631,-0.0682677,0.00798131,-0.126123,1.0,0.0,0.0,0.0,0
175148793,-1.32501,0.0259437,0.00719027,0.982129,-0.139553,0.0172108,-0.125105,1.0,0.0,0.0,0.0,0
175251821,-0.895268,0.0169863,-0.00207547,0.97232,-0.196542,0.0246587,-0.12392,1.0,0.0,0.0,0.0,0
175352890,-0.369547,0.0395869,0.00312518,0.965356,-0.228333,0.0288948,-0.122955,1.0,0.0,0.0,0.0,0
175454748,0.48475,0.0294122,0.000854206,0.965442,-0.227998,0.0289787,-0.122879,1.0,0.0,0.0,0.0,0
175556730,0.258044,0.0055315,0.00684825,0.970346,-0.206055,0.0263585,-0.123594,1.0,0.0,0.0,0.0,0
175654733,0.262172,-0.0122374,0.00808149,0.972736,-0.19443,0.0252276,-0.123878,1.0,0.0,0.0,0.0,0
175756748,0.233235,0.0102469,0.016042,0.975125,-0.182241,0.0239329,-0.123879,1.0,0.0,0.0,0.0,0
175857871,0.22503,0.00342195,0.00106684,0.977315,-0.170077,0.0226856,-0.124153,1.0,0.0,0.0,0.0,0
175959674,0.234621,0.0137007,-0.0146826,0.979364,-0.157845,0.0215125,-0.124375,1.0,0.0,0.0,0.0,0
176061648,0.226363,0.00774873,0.0105221,0.98125,-0.145538,0.0204045,-0.1247,1.0,0.0,0.0,0.0,0
176163857,0.253306,0.00579572,-0.000985212,0.982983,-0.133251,0.0192567,-0.124971,1.0,0.0,0.0,0.0,0
176266872,0.246658,0.00154805,0.00947806,0.98457,-0.121051,0.0181027,-0.12506,1.0,0.0,0.0,0.0,0
176365749,0.254023,0.00892758,0.0192568,0.985926,-0.109294,0.0169398,-0.12537,1.0,0.0,0.0,0.0,0
176468847,0.231658,0.010724,-0.00841413,0.987206,-0.0967937,0.0156762,-0.12574,1.0,0.0,0.0,0.0,0
176570742,0.239855,0.0110454,0.000866751,0.988347,-0.0846044,0.0144634,-0.125713,1.0,0.0,0.0,0.0,0
176672723,0.240141,-0.00597632,0.00325545,0.989323,-0.0723003,0.0131608,-0.125852,1.0,0.0,0.0,0.0,0
176774722,0.245987,0.00352001,-0.000699455,0.990111,-0.0601541,0.0119095,-0.126175,1.0,0.0,0.0,0.0,0
176873731,0.220894,0.0135612,0.00345053,0.990751,-0.048403,0.0108968,-0.126298,1.0,0.0,0.0,0.0,0
176975857,0.218964,0.011611,0.012086,0.991312,-0.0361875,0.00972287,-0.126082,1.0,0.0,0.0,0.0,0
177077726,0.237542,0.00234316,0.00761828,0.991696,-0.0240512,0.00851706,-0.126045,1.0,0.0,0.0,0.0,0
177180726,0.249694,-0.00649443,0.000858865,0.991934,-0.011755,0.00720193,-0.126005,1.0,0.0,0.0,0.0,0
177278781,0.224269,-0.00662227,0.000655473,0.992005,-9.84209e-05,0.00591829,-0.126056,1.0,0.0,0.0,0.0,0
177381719,0.251582,0.00810408,0.00750887,0.99196,0.0120065,0.00469063,-0.125893,1.0,0.0,0.0,0.0,0
177483767,0.244119,0.00361969,3.18966e-06,0.991774,0.0239402,0.00351519,-0.12569,1.0,0.0,0.0,0.0,0
177585727,0.237642,0.00851528,0.00250319,0.991428,0.0359124,0.00217108,-0.125606,1.0,0.0,0.0,0.0,0
177684721,0.228783,0.0216234,0.01169,0.990949,0.0475242,0.00104755,-0.12554,1.0,0.0,0.0,0.0,0
177787743,0.24794,-0.0105125,0.0175814,0.990294,0.0597472,-0.000246662,-0.125493,1.0,0.0,0.0,0.0,0
177889747,0.254037,-0.00509565,0.0142547,0.989508,0.0718553,-0.00128158,-0.125337,1.0,0.0,0.0,0.0,0
177992733,0.234213,0.0157461,-0.00902857,0.988579,0.08382,-0.00251418,-0.125221,1.0,0.0,0.0,0.0,0
178090745,0.234757,-0.00982013,-0.00406782,0.987552,0.0953297,-0.00352196,-0.125068,1.0,0.0,0.0,0.0,0
178193733,0.23873,-0.00523527,-0.00465856,0.986344,0.107414,-0.00462799,-0.124765,1.0,0.0,0.0,0.0,0
178295721,0.225407,0.00700177,0.00356991,0.985016,0.119271,-0.00590805,-0.124427,1.0,0.0,0.0,0.0,0
178398721,0.23981,0.00951291,-0.00364586,0.98352,0.131324,-0.00703452,-0.12407,1.0,0.0,0.0,0.0,0
178497724,0.228381,0.0156558,0.00621062,0.981899,0.143033,-0.0081528,-0.123892,1.0,0.0,0.0,0.0,0
178599729,0.233254,0.0179649,0.00331995,0.980127,0.154963,-0.00943181,-0.123486,1.0,0.0,0.0,0.0,0
178702722,0.234709,-0.00639657,0.0173561,0.978204,0.166952,-0.0103699,-0.123033,1.0,0.0,0.0,0.0,0
178801749,0.235234,0.0327649,-0.0133812,0.976199,0.178447,-0.0113333,-0.122736,1.0,0.0,0.0,0.0,0
178903745,0.228778,-0.00267934,-0.000127408,0.974022,0.190233,-0.0125085,-0.122215,1.0,0.0,0.0,0.0,0
179006779,0.226424,0.0181631,0.00830444,0.971634,0.202346,-0.0135515,-0.121657,1.0,0.0,0.0,0.0,0
179105723,0.242922,0.0047594,0.000854197,0.969209,0.213712,-0.0145065,-0.121453,1.0,0.0,0.0,0.0,0
179208730,0.227087,0.0162128,-0.0078998,0.96657,0.225571,-0.0156475,-0.120894,1.0,0.0,0.0,0.0,0
179310709,0.260368,0.0237679,-0.00421039,0.9638,0.237277,-0.0166419,-0.120465,1.0,0.0,0.0,0.0,0
179413745,0.253164,0.00963445,0.00420147,0.960891,0.248985,-0.0177177,-0.119921,1.0,0.0,0.0,0.0,0
179512709,0.249444,-0.000370885,-0.0138065,0.957924,0.260327,-0.0186987,-0.11942,1.0,0.0,0.0,0.0,0
179615728,0.22627,0.0185394,0.00563202,0.954736,0.272033,-0.0198011,-0.118684,1.0,0.0,0.0,0.0,0
179714723,0.235976,0.016231,0.000274194,0.95153,0.283165,-0.0207879,-0.118224,1.0,0.0,0.0,0.0,0
179817731,0.229063,0.00289442,-0.0037399,0.948066,0.294719,-0.021946,-0.117601,1.0,0.0,0.0,0.0,0
179919709,0.226411,0.00146749,-0.0171644,0.944513,0.306073,-0.0228301,-0.117021,1.0,0.0,0.0,0.0,0
180022723,0.23471,0.0157041,0.0147894,0.940672,0.317774,-0.0239708,-0.116538,1.0,0.0,0.0,0.0,0
180121759,0.228678,0.0230857,0.00193373,0.936917,0.32885,-0.0248261,-0.115877,1.0,0.0,0.0,0.0,0
180224726,0.224915,0.0158505,0.00493125,0.932896,0.340248,-0.0258317,-0.115194,1.0,0.0,0.0,0.0,0
