timestamp,roll,pitch,yaw,thrust
16513474,0.0,0.0,0.0,0.08
16637459,0.0,0.0,0.0,0.08
16738589,0.0,0.0,0.0,0.08
16838512,0.0,0.0,0.0,0.08
16941547,0.0,0.0,0.0,0.08
17041471,0.0,0.0,0.0,0.08
17141473,0.0,0.0,0.0,0.08
17245471,0.0,0.0,0.0,0.08
17345473,0.0,0.0,0.0,0.08
17449474,0.0,0.0,0.0,0.08
17545217,0.0,0.0,0.0,0.08
17649517,0.0,0.0,0.0,0.08
17753482,-0.00177083,0.00478993,0.120444,0.08
17853482,-0.00252907,0.00498337,0.119586,0.08
17953487,-0.0045625,0.0075942,0.118529,0.08
18057483,-0.00326363,0.00681081,0.0649054,0.131341
18157536,-0.00228686,0.00826159,0.074492,0.383673
18261469,-0.00516385,0.00695358,0.0696472,0.386738
18361482,-0.00715069,0.00474775,0.0691453,0.481274
18461483,-0.00668235,0.00317636,0.0663567,0.56661
18565491,-0.00092855,0.00120774,0.0554472,0.569879
18665608,-0.00283666,-0.000537851,0.0399923,0.568957
18766531,-0.00326419,-0.000442572,0.0243722,0.569035
18869508,-0.00197878,-0.00226337,0.00988086,0.569034
18969485,0.000161061,-0.000854701,-0.000859805,0.569034
19073613,0.00180016,0.00153789,-0.00917588,0.627155
19173489,-0.0014084,-0.00214271,-0.0143977,0.647831
19273485,-0.000901612,-0.000464305,-0.0171703,0.644952
19377486,0.00101767,-0.00277675,-0.0176585,0.645399
19477483,0.00475543,-0.0025884,-0.0174469,0.644946
19576213,0.00446828,-0.0046181,-0.0167909,0.646234
19682587,-0.000432285,-0.00288215,-0.0154798,0.6459
19782472,0.00195154,-0.00392076,-0.0125547,0.64673
19885486,0.00153988,-0.00390723,-0.00984287,0.655057
19985488,0.00422569,-0.00534254,-0.00786784,0.676848
20085601,0.00685177,-0.00566628,-0.0053138,0.699105
20189471,0.00362037,-0.00415013,0.00573687,0.721222
20291484,-0.00255648,-0.00316321,0.00734114,0.734084
20389490,-0.00740052,0.00063163,0.00302904,0.75818
20493601,-0.00409471,0.000137297,-0.000730104,0.77827
20593485,-0.00279235,-0.000668157,-0.00272284,0.778122
20693484,-0.00180787,-0.00037081,-0.00437667,0.779135
20798506,0.00144335,0.0030339,-0.0048504,0.778086
20898469,-0.000921545,0.00120881,-0.00440249,0.778105
21001556,-0.00234283,0.000869302,-0.00450319,0.779135
21101526,-5.34078e-05,2.55386e-05,-0.00365871,0.778058
21105469,0.0,0.0,0.0,-0.581968
21105469,0.0,0.0,0.0,-6.82197
21105469,0.0,0.0,0.0,-12.822
21105469,0.0,0.0,0.0,-19.062
21105469,0.0,0.0,0.0,-25.0619
21105469,0.0,0.0,0.0,-31.0619
21105469,0.0,0.0,0.0,-37.302
21105469,0.0,0.0,0.0,-43.302
21105469,0.0,0.0,0.0,-49.3021
21105469,0.0,0.0,0.0,-55.5421
21105469,0.0,0.0,0.0,-61.5421
21105469,0.0,0.0,0.0,-67.7821
21105469,0.0,0.0,0.0,-73.7821
21105469,0.0,0.0,0.0,-79.782
21105469,0.0,0.0,0.0,-86.022
21105469,0.0,0.0,0.0,-92.0219
21105469,0.0,0.0,0.0,-98.0219
21105469,0.0,0.0,0.0,-104.262
21105469,0.0,0.0,0.0,-110.262
21105469,0.0,0.0,0.0,-116.262
21105469,0.0,0.0,0.0,-122.502
21105469,0.0,0.0,0.0,-128.502
21105469,0.0,0.0,0.0,-134.502
23538506,-3.83972,-1.88299,0.490935,0.778684
23638497,-3.83972,-1.24342,0.628376,0.778912
23741483,-3.83972,-0.491382,0.670555,0.778595
23841546,-2.32239,-0.0807441,0.576595,0.778079
23944209,-0.666073,0.0524771,0.425074,0.778106
24045546,-0.0659591,0.0708901,0.277781,0.778449
24145485,0.0637973,0.056697,0.151172,0.778057
24245483,0.296936,0.0495913,0.05295,0.778108
24350575,0.242499,0.0336455,-0.0186526,0.779135
24450557,0.205537,0.0320702,-0.0617267,0.778086
24553480,0.184643,0.0321439,-0.0824049,0.778105
24653587,0.172276,0.0347091,-0.0844135,0.778793
24753585,0.168668,0.0372074,-0.181068,0.911279
24857481,0.17374,0.0469822,-0.364159,0.9995
24957530,0.186462,0.0562202,-0.369131,1.0
25061517,0.178354,0.0523759,-0.287321,1.0
25161488,0.163545,0.0455776,-0.10282,1.0
25261639,0.148546,0.0506548,-0.0370547,1.0
25365483,0.139163,0.0585179,0.0109766,1.0
25465482,0.140422,0.056521,0.0394724,1.0
25569565,0.142676,0.0509699,0.0533782,1.0
25670502,0.146946,0.0426221,0.0560485,1.0
25769473,0.149542,0.0384426,0.0517362,1.0
25873485,0.152718,0.0303215,0.0431318,1.0
25972303,0.149513,0.0225159,0.0340382,1.0
26076263,0.148063,0.0200502,0.0244132,1.0
26177537,0.145599,0.0194241,0.0163812,1.0
26277499,0.138844,0.020342,0.00994303,1.0
26377525,0.133644,0.0219434,0.00619319,1.0
26481483,0.123766,0.0184285,0.00275988,1.0
26581555,0.114485,0.0171187,0.0010073,1.0
26685483,0.104287,0.0168235,0.000213901,1.0
26785489,0.0951929,0.0119903,0.00102341,1.0
26885525,0.0856977,0.0102308,0.00192858,1.0
26989473,0.0834668,0.00718757,0.00322086,1.0
27089513,0.0761769,0.00721119,0.00311618,1.0
27193526,0.0577527,0.00808012,0.00422314,1.0
27293486,0.0536984,0.00481931,0.00507947,1.0
27393541,0.0502391,0.00272226,0.00644657,1.0
27493514,0.0397678,0.00175901,0.00687875,1.0
27598487,0.0360107,0.00144626,0.00725107,1.0
27698506,0.0301256,0.000497634,0.0070293,1.0
27802510,0.0249188,-0.00111776,0.0207353,1.0
27901483,0.0239076,-0.00938025,0.0650486,1.0
28005523,0.0186984,-0.0138648,0.133808,1.0
28105469,0.0141366,-0.0110086,0.202308,1.0
28208281,0.000757629,0.000428578,0.25612,1.0
28309564,-0.0171335,0.0140265,0.28449,1.0
28409480,-0.0134455,0.0111483,0.288216,1.0
28509513,-0.00652486,0.00785934,0.273412,1.0
28614481,-0.00408377,0.00534048,0.234107,1.0
28713488,0.000191985,0.00681012,0.18087,1.0
28817553,0.000675464,0.00946502,0.117584,1.0
28917530,0.00570622,0.00957461,0.0629879,1.0
29019526,0.00676155,0.0149069,0.0169131,1.0
29121517,0.00555323,0.0199491,-0.0134627,1.0
29221474,0.00424768,0.0149826,-0.0309857,1.0
29321557,0.000211575,0.0129057,-0.0373776,1.0
29425535,-0.00530289,0.0102461,-0.0368104,1.0
29525473,-0.0102384,0.00882773,-0.031133,1.0
29625469,-0.0101125,0.00923917,-0.0228991,1.0
29729485,-0.00825013,0.0112673,-0.0139634,1.0
29830525,-0.0141959,0.00918413,-0.00510715,1.0
29933520,-0.0145475,0.00816576,0.00146337,1.0
30034482,-0.0126492,0.00763326,0.00476831,1.0
30133484,-0.0166059,0.00637606,0.00684062,1.0
30237486,-0.0159012,0.00556639,0.00839965,1.0
30338503,-0.0166847,0.00421891,0.00831105,1.0
30441502,-0.0195662,-0.000282051,0.00768943,1.0
30541476,-0.0134296,0.0006192,0.00766738,1.0
30641485,0.00226072,0.000892417,0.00732723,1.0
30745483,0.00729115,-0.000443257,0.00789897,1.0
30845523,0.00997999,0.000727507,0.00809726,1.0
30945483,0.00875153,0.00430261,0.00802185,1.0
31050556,0.00732773,0.00490018,0.006258,1.0
31150483,0.00256986,0.00202705,0.00639019,1.0
31253538,-0.00175867,0.00383644,0.00752836,1.0
31354487,-1.21492,-0.321381,-0.0135246,0.120388
31453488,-3.73682,-1.10026,-0.252449,0.13923
31557570,-1.77644,-0.492434,-0.216774,0.162881
31658510,-0.650619,-0.169396,-0.16868,0.168798
31757493,-0.183825,-0.0511771,-0.117919,0.169632
31861480,-0.0403741,-0.0237015,-0.0684255,0.169701
31962537,-0.0183008,-0.0112162,-0.0293614,0.169705
32065469,-0.0199931,-0.0108442,-0.0045894,0.169705
32166582,-0.0301893,0.0106626,0.0087666,0.169704
32264655,-0.0423657,0.0359502,0.0124204,0.169699
32368297,-0.0526693,0.0594431,0.00711365,0.169693
32469472,-0.0602095,0.0761064,-0.00510728,0.169687
32572588,-0.0684431,0.0994858,-0.0136949,0.169676
32673488,-0.0784182,0.113675,-0.0293827,0.169667
32773491,-0.077953,0.132073,-0.0397779,0.169658
32877472,-0.0738075,0.135937,-0.0453667,0.169658
32977482,-0.0676593,0.135782,-0.0482674,0.169659
33077488,-0.0665395,0.140557,-0.0430237,0.169657
33178469,-0.0593363,0.136318,-0.0417582,0.169661
33282539,-0.0566597,0.143993,-0.0297552,0.169658
33381539,-0.0504331,0.134408,-0.0236867,0.169664
33485486,-0.0475114,0.124071,-0.012795,0.16967
33585484,-0.0410492,0.114219,-0.00453282,0.169676
33689544,-0.0356309,0.116603,0.00575315,0.169676
33790486,-0.0295744,0.112613,0.0161286,0.195351
33889487,-0.0227934,0.102887,0.0214434,0.35125
33993483,-0.0197779,0.100518,0.0296268,0.456793
34093491,-0.0190409,0.104807,0.0404085,0.522463
34192613,-0.0129891,0.0956651,0.0453251,0.56575
34296497,-0.0114433,0.102653,0.0549507,0.595413
34398482,-0.0133001,0.103776,0.0641696,0.61591
34501523,-0.0144818,0.106042,0.0730629,0.629254
34601475,-0.0144127,0.112287,0.0804469,0.636996
34701545,-0.0117766,0.138467,0.0957946,0.639912
34805481,-0.0142938,0.153733,0.10901,0.640301
34906482,-0.0195309,0.0864003,0.0823535,0.640301
35005473,-0.0303827,0.0451135,0.0557547,0.640301
35109616,-0.044151,0.0268064,0.0308997,0.640301
35209488,-0.0555116,0.0233731,0.0139895,0.640301
35309601,-0.0641762,0.0251393,0.00268146,0.640301
35414506,-0.0748194,0.0197593,-0.00277185,0.640301
35514524,-0.0712271,0.00723588,-0.00277774,0.640301
35617471,-0.0765223,0.0053167,0.00233466,0.640301
35718707,-0.0837921,0.00165438,0.00875446,0.640301
35817635,-0.0840905,0.000778252,0.017081,0.640301
35921484,-0.0805358,-0.0025848,0.0246603,0.640301
36021473,-0.0833402,0.00044007,0.0310119,0.640301
36125473,-0.081665,0.00277358,0.0378438,0.640301
36225633,-0.0735524,-0.00112706,0.0419411,0.640301
36324683,-0.0639105,-0.00426859,0.0446384,0.640301
36425503,-0.0620064,-0.00753105,0.045621,0.640301
36530524,3.51875,0.0738933,0.0189476,1.0
36625485,1.58926,0.0338544,0.0224611,1.0
36733532,0.466372,0.0116123,0.0245176,1.0
36833096,0.0979113,0.00931103,0.0238507,1.0
36933489,-0.00677656,0.00933734,0.0218356,1.0
37038525,-0.0264145,0.00416928,0.0157824,1.0
37138483,-0.0150761,-0.00266262,0.00802443,1.0
37238566,0.00070911,-0.0128083,-0.00469945,1.0
37341488,0.00574268,-0.0334202,0.0305843,0.992666
37441481,0.00974978,-0.0595568,0.0702735,0.816679
37545499,0.0134531,-0.0824057,0.0245785,0.669454
37645472,0.0135548,-0.103633,-0.0391252,0.6239
37745703,0.00328245,-0.113081,-0.0874404,0.546436
37850585,0.000471021,-0.114398,-0.119581,0.521647
37949499,-0.0108874,-0.112625,-0.133278,0.52196
38053603,-0.00876956,-0.100502,-0.150006,0.521843
38154484,-0.00786923,-0.0850409,-0.155726,0.521819
38252993,-0.000373941,-0.074182,-0.149487,0.52222
38356518,-0.00153987,-0.0657707,-0.139407,0.522104
38457473,-0.000548441,-0.0591218,-0.127243,0.523818
38561482,-0.000552532,-0.0483502,-0.112756,0.523666
38661487,-3.58326e-05,-0.0364365,-0.0969155,0.524697
38761485,0.00195172,-0.0346511,-0.0815285,0.526331
38862481,0.00667759,-0.0273418,-0.0662727,0.52665
38966518,0.00421244,-0.0270788,-0.054398,0.536589
39065483,0.00458816,-0.0243628,-0.0442701,0.564807
39170515,0.00544906,-0.0215629,-0.0377936,0.588936
39269485,0.00238998,-0.0190021,-0.0347469,0.592095
39373480,0.00305083,-0.0162157,-0.0328015,0.59166
39473500,0.00333659,-0.0135248,-0.0297055,0.591716
39574486,0.00170235,-0.0125676,-0.0262567,0.582662
39677535,0.00423445,-0.0114443,-0.0246496,0.583326
39777523,0.00213521,-0.0118664,-0.0230765,0.553005
39877487,0.00147859,-0.0111764,-0.0210548,0.526244
39982485,-0.00240366,-0.00886689,-0.0192838,0.525622
40082516,0.00514708,-0.0069613,-0.0127506,0.490449
40185482,0.00669727,-0.00298794,0.0428388,0.387314
40286223,0.00261946,-0.00219542,0.083147,0.304469
40386523,-0.00222314,-0.00212952,0.129494,0.239444
40489486,-0.00249384,-0.00167978,0.166868,0.181738
40588675,-0.00316259,-0.00201316,0.19842,0.134473
40692449,0.00271258,-0.00101997,0.215849,0.104587
40793525,0.0123854,0.00496212,0.165989,0.0960898
40893482,0.00735719,0.00209867,0.107234,0.0946359
40994640,0.00126628,-0.000494015,0.0542937,0.08
41098514,0.00827959,-0.000336563,0.00769233,0.08
41198582,0.00955028,-0.00271303,-0.0243972,0.08
41300415,0.0050167,-0.00773659,-0.0463289,0.08
41401496,-0.00408724,-0.00424381,-0.0577933,0.08
41501482,-0.0036129,-0.002754,-0.0618649,0.08
41606591,-0.00138071,-0.00283909,-0.0599159,0.08
41706483,-0.000618941,-0.00176448,-0.054274,0.08
41809484,0.000815912,-0.0036113,-0.046712,0.08
41909473,0.00317749,-0.00665867,-0.03871,0.08
42009545,0.00126448,-0.00504684,-0.0300593,0.08
42110597,-0.00236827,-0.00616021,-0.023932,0.08
42214483,-0.00185467,-0.00400402,-0.0185499,0.08
42314583,-0.000477821,0.00289707,-0.0137955,0.08
42418472,-8.45686e-05,0.00479944,-0.0115081,0.08
42518522,0.00220137,0.00587453,-0.00904758,0.08
42621482,0.00407772,0.0063502,-0.00730028,0.08
42720763,0.00727286,0.00964377,-0.00625309,0.08
42824516,0.00555303,0.00847067,-0.00589185,0.08
42925493,0.00310899,0.00908801,-0.00513922,0.08
43026484,0.00626841,0.0114643,-0.00474097,0.08
43125492,0.0233841,0.0225008,-0.00552703,0.08
43230490,0.0242116,0.0230474,-0.0047442,0.08
43330491,0.0127048,0.0129336,-0.00403709,0.08
43433479,0.0015714,0.00625854,-0.00382045,0.08
43533476,-0.00591359,-0.00272672,-0.00424428,0.08
43634510,-0.010626,-0.00303571,-0.114987,0.08
43733528,-0.0112331,-0.00783733,-0.447694,1.0
43838510,0.000340315,0.00499457,-0.404179,1.0
43937485,0.0113221,0.0189211,-0.329641,1.0
44041491,0.00859147,0.0105488,-0.238977,1.0
44142483,-0.000412421,0.00558625,-0.154062,1.0
44245539,-0.0135202,0.0142243,-0.0799788,1.0
44345471,-0.0189627,0.0235956,-0.024495,1.0
44445482,-0.022364,0.0203807,0.0151556,1.0
44545487,-0.0151853,0.0085157,0.0427755,1.0
44651471,-0.0121153,0.00661713,0.0608372,1.0
44748747,-0.00810036,0.00277919,0.0678409,1.0
44852609,-0.0093942,-0.00044102,0.0713864,1.0
44953538,-0.00295746,-0.00335444,0.0684892,1.0
45053599,-0.0011714,0.00209694,0.0640307,1.0
45157484,0.000428515,0.0043503,0.0585199,1.0
45257481,0.00272206,0.00253404,0.0540807,1.0
45361597,1.57983,-0.15098,0.0696819,1.0
45461539,1.49554,-0.12282,0.0859098,1.0
45561469,1.2195,-0.0716957,0.0941717,0.976293
45666483,0.366104,0.0367876,0.0564785,0.911869
45766479,-0.151076,0.107129,0.0132302,0.807041
45866506,-0.355975,0.129518,-0.0246548,0.726311
45969486,-0.4237,0.127215,-0.0541219,0.669047
46069534,-0.5429,0.126489,-0.0723407,0.622674
46169482,-0.609696,0.108506,-0.07739,0.588612
46273536,-0.702826,0.0800229,-0.0731404,0.560696
46374489,-0.802254,0.0591961,-0.0630787,0.540067
46477475,-0.792728,0.0387016,-0.0513232,0.526695
46578485,-0.744746,0.000898082,-0.040337,0.517221
46676600,-0.712592,-0.0233022,-0.0310175,0.510613
46781490,-0.67597,-0.0182692,-0.0252829,0.507534
46880914,-0.612128,-0.000887179,-0.0197048,0.507125
46984428,-0.539921,-0.000275342,-0.0165583,0.50809
47085479,-0.471579,0.00951057,-0.0143903,0.509625
47186510,-3.28622,0.0966587,0.010684,0.147998
47289561,-1.55328,0.0316848,0.00433563,0.164858
47390593,-0.540231,0.016922,0.00245949,0.169119
47489485,-0.144999,0.00722352,-0.00658251,0.25125
47593531,1.13872,-0.0154974,-0.0239118,0.34047
47693476,1.3098,-0.0128613,-0.0291248,0.401669
47793484,0.932318,0.00584709,-0.0286697,0.448515
47898560,0.506993,0.0232055,-0.0274075,0.477071
47998593,0.220097,0.0370017,-0.023811,0.491228
48101469,0.119441,0.0239248,-0.0199898,0.497842
48202486,0.123697,0.0115378,-0.0167625,0.499924
48302502,0.139183,0.00414267,-0.0119061,0.500224
48406480,0.157264,0.00220307,-0.00714144,0.500488
48506602,0.201606,0.00588539,-0.0033663,0.499762
48605636,0.203106,0.00382784,0.000701867,0.499014
48710511,0.219209,-0.00313972,0.00337027,0.49773
48810483,0.220915,0.0009079,0.00508574,0.496265
48914515,0.24849,9.71165e-05,0.00558374,0.494654
49014469,0.280376,-0.00259417,0.00483432,0.493252
49113414,0.235984,0.00337452,0.00423287,0.492699
49218488,0.208226,0.0043985,0.00396718,0.491465
49312472,0.225919,0.00246085,0.00167468,0.490609
49418531,0.22388,0.00968303,0.000604398,0.490463
49523472,0.233535,0.00242874,-0.000476967,0.490024
49622506,0.216195,0.00575443,-0.00118341,0.489757
49726493,0.209884,0.0220284,-0.00102322,0.489756
49826512,0.193909,0.021256,-0.00285952,0.490266
49925485,0.174371,0.00968589,-0.00395133,0.490382
50030603,0.16969,0.00585972,-0.00495219,0.490939
50130592,0.138468,-0.00207045,-0.00657101,0.491375
50230485,0.127007,-0.004143,-0.00581862,0.492181
50334486,0.10651,-0.0101713,-0.00519675,0.492545
50434474,0.106107,-0.00581689,-0.00452456,0.493505
50538489,0.0949926,0.0035437,-0.00524099,0.494171
50638483,0.0559735,-0.0123685,-0.0052476,0.493864
50738597,0.0729801,-0.00867218,-0.00493428,0.494663
50842547,0.062867,-0.00689448,-0.00521153,0.495045
50942536,0.0391066,-0.0074746,-0.00425915,0.495235
51040474,0.0427612,0.00412715,-0.00364887,0.495476
51144615,0.015721,0.00570562,-0.00430641,0.494844
51248716,-0.0109948,-0.00348971,-0.00315965,0.494958
51350570,-0.0159431,-0.00621,-0.00338232,0.494859
51450485,-0.0158482,-0.0235266,-0.00242084,0.49465
51549539,-0.0134558,-0.0195259,-0.00204947,0.494573
51654491,-0.0154944,-0.0304126,-0.00134486,0.493903
51753521,-0.0164806,-0.0177479,-0.00133791,0.493891
51853481,-0.0503637,-0.0186208,-0.00161962,0.493198
51958521,-0.0464071,-0.00919009,-0.00257133,0.492966
52058536,-0.0730174,-0.00711456,-0.00407209,0.492706
52162482,-0.0731329,-0.00608502,-0.00302679,0.492339
52262523,-0.0654154,-0.0109883,-0.00253464,0.492234
52361469,-0.0725815,-0.00131648,-0.00326367,0.49185
52466513,-0.0719902,-0.00514964,-0.00379347,0.491977
52566486,-0.058169,-0.0175901,-0.00284251,0.491805
52669585,-0.0561116,-0.0128952,-0.00327341,0.491592
52770492,-0.0698158,-0.00459511,-0.00318772,0.491045
52870528,-0.055163,0.00799704,-0.00457804,0.490704
52974491,-0.0485509,0.00590889,-0.00542094,0.490549
53074482,-0.045716,0.014204,-0.00623165,0.490672
53172823,-0.0354349,0.0112582,-0.00628343,0.490469
53276705,-0.0403175,0.000442248,-0.00664304,0.490142
53374498,0.0,0.0,0.0,0.249816
53374498,0.0,0.0,0.0,-5.75018
53374498,0.0,0.0,0.0,-11.9902
53374498,0.0,0.0,0.0,-17.9902
53374498,0.0,0.0,0.0,-24.2302
53374498,0.0,0.0,0.0,-30.2302
53374498,0.0,0.0,0.0,-36.2302
53374498,0.0,0.0,0.0,-42.4702
53374498,0.0,0.0,0.0,-48.4703
53374498,0.0,0.0,0.0,-54.4703
53374498,0.0,0.0,0.0,-60.7104
53374498,0.0,0.0,0.0,-66.7104
53374498,0.0,0.0,0.0,-72.9503
53374498,0.0,0.0,0.0,-78.9502
53374498,0.0,0.0,0.0,-84.9502
53374498,0.0,0.0,0.0,-91.1901
53374498,0.0,0.0,0.0,-97.1901
53374498,0.0,0.0,0.0,-103.19
53374498,0.0,0.0,0.0,-109.43
53374498,0.0,0.0,0.0,-115.43
53374498,0.0,0.0,0.0,-121.67
53374498,0.0,0.0,0.0,-127.67
53374498,0.0,0.0,0.0,-133.67
53374498,0.0,0.0,0.0,-139.91
53374498,0.0,0.0,0.0,-145.91
53374498,0.0,0.0,0.0,-151.91
53374498,0.0,0.0,0.0,-158.15
53374498,0.0,0.0,0.0,-164.151
53374498,0.0,0.0,0.0,-170.391
56322487,2.08663,-2.31375,0.109462,1.0
56422485,0.580436,-0.535112,0.100257,1.0
56526473,0.169456,-0.128277,0.0822814,1.0
56626476,0.084031,-0.0598781,0.0588631,1.0
56726521,0.0694869,-0.0691783,0.0348276,1.0
56831486,0.0714629,-0.0821199,0.0153067,1.0
56930511,0.0753032,-0.0912739,0.00318877,1.0
57034486,0.0737111,-0.0962635,-0.00226858,1.0
57134505,0.0710138,-0.0909552,-0.00428629,1.0
57234486,0.0706775,-0.0860487,-0.00377967,1.0
57338534,0.0661242,-0.0833029,-0.00124877,1.0
57350511,0.0,0.0,0.0,-4.28
57350511,0.0,0.0,0.0,-10.52
57350511,0.0,0.0,0.0,-16.52
57350511,0.0,0.0,0.0,-22.52
57350511,0.0,0.0,0.0,-28.76
57350511,0.0,0.0,0.0,-34.76
57350511,0.0,0.0,0.0,-40.76
57350511,0.0,0.0,0.0,-47.0001
57350511,0.0,0.0,0.0,-53.0001
57350511,0.0,0.0,0.0,-59.0002
57350511,0.0,0.0,0.0,-65.2402
57350511,0.0,0.0,0.0,-71.2401
57350511,0.0,0.0,0.0,-77.4801
57350511,0.0,0.0,0.0,-83.48
57350511,0.0,0.0,0.0,-89.48
57350511,0.0,0.0,0.0,-95.7199
57350511,0.0,0.0,0.0,-101.72
57350511,0.0,0.0,0.0,-107.72
57350511,0.0,0.0,0.0,-113.96
57350511,0.0,0.0,0.0,-119.96
57350511,0.0,0.0,0.0,-126.2
57350511,0.0,0.0,0.0,-132.2
57350511,0.0,0.0,0.0,-138.44
59772557,3.83972,-3.83972,-0.0939732,0.12
59874487,3.83972,-3.83972,0.056349,1.0
59974481,3.83972,-3.83972,0.172345,0.438599
60078481,2.77623,-3.58352,0.260511,1.0
60178482,1.09154,-1.51387,0.254493,1.0
60282483,0.30659,-0.457671,0.207911,1.0
60382485,0.0726882,-0.110995,0.152502,1.0
60485388,0.0129329,-0.000493308,0.0958736,1.0
60586484,0.0080021,0.0185714,0.050059,1.0
60686520,0.0123736,0.00310899,0.0136455,1.0
60786484,0.0163161,-0.00295588,-0.0120601,1.0
60890509,0.0145048,-0.0146522,-0.0282714,1.0
60990473,0.0134824,-0.015082,-0.0355644,1.0
61094521,0.0104131,-0.00537764,-0.0347871,1.0
61194469,0.011073,-0.00312636,-0.0288366,1.0
61294485,0.011252,-0.00363224,-0.0227689,1.0
61398485,0.013793,-0.00400522,-0.015175,1.0
61498482,0.0128559,-0.0041277,-0.00860342,1.0
61597007,0.0132734,-0.0041495,-0.00218953,1.0
61700793,0.729762,-1.07219,0.0730748,1.0
61804722,0.789996,-1.19544,0.163004,1.0
61906482,0.834577,-1.28146,0.257345,1.0
62006532,0.675646,-1.06636,0.321722,0.976338
62106487,0.273771,-0.428911,0.25819,0.904731
62210537,0.103098,-0.15238,0.186648,0.828529
62310473,0.0432816,-0.0572841,0.118913,0.783584
62410488,0.0337759,-0.0370628,0.0617037,0.755128
62514483,0.00853665,-0.00369362,0.015439,0.7364
62614600,0.00806589,-0.00479519,-0.015627,0.724727
62718487,0.0110828,-0.0109449,-0.0340133,0.7154
62818488,0.0116373,-0.0112759,-0.0426464,0.709086
62919495,0.0132092,-0.016426,-0.0421592,0.704582
63022632,0.00853796,-0.00358225,-0.0377669,0.702661
63122516,0.00710619,0.00650486,-0.0286435,0.701882
63223545,-0.108598,0.251924,-0.065121,0.674153
63326521,-0.242393,0.505582,-0.121896,0.644147
63426500,-0.284781,0.568317,-0.158853,0.624358
63530505,-0.280119,0.537793,-0.175662,0.607281
63630594,-0.278152,0.528157,-0.17812,0.590074
63728877,-0.225959,0.417743,-0.156251,0.578931
63832737,-0.190057,0.344267,-0.128177,0.567616
63934483,-0.177075,0.304051,-0.0996172,0.55851
64034520,-0.166073,0.290007,-0.0744096,0.550349
64138473,-0.644484,1.00465,-0.0974744,0.519794
64238510,-0.871722,1.3173,-0.0780848,0.514073
64342488,-0.8376,1.25537,-0.0254187,0.524201
64442520,-0.744207,1.07686,0.0332001,0.538152
64542479,-0.608895,0.882391,0.0898866,0.552565
64590472,0.0,0.0,0.0,-2.80025
64590472,0.0,0.0,0.0,-8.80025
64590472,0.0,0.0,0.0,-14.8002
64590472,0.0,0.0,0.0,-21.0402
64590472,0.0,0.0,0.0,-27.0402
64590472,0.0,0.0,0.0,-33.2802
64590472,0.0,0.0,0.0,-39.2803
64590472,0.0,0.0,0.0,-45.2803
64590472,0.0,0.0,0.0,-51.5204
64590472,0.0,0.0,0.0,-57.5204
64590472,0.0,0.0,0.0,-63.7604
64590472,0.0,0.0,0.0,-69.7604
64590472,0.0,0.0,0.0,-75.7603
64590472,0.0,0.0,0.0,-82.0003
66066482,-3.83972,-3.83972,0.785398,1.0
66166536,-3.83972,-3.50755,0.785398,1.0
66270470,-3.83972,-1.85554,0.785398,0.12
66370558,-3.83972,-1.38294,0.785398,1.0
66470560,-3.54503,-0.927395,0.785398,1.0
66574483,-1.50378,-0.681215,0.785398,1.0
66674504,-0.551177,-0.412615,0.785398,1.0
66778499,-0.2152,-0.180494,0.785398,1.0
66878517,-0.143091,-0.0555787,0.785398,1.0
66978483,-0.134317,-0.00251897,0.785398,1.0
67082519,-0.148359,0.014703,0.785398,1.0
67182469,-0.158324,0.0139386,0.785398,1.0
67282482,-0.165261,0.0063402,0.785398,1.0
67386483,-0.160182,0.010298,0.785398,1.0
67486513,-0.151205,0.00699212,0.785398,1.0
67590480,-0.142678,0.0101772,0.785398,1.0
67690483,-0.844088,0.786848,0.785398,1.0
67792696,-1.00788,1.09772,0.785398,1.0
67894485,-1.14131,1.54495,0.785398,1.0
67994520,-0.714839,1.01253,0.696573,0.901912
68094483,-0.287281,0.327437,0.482398,0.824752
68199519,-0.125648,0.0362792,0.287729,0.784988
68298585,-0.136274,0.00250717,0.138128,0.755846
68402543,-0.147652,0.00385921,0.0308439,0.734823
68502482,-0.14892,0.00574601,-0.0342258,0.719631
68602482,-0.146027,0.0041753,-0.0657252,0.708467
68706485,-0.137945,-0.00464411,-0.071688,0.700085
68806481,-0.136893,-0.00382652,-0.061094,0.694783
68906562,-0.120678,0.00506505,-0.0395343,0.692971
69010528,-0.102655,0.00347687,-0.0123872,0.692971
69110562,-0.0948934,0.00373575,0.0125644,0.692971
69214483,-0.0905024,0.0081259,0.033827,0.692971
69314557,-0.0839455,0.00841338,0.051077,0.692971
69414536,-0.0831422,0.000771665,0.0618981,0.692971
69458579,0.0,0.0,0.0,-2.90703
69458579,0.0,0.0,0.0,-8.90702
69458579,0.0,0.0,0.0,-14.907
69458579,0.0,0.0,0.0,-21.147
69458579,0.0,0.0,0.0,-27.147
69458579,0.0,0.0,0.0,-33.387
69458579,0.0,0.0,0.0,-39.3871
69458579,0.0,0.0,0.0,-45.3871
69458579,0.0,0.0,0.0,-51.6271
69458579,0.0,0.0,0.0,-57.6272
69458579,0.0,0.0,0.0,-63.6272
69458579,0.0,0.0,0.0,-69.8672
69458579,0.0,0.0,0.0,-75.8671
69458579,0.0,0.0,0.0,-82.1071
69458579,0.0,0.0,0.0,-88.107
69458579,0.0,0.0,0.0,-94.107
69458579,0.0,0.0,0.0,-100.347
69458579,0.0,0.0,0.0,-106.347
69458579,0.0,0.0,0.0,-112.347
69458579,0.0,0.0,0.0,-118.587
69458579,0.0,0.0,0.0,-124.587
69458579,0.0,0.0,0.0,-130.827
71750513,-0.527349,-1.0549,0.708104,0.692971
71850479,-0.101756,0.135475,0.616671,0.692971
71954698,-0.0716337,0.12084,0.484816,0.692971
72054483,-0.145202,-0.0697089,0.35556,0.692971
72154484,-0.134679,-0.110821,0.237992,0.692971
72258485,-0.106561,-0.0956133,0.138031,0.692971
72358518,-0.091562,-0.0776955,0.0671794,0.692971
72462481,-0.0854926,-0.0718381,0.0195813,0.692971
72562482,-0.0745192,-0.0657488,-0.00672426,0.692971
72662522,-0.0723978,-0.0640177,-0.0168131,0.692971
72766483,-0.0668912,-0.0609097,-0.0142535,0.692971
72866523,1.33242,-3.83972,-0.280908,0.986193
72966483,0.632165,-2.22047,-0.239213,0.986193
73070506,0.195113,-0.840431,-0.179144,0.986193
73170483,0.02781,-0.288724,-0.116187,0.986193
73274513,-0.0339602,-0.102357,-0.0563238,0.986193
73374651,-0.0481893,-0.0532705,-0.00627645,0.986193
73472822,-0.050564,-0.0418652,0.0301985,0.986193
73576768,-0.0473165,-0.0424056,0.0558748,0.986193
73678553,-0.0456031,-0.0410484,0.0694065,0.986193
73778512,-0.0453372,-0.0403712,0.0747262,0.986193
73882536,-0.045066,-0.0398943,0.0720325,0.986193
73982511,-0.0460579,-0.0286758,0.0652624,0.986193
74086539,-0.0447516,-0.0273676,0.0563411,0.986193
74186565,-0.0405049,-0.0294416,0.0476007,0.986193
74238484,0.0,0.0,0.0,-1.89381
74238484,0.0,0.0,0.0,-8.1338
74238484,0.0,0.0,0.0,-14.1338
74238484,0.0,0.0,0.0,-20.1338
74238484,0.0,0.0,0.0,-26.3738
74238484,0.0,0.0,0.0,-32.3738
74238484,0.0,0.0,0.0,-38.6138
74238484,0.0,0.0,0.0,-44.6139
74238484,0.0,0.0,0.0,-50.6139
74238484,0.0,0.0,0.0,-56.854
74238484,0.0,0.0,0.0,-62.854
74238484,0.0,0.0,0.0,-68.854
74238484,0.0,0.0,0.0,-75.0939
74238484,0.0,0.0,0.0,-81.3338
74238484,0.0,0.0,0.0,-87.3338
74238484,0.0,0.0,0.0,-93.3337
74238484,0.0,0.0,0.0,-99.3337
74238484,0.0,0.0,0.0,-105.574
74238484,0.0,0.0,0.0,-111.574
74238484,0.0,0.0,0.0,-117.574
74238484,0.0,0.0,0.0,-123.813
74238484,0.0,0.0,0.0,-129.813
74238484,0.0,0.0,0.0,-136.054
74238484,0.0,0.0,0.0,-142.054
74238484,0.0,0.0,0.0,-148.054
74238484,0.0,0.0,0.0,-154.294
76926490,0.982087,-0.880544,-0.0242981,0.986193
77026488,0.837422,-0.7621,-0.0477131,0.986193
77130560,0.330356,-0.366736,-0.049616,0.986193
77230511,0.102053,-0.199392,-0.0405089,0.986193
77334471,-0.0351174,-0.0574397,-0.0261287,0.986193
77434584,-0.0651834,-0.0264771,-0.00999571,0.986193
77532798,-0.096133,0.019667,0.0058641,0.986193
77636936,-0.101348,0.0346863,0.0210615,0.986193
77738508,-0.0986269,0.0361154,0.0312805,0.986193
77838473,-0.0936219,0.0337739,0.0393064,0.986193
77942528,-0.09442,0.0352147,0.0441752,0.986193
78042486,-0.0935757,0.0314554,0.045367,0.986193
78146554,-0.095698,0.0258928,0.0437988,0.986193
78246483,-0.0922865,0.0256634,0.0401166,0.986193
78346498,-0.0842681,0.0235815,0.0377519,0.986193
78450484,-0.0716473,0.0259642,0.0332233,0.986193
78550629,-0.0680529,0.0212276,0.0297369,0.986193
78650556,-0.0677686,0.0209573,0.0264431,0.986193
78754516,-0.061807,0.021876,0.0239706,0.986193
78854505,-0.0595951,0.0210844,0.0210381,0.986193
78914561,0.0,0.0,0.0,-1.65381
78914561,0.0,0.0,0.0,-7.6538
78914561,0.0,0.0,0.0,-13.6538
78914561,0.0,0.0,0.0,-19.8938
78914561,0.0,0.0,0.0,-25.8938
78914561,0.0,0.0,0.0,-31.8938
78914561,0.0,0.0,0.0,-38.1338
78914561,0.0,0.0,0.0,-44.1339
78914561,0.0,0.0,0.0,-50.3739
78914561,0.0,0.0,0.0,-56.374
78914561,0.0,0.0,0.0,-62.374
78914561,0.0,0.0,0.0,-68.614
78914561,0.0,0.0,0.0,-74.6139
78914561,0.0,0.0,0.0,-80.6139
78914561,0.0,0.0,0.0,-86.8538
78914561,0.0,0.0,0.0,-92.8537
78914561,0.0,0.0,0.0,-99.0937
78914561,0.0,0.0,0.0,-105.094
78914561,0.0,0.0,0.0,-111.094
78914561,0.0,0.0,0.0,-117.334
78914561,0.0,0.0,0.0,-123.333
78914561,0.0,0.0,0.0,-129.333
78914561,0.0,0.0,0.0,-135.574
78914561,0.0,0.0,0.0,-141.574
78914561,0.0,0.0,0.0,-147.814
78914561,0.0,0.0,0.0,-153.814
78914561,0.0,0.0,0.0,-159.814
78914561,0.0,0.0,0.0,-166.054
78914561,0.0,0.0,0.0,-172.054
78914561,0.0,0.0,0.0,-178.295
78914561,0.0,0.0,0.0,-184.295
78914561,0.0,0.0,0.0,-190.295
78914561,0.0,0.0,0.0,-196.535
78914561,0.0,0.0,0.0,-202.535
78914561,0.0,0.0,0.0,-208.535
78914561,0.0,0.0,0.0,-214.775
78914561,0.0,0.0,0.0,-220.776
78914561,0.0,0.0,0.0,-226.776
78914561,0.0,0.0,0.0,-233.016
78914561,0.0,0.0,0.0,-239.016
78914561,0.0,0.0,0.0,-245.256
78914561,0.0,0.0,0.0,-251.256
78914561,0.0,0.0,0.0,-257.256
78914561,0.0,0.0,0.0,-263.496
78914561,0.0,0.0,0.0,-269.496
78914561,0.0,0.0,0.0,-275.496
78914561,0.0,0.0,0.0,-281.735
78914561,0.0,0.0,0.0,-287.735
78914561,0.0,0.0,0.0,-293.975
78914561,0.0,0.0,0.0,-300.215
78914561,0.0,0.0,0.0,-306.214
78914561,0.0,0.0,0.0,-312.454
78914561,0.0,0.0,0.0,-318.454
78914561,0.0,0.0,0.0,-324.454
78914561,0.0,0.0,0.0,-330.693
78914561,0.0,0.0,0.0,-336.693
78914561,0.0,0.0,0.0,-342.693
78914561,0.0,0.0,0.0,-348.933
78914561,0.0,0.0,0.0,-354.932
78914561,0.0,0.0,0.0,-361.172
78914561,0.0,0.0,0.0,-367.172
78914561,0.0,0.0,0.0,-373.172
85254490,-3.83972,1.15512,-0.345963,0.986193
85354482,-3.83972,1.26786,-0.669083,0.986397
85454560,-3.83972,1.15562,-0.945106,0.986138
85558484,-3.83972,0.733013,-1.12545,0.986193
85658641,-3.83972,0.128093,-1.1124,0.986676
85762514,-3.83972,-0.228797,-0.932823,0.986398
85862505,0.690126,-0.690966,-0.626061,0.986138
85962485,1.11215,-0.309485,-0.372354,0.986193
86066522,0.419653,-0.0140592,-0.163125,0.986193
86165015,0.0538918,0.0664274,-0.00629737,0.986193
86268973,-0.115374,0.0867428,0.0958989,0.986536
86370514,-0.168399,0.079973,0.146766,0.986199
86470516,-0.171718,0.0618498,0.160352,0.986676
86574482,-0.139614,0.0466688,0.148026,0.986194
86674538,-0.113717,0.0354037,0.122451,0.986193
86774510,-2.15923,-0.0220111,0.0913533,0.986193
86878488,-3.83972,-0.0531422,0.0604796,0.986225
86978558,-3.79028,-0.0512073,0.03981,0.986195
87078521,-1.90283,-1.12374,-0.0431357,0.986193
87183486,-0.875114,-0.425484,-0.0393737,0.986193
87282469,0.989835,0.443579,-0.00612816,0.986193
87386510,2.29451,0.804435,0.0087645,0.986193
87486584,1.86857,0.368674,-0.0109584,0.986397
87586480,0.84938,0.142667,-0.0132301,0.986138
87690533,0.576868,0.0592324,-0.0172803,0.986193
87790483,-0.472255,0.0397918,-0.0194807,0.986193
87890554,-0.296177,0.0334138,-0.0227023,0.986397
87994516,-0.870106,0.0345129,-0.0243299,0.986138
88094518,-1.32842,0.0367421,-0.0241136,0.986429
88198519,0.158575,0.0201284,-0.0191886,0.802818
88298577,1.17819,0.0164659,-0.0110882,0.261986
88401022,0.568597,0.0249986,0.0055392,0.08
88502523,0.164005,0.0289235,0.00682718,0.08
88602483,-0.00617673,0.0263899,0.00574153,0.08
88702491,-0.0599766,0.025797,0.00463121,0.08
88806517,-0.075027,0.0273577,0.0029084,0.08
88906592,-0.0787112,0.0258619,7.73724e-05,0.08
89010535,-0.0829679,0.0257009,-0.0018369,0.08
89110482,-0.0846223,0.0237019,-0.00369733,0.08
89210619,-0.084064,0.0235769,-0.00505309,0.08
89314487,-0.056893,0.0270965,-0.00623262,0.08
89414510,0.149666,0.0243924,-0.0068922,0.08
89514518,0.392806,0.0219228,-0.00877527,0.08
89618628,0.480921,0.0221853,-0.00976983,0.08
89718484,-0.339795,0.0245864,-0.0100251,0.08
89822504,-0.725084,0.0254421,-0.00887185,0.08
89922517,-0.362424,0.0220154,-0.00788256,0.08
90022489,-0.179274,0.0211497,-0.00702426,0.08
90126485,-0.11074,0.0224419,-0.00618336,0.08
90134523,0.0,0.0,0.0,-5.44
90134523,0.0,0.0,0.0,-11.44
90134523,0.0,0.0,0.0,-17.68
90134523,0.0,0.0,0.0,-23.92
90134523,0.0,0.0,0.0,-29.92
90134523,0.0,0.0,0.0,-35.92
90134523,0.0,0.0,0.0,-41.92
90134523,0.0,0.0,0.0,-48.1601
91038482,-0.0821576,-0.5846,0.00126718,0.08
91138481,-0.0678914,-0.583765,0.00148643,0.08
91242483,-0.0546337,-0.584739,0.000526671,0.08
91342480,-0.0469109,-0.58566,-0.00108918,0.08
91446481,-0.0414313,-0.583348,-0.000473035,0.08
91546484,-0.0402355,-0.584006,-0.00113514,0.08
91646511,-0.0380119,-0.58442,-0.00215508,0.08
91750486,-0.0425374,-0.587287,-0.00261303,0.08
91850502,-0.0432369,-0.586961,-0.00224685,0.08
91950480,-0.0465586,-0.588885,-0.000571066,0.08
92054550,-0.0468536,-0.58852,-0.00133944,0.08
92154525,-0.0484077,-0.58901,-0.000523988,0.08
92258516,-0.0506117,-0.58902,-0.00137186,0.08
92358471,-0.0501089,-0.590822,-0.00116891,0.08
92457166,-0.0501742,-0.593487,-0.00187483,0.08
92560974,-0.049479,-0.593891,-0.0023957,0.08
92662480,-0.0506129,-0.594562,-0.00202571,0.08
92762522,-0.0509877,-0.59405,-0.00271775,0.08
92867485,-0.0495678,-0.595224,-0.00267746,0.08
92966522,-0.0485638,-0.595554,-0.00233402,0.08
93070498,-0.0485034,-0.596585,-0.0023054,0.08
93170502,-0.0479959,-0.598228,-0.00176992,0.08
93270485,-0.0475422,-0.598798,-0.00101469,0.08
93374509,-0.0449728,-0.599019,-0.000981366,0.08
93474481,-0.0429354,-0.601017,-0.000904471,0.08
93575514,-0.043031,-0.599894,-0.00144648,0.08
93678492,-0.042834,-0.602104,-0.00228166,0.08
93778481,-0.0431199,-0.60384,-0.00338332,0.08
93882501,-0.0394927,-0.604436,-0.00347839,0.08
93982524,-0.0396269,-0.605833,-0.00335718,0.08
94082561,-0.0387579,-0.605888,-0.00400852,0.08
94186484,-0.038912,-0.607019,-0.0037145,0.08
94286505,-0.0377719,-0.606007,-0.00330355,0.08
94386556,-0.0391503,-0.606664,-0.0046611,0.08
94490562,-0.0399836,-0.609145,-0.00409584,0.08
94590533,-0.0390674,-0.609368,-0.00408249,0.08
94692935,-0.0352247,-0.609279,-0.00438411,0.08
94794485,-0.0334002,-0.607175,-0.00488545,0.08
94894484,-0.0338615,-0.606768,-0.00595621,0.08
94994581,-0.0344769,-0.609105,-0.00681584,0.08
95098482,-0.0343916,-0.609616,-0.00672833,0.08
95198513,-0.0358453,-0.609614,-0.00627315,0.08
95302640,-0.0372891,-0.609739,-0.00716553,0.08
95402512,-0.0393748,-0.608899,-0.00788681,0.08
95506479,-0.0417728,-0.60887,-0.00859637,0.08
95606522,-0.0424992,-0.610542,-0.00939491,0.08
95706488,-0.0418789,-0.611656,-0.0091639,0.08
95810568,-0.0403681,-0.612147,-0.00873531,0.08
95910518,-0.0389992,-0.614474,-0.00965241,0.08
96010483,-0.0387626,-0.61788,-0.00936882,0.08
96114504,-0.0396929,-0.618666,-0.0090913,0.08
96214482,-0.0402312,-0.617174,-0.00917097,0.08
96318483,-0.0390554,-0.616683,-0.00958327,0.08
96418589,-0.0383761,-0.619157,-0.00991509,0.08
96518519,-0.0369839,-0.620816,-0.012582,0.08
96622498,-0.0374125,-0.620902,-0.0134573,0.08
96722514,-0.0389029,-0.620008,-0.0141812,0.08
96825021,-0.042121,-0.62015,0.000220967,0.186683
96926512,-0.0433894,-0.620263,0.0130116,0.179533
97026483,-0.0625809,-0.618834,0.229919,0.08
97130507,-0.0642611,-0.620336,0.2301,0.08
97230520,-0.0666798,-0.623049,0.229245,0.08
97331624,-0.0680689,-0.620623,0.229899,0.08
97434486,-0.0689074,-0.620942,0.229461,0.08
97535477,-0.0700175,-0.620923,0.22985,0.08
97634527,-0.0673559,-0.618462,0.200105,0.000118491
97738516,-0.0678931,-0.620354,0.200112,1.81895e-06
97838505,-0.0698101,-0.619797,0.200152,1.74214e-08
97942468,-0.0689433,-0.621066,0.200132,0.0
98042562,-0.0673235,-0.622455,0.200096,0.0
98142480,-0.0650021,-0.621476,0.200051,0.0
98246508,-0.0653413,-0.621093,0.200059,0.0
98346563,-0.0651777,-0.620364,0.200057,4.06868e-17
98446475,-0.0672269,-0.619174,0.200101,1.52363e-18
98550523,-0.0672882,-0.620387,0.2001,3.14542e-20
98650482,-0.0696104,-0.621344,0.200145,4.52517e-22
98754535,-0.0679929,-0.61874,0.200118,3.76519e-24
98853060,-0.0703748,-0.619556,0.200164,0.0
98957108,-0.0723903,-0.620124,0.200204,0.0
99058481,-0.0750399,-0.621821,0.200255,0.0
99158560,-0.0748699,-0.62351,0.200249,0.0
99258483,-0.0767612,-0.626012,0.200283,1.33976e-32
99362514,-0.0797816,-0.629439,0.20034,4.27754e-34
99462480,-0.0838347,-0.630021,0.200423,8.26207e-36
99566564,-0.0839528,-0.629726,0.200426,0.0
99666482,-0.0860911,-0.628985,0.200471,0.0
