timestamp,roll,pitch,yaw,thrust
16798536,0.0,0.0,0.0,0.08
16882472,0.0,0.0,0.0,0.08
16910458,0.0,0.0,0.0,0.08
16942468,0.0,0.0,0.0,0.08
16974647,0.0,0.0,0.0,0.08
17007591,0.0,0.0,0.0,0.08
17039526,0.0,0.0,0.0,0.08
17071469,0.0,0.0,0.0,0.08
17102486,0.0,0.0,0.0,0.08
17132623,0.0,0.0,0.0,0.08
17166492,0.0,0.0,0.0,0.08
17195543,0.0,0.0,0.0,0.08
17227582,0.0,0.0,0.0,0.08
17259470,0.0,0.0,0.0,0.08
17291476,0.0,0.0,0.0,0.08
17323476,0.0,0.0,0.0,0.08
17355504,0.0,0.0,0.0,0.08
17386509,0.0,0.0,0.0,0.08
17418491,0.0,0.0,0.0,0.08
17449484,0.0,0.0,0.0,0.08
17479458,0.0,0.0,0.0,0.08
17510555,0.0,0.0,0.0,0.08
17543492,0.0,0.0,0.0,0.08
17575462,0.0,0.0,0.0,0.08
17607456,0.0,0.0,0.0,0.08
17638511,0.0,0.0,0.0,0.08
17666473,0.0,0.0,0.0,0.08
17698475,0.0,0.0,0.0,0.08
17730496,0.0,0.0,0.0,0.08
17761676,0.0,0.0,0.0,0.08
17795471,0.0,0.0,0.0,0.08
17825807,-0.0149503,-0.0110411,0.112277,0.08
17859601,-0.0149366,-0.00856341,0.112231,0.08
17886509,-0.0135698,-0.00878401,0.111403,0.08
17917528,-0.0128784,-0.00812067,0.110841,0.08
17950466,-0.0133306,-0.00991978,0.111102,0.08
17982512,-0.0130401,-0.00951369,0.111312,0.08
18015480,-0.0137386,-0.00926767,0.111091,0.08
18047491,-0.013656,-0.00979657,0.110541,0.08
18078512,-0.0131344,-0.00954491,0.109995,0.08
18111487,-0.0129434,-0.00975404,0.109862,0.08
18139483,-0.0134331,-0.0101428,0.109795,0.08
18171477,-0.014145,-0.0108595,0.110001,0.08
18202487,-0.0137433,-0.0116687,0.109354,0.08
18235529,-0.0131499,-0.0128167,0.108702,0.08
18267477,-0.013583,-0.0135448,0.107944,0.08
18299620,-0.0132307,-0.0131391,0.107049,0.08
18330499,-0.0131053,-0.0122269,0.106536,0.08
18363477,-0.0118255,-0.0131084,0.1064,0.08
18391483,-0.0128861,-0.0133487,0.106112,0.08
18426506,-0.0135675,-0.0127681,5.74569e-06,0.0
18454588,-0.0129431,-0.0121507,5.24265e-06,0.00183348
18489521,-0.0136429,-0.0112582,5.10216e-06,0.0200309
18518485,-0.0130785,-0.0113795,4.94751e-06,0.134856
18551483,-0.0125712,-0.0112895,4.70917e-06,0.188182
18583480,-0.0120334,-0.0112206,0.000774037,0.265561
18615483,-0.0115355,-0.0108224,0.00239677,0.320901
18646193,-0.0113233,-0.0113903,0.00395525,0.395792
18678499,-0.0113728,-0.0121637,0.00249156,0.536793
18707487,-0.0103634,-0.0105455,0.00119283,0.571062
18738605,-0.00849812,-0.00917364,0.000666552,0.594635
18771480,-0.00601845,-0.0061092,0.000299718,0.625074
18803500,-0.00598927,-0.00576193,9.21761e-05,0.625729
18835477,-0.00383966,-0.00406126,-9.17169e-05,0.624114
18867479,-0.00365212,-0.00041759,-0.000228268,0.624131
18898477,-0.0014293,-0.000363827,-0.000457419,0.624279
18926484,-0.00157544,0.0025838,-6.30495e-06,0.624271
18959482,0.000967069,0.000860825,-0.000810507,0.623572
18991477,0.00136907,0.00282291,-0.00166869,0.623231
19023483,0.000499665,0.00403991,-0.0018471,0.623255
19055482,0.0020918,0.00236982,-0.00182563,0.623282
19086512,0.00351935,0.00480163,-0.00260393,0.623484
19118554,0.00342728,0.00145672,-0.00220173,0.622725
19147479,0.00589914,0.00516347,-0.00153151,0.621794
19179480,0.00498358,0.00304452,-0.00188076,0.621728
19213515,0.00513677,0.00202401,-0.00166374,0.621806
19243481,0.00531542,0.00329695,-0.00168585,0.621812
19275472,0.00245266,0.00150887,-0.00224891,0.621793
19307503,0.00360927,0.00166266,-0.00261023,0.621793
19339479,0.000784932,0.000203294,-0.00268903,0.621795
19369541,0.00036152,-0.000541313,-0.00234219,0.621795
19402489,0.00174836,-0.00126912,-0.00201089,0.621795
19431529,-4.04053e-05,0.000335004,-0.00141647,0.621999
19463486,0.0011135,-0.000777097,-0.000549929,0.622278
19496482,-0.00011025,0.00108122,-0.000197271,0.622106
19525432,0.00297378,1.98741e-05,0.000180158,0.621803
19559474,0.00393583,-0.00305817,0.000279138,0.621772
19591466,0.00394935,-0.00196559,0.000179881,0.621798
19623481,0.00629013,-0.00476832,0.000443176,0.621796
19654611,0.00351741,-0.00452074,0.000836941,0.621794
19682482,0.00557114,-0.00761946,0.00125323,0.621795
19715485,0.00296122,-0.0050728,0.00164824,0.621795
19746515,0.00611034,-0.00100612,0.00186113,0.621795
19778482,0.00214323,-0.00343996,0.00222587,0.621795
19811486,0.00245843,-0.00153822,0.00242605,0.621795
19843482,-0.00382326,-0.00546978,0.00245976,0.621795
19875473,-0.0108644,-0.00741873,0.00302118,0.621795
19904490,-0.0102313,-0.0110159,0.00355593,0.621795
19935481,-0.0131336,-0.008651,0.0039351,0.621795
19967486,-0.00872299,-0.0082594,0.00387695,0.621795
19999466,-0.013833,-0.00706453,0.00364198,0.621795
20032469,-0.0113278,-0.00414856,0.00358307,0.621795
20063487,-0.00290043,-0.00098691,0.00355451,0.621795
20095599,-0.00880087,-0.00149932,0.00332668,0.621795
20127532,-0.00680557,0.000793828,0.00282807,0.621795
20154516,-0.0119936,-0.000469279,0.00226951,0.621795
20187483,-0.00751851,0.00056044,0.00100946,0.621795
20218479,-0.00822454,0.00103259,0.000922985,0.622278
20253673,-0.00916919,-0.000151865,0.000677792,0.622341
20282596,-0.00400546,8.88828e-05,0.000374055,0.622286
20315605,-0.00517191,-0.000933395,-0.000668249,0.622283
20347482,-0.00229393,0.000169974,-0.000908034,0.622288
20379541,-0.00179507,0.000530959,-0.000442999,0.622288
20409798,-0.00269595,0.000247212,-0.00022318,0.622288
20439492,-0.00131286,0.00129349,0.000164013,0.622288
20471486,-0.00148378,0.00274267,0.000644912,0.622288
20502637,0.001722,0.00299776,0.000448259,0.622695
20534478,0.00151724,0.00322714,0.000207907,0.627532
20565818,0.00355585,0.0035526,0.000461969,0.663098
20598508,0.00244856,0.00275783,0.000530712,0.674486
20631480,0.00122253,0.0030494,-3.33868e-05,0.69538
20659483,0.00189017,0.00174818,-0.000290902,0.712109
20693738,0.00199917,0.00161693,-0.00083046,0.727544
20721856,-0.000251013,0.00198599,-0.00100209,0.771774
20754598,0.00238304,-7.48352e-05,-0.00113605,0.789303
20786478,0.00115421,-0.00056021,-0.000686026,0.817723
20819538,3.01594e-05,-0.00098209,-0.000879258,0.836349
20851486,0.00270267,-0.00180384,-0.000380152,0.855635
20883481,0.00249591,-0.000802542,-0.000142969,0.883958
20911484,0.00186927,0.000903792,0.000209397,0.895529
20943480,0.00432734,-0.000414868,0.000189902,0.912846
20975601,0.00689192,0.0005122,0.000361213,0.914557
21006525,0.0032454,-0.000982569,0.00028715,0.920302
21039465,0.00557445,-0.000125338,0.000753971,0.937697
21071483,0.00523318,0.000744476,0.000674258,0.938773
21103489,0.00224773,-0.00136564,0.000134947,0.944702
21135484,0.00590461,0.00278901,0.000207098,0.958781
21163483,0.00434667,0.00203362,0.000536918,0.968706
21195604,0.00835819,0.00537151,-1.98278e-06,0.969382
21227525,0.00664834,0.00627181,-0.000779619,0.969294
21258502,0.00690573,0.00535551,-0.000866018,0.973717
21290499,0.00673703,0.00434444,-0.00115553,0.984263
21323469,0.00520658,0.00200106,-0.0011704,0.995386
21354524,0.00325501,0.00277534,-0.00166291,0.998152
21387480,0.000761895,0.000945257,-0.00212631,1.0
21418485,0.000249923,0.00174755,-0.00126964,1.0
21449707,-0.00207141,0.00238923,-0.00101036,0.999958
21479477,-0.00158052,0.00269971,-0.00115833,0.999994
21511481,-0.00165891,0.00319982,-0.000797448,1.0
21543506,-0.00136724,0.00267239,-0.000858064,1.0
21575477,-0.00299334,0.0021187,-0.00131931,0.999999
21605963,0.00184718,0.00126083,-0.000788599,1.0
21639478,0.0035591,0.00335453,-0.000888359,1.0
21666560,0.00393037,0.00259137,-0.000962637,1.0
21698480,0.00427593,0.00214905,-0.0011583,1.0
21731486,0.00335147,0.00283135,-0.000656506,1.0
21761914,0.00348114,0.00536971,-0.000975576,1.0
21795481,0.00274814,0.00432,-0.00107443,1.0
21827466,0.00324549,0.00178587,-0.000925292,1.0
21859493,0.00191975,0.00442942,-0.00111684,1.0
21891477,0.0030559,0.000233308,-0.00129505,1.0
21917567,0.00151929,0.00166143,-0.000804032,1.0
21951551,0.00148666,-0.0014113,-0.00053358,1.0
21982466,0.000823127,-0.00117542,-0.000183111,1.0
22015482,-0.00278797,0.000720798,-8.74709e-05,1.0
22047491,0.000691549,-0.000875302,-0.000572754,1.0
22079469,-0.0012441,0.00190631,-0.000745214,1.0
22111482,-0.00061493,-0.000505573,-0.000981831,1.0
22139466,0.00153108,0.00159939,-0.000814088,1.0
22171487,-0.00224349,-0.0016668,-0.000984988,1.0
22203543,-0.00161738,-0.000444282,-0.000995168,1.0
22235520,-0.00306887,-0.00109299,-0.000768291,1.0
22267468,-0.00124455,-0.00244089,-0.000833486,1.0
22298478,0.000589226,8.96044e-05,-0.000350975,1.0
22331518,0.00167066,-0.00466135,0.000238225,1.0
22363603,0.00331637,0.000205586,0.000811453,1.0
22395469,0.00250987,-0.00207273,0.000316278,1.0
22423480,0.00296066,-0.00192779,-9.74292e-05,1.0
22454472,0.00135053,-0.00251463,-0.000211334,1.0
22489723,0.000601516,-0.00891067,6.80483e-05,1.0
22518636,0.000786687,-0.00560829,0.000573052,1.0
22550499,0.000979483,-0.00648067,0.000550507,1.0
22583480,0.00172506,-0.00610213,0.000845026,1.0
22614502,3.23036e-05,-0.00275697,0.000652595,1.0
22647526,0.00401748,-0.00436611,0.000785936,1.0
22675477,0.00116789,-0.000318178,0.000889713,1.0
22707490,0.00178476,-0.000984417,0.00102314,1.0
22739614,0.00148774,-0.00101802,0.00107654,1.0
22770540,0.00166752,-0.000287298,0.00133472,1.0
22802488,0.000641623,-0.000936036,0.00118291,1.0
22835491,0.000157446,0.00222592,0.00120729,1.0
22867472,0.000175764,0.00173605,0.00125055,1.0
22898465,-0.000582143,0.000928455,0.000628501,1.0
22927591,0.00119172,0.00233981,0.000598588,1.0
22958627,-0.00118607,0.00188247,0.000844905,1.0
22991557,-0.00247382,0.00155653,0.000166665,1.0
23023478,-0.00122651,0.000546203,-0.000213488,1.0
23055479,-0.00303585,0.00281376,9.05831e-05,1.0
23087480,-0.00235975,0.00253382,-0.000138743,1.0
23118566,-0.000396954,0.00471689,-0.000376628,1.0
23150479,-0.0015676,0.000964354,-0.00047082,1.0
23178502,-0.00123417,-0.00112771,-0.00016974,1.0
23213442,-0.00188751,0.000926305,-0.00040898,1.0
23243538,-0.00109171,0.000948889,-0.000725791,1.0
23274499,-0.00132789,0.00159189,-0.000591112,1.0
23307482,0.000443196,0.00192214,-0.00038036,1.0
23339483,0.0002952,0.00166022,-0.000167416,1.0
23369605,0.00217079,0.00377626,-0.000132343,1.0
23403479,0.00330932,0.00239845,-0.000614272,1.0
23430512,0.000486481,0.00290176,-0.000872321,1.0
23463469,0.00109205,0.00453904,-0.00136452,1.0
23495489,-0.00267802,0.00073175,-0.0013415,1.0
23525750,0.00162794,0.00250503,-0.00178346,1.0
23558481,-0.000396989,0.00436024,-0.00166805,1.0
23591465,0.00127419,0.00285776,-0.00177977,1.0
23623484,0.00203056,0.00692661,-0.00190816,1.0
23654520,0.00361798,0.0054186,-0.00203821,1.0
23686510,0.00571962,0.00635502,-0.00195067,1.0
23715484,0.00335788,0.00702278,-0.00178014,1.0
23747477,0.00598636,0.00516138,-0.0015076,1.0
23778603,0.00506665,0.00390498,-0.000938,1.0
23811486,0.00521825,0.00394784,-0.000578767,1.0
23843527,0.00201665,0.00341673,0.000363246,1.0
23875476,0.00163991,0.00206509,0.001315,1.0
23907539,0.000692815,0.00117109,0.00116797,1.0
23935474,-4.08293e-05,0.00104309,0.00141442,1.0
23966465,-0.00141613,-0.00161431,0.00142047,1.0
23999481,-0.00199222,-0.00138054,0.00137305,1.0
24031494,-0.0023231,-0.000427715,0.00170688,1.0
27055517,-1.06595,3.83972,-0.000524557,1.0
27086479,-3.83972,3.83972,-3.49066,1.0
27119491,-3.83972,3.83972,-3.31819,1.0
27151481,-3.83972,3.83972,-3.31959,1.0
27183479,-3.83972,3.83972,-3.4733,1.0
27213622,-3.83972,3.83972,-3.49066,1.0
27243479,-3.83972,3.83972,-3.49066,1.0
27275480,-3.83972,3.83972,-3.49066,1.0
27307587,-3.83972,3.83972,-3.49066,1.0
27338479,-3.83972,3.83972,-3.49066,1.0
27369816,-3.83972,3.83972,-3.49066,1.0
27403495,-3.83972,3.83972,-3.49066,1.0
27435480,-3.22356,3.30305,-3.49066,1.0
27463478,-2.55013,2.76656,-3.49066,1.0
27495485,-1.87414,2.20336,-3.49066,1.0
27525811,-1.2998,1.69355,-3.49066,1.0
27559485,-0.854892,1.25934,-3.49066,1.0
27591481,-0.55942,0.924777,-3.49066,1.0
27623481,-0.291307,0.621199,-3.34237,1.0
27655524,-0.148027,0.409851,-3.10152,1.0
27687478,-0.0459295,0.252962,-2.86866,1.0
27715480,0.0328797,0.131193,-2.62651,1.0
27747607,0.0621521,0.0560988,-2.36109,1.0
27779480,0.11194,-0.0202148,-2.09131,1.0
27811525,0.101713,-0.0318876,-1.82517,1.0
27843466,0.122912,-0.0656137,-1.57437,1.0
27875469,0.127903,-0.0780192,-1.30572,1.0
27907479,0.101079,-0.0605604,-1.05806,1.0
27939473,0.106614,-0.0707711,-0.821916,1.0
27967482,0.0801024,-0.0478694,-0.624643,1.0
27999544,0.0705788,-0.0451937,-0.420743,1.0
28031479,0.0554715,-0.0373884,-0.20176,1.0
28063480,0.0378837,-0.0282167,-0.00717238,1.0
28095483,0.0148922,-0.0171836,0.175515,1.0
28123484,-0.0020554,-0.00418388,0.325961,1.0
28159478,-0.0279545,0.010317,0.506831,1.0
28191480,-0.047685,0.0255143,0.652764,1.0
28219481,-0.0683123,0.0375465,0.770984,1.0
28254325,-0.0905421,0.0549739,0.907373,1.0
28283481,-0.109711,0.069541,1.0017,1.0
28315469,-0.128902,0.0871062,1.09577,1.0
28347512,-0.149034,0.105244,1.17581,1.0
28379480,-0.169859,0.120629,1.24054,1.0
28409670,-0.186008,0.140378,1.29035,1.0
28443481,-0.202027,0.160464,1.32424,1.0
28471477,-0.217666,0.177134,1.34117,1.0
28503477,-0.232279,0.198236,1.34546,1.0
28535477,-0.212946,0.173565,1.33748,1.0
28565491,-0.192954,0.150968,1.31838,1.0
28599466,-0.173607,0.129416,1.28654,1.0
28631480,-0.152923,0.112085,1.24333,1.0
28663483,-0.129936,0.0948006,1.18781,1.0
28695479,-0.111524,0.0763422,1.12199,1.0
28722057,-0.0929597,0.0626603,1.06039,1.0
28755480,-0.0726782,0.0439098,0.978747,1.0
28787577,-0.0521158,0.0240405,0.89489,1.0
28819484,-0.0316386,0.00553768,0.809485,1.0
28851480,-0.014566,-0.0126394,0.724754,1.0
28883492,0.00184076,-0.0276095,0.64022,1.0
28915487,0.0154307,-0.0361851,0.557465,1.0
28947561,0.0289959,-0.0435436,0.478559,1.0
28978550,0.0379827,-0.0480966,0.401904,1.0
29007480,0.0454194,-0.0495199,0.339217,1.0
29039469,0.0532371,-0.0494171,0.271638,1.0
29071466,0.0574054,-0.0451373,0.211497,1.0
29103469,0.0648049,-0.0443821,0.15314,1.0
29135484,0.0683295,-0.038341,0.101146,1.0
29167582,0.0753225,-0.0340987,0.0555002,1.0
29199479,0.0787037,-0.0272287,0.0153842,1.0
29227481,0.0851795,-0.023396,-0.0149588,1.0
29259480,0.0905702,-0.0192399,-0.0441814,1.0
29294006,0.0970365,-0.0124511,-0.0710902,1.0
29323481,0.103596,-0.00789908,-0.0873827,1.0
29355499,0.109171,-0.00125258,-0.101716,1.0
29388519,0.114342,0.00270614,-0.111276,1.0
29419497,0.109079,-0.000355755,-0.117817,1.0
29449590,0.106316,-0.00271523,-0.121804,1.0
29479480,0.096862,-0.00951516,-0.12361,1.0
29511498,0.0904925,-0.0160141,-0.123482,1.0
29543480,0.0837523,-0.0210096,-0.122459,1.0
29575483,0.0775196,-0.0263991,-0.119648,1.0
29605486,0.0717336,-0.0304899,-0.116035,1.0
29639482,0.0671074,-0.0330196,-0.111036,1.0
29671479,0.0625049,-0.0368838,-0.10542,1.0
29699479,0.0622426,-0.0374011,-0.0998859,1.0
29731485,0.0567997,-0.0429661,-0.0941659,1.0
29761564,0.0566175,-0.0422779,-0.0879914,1.0
29795634,0.052827,-0.0478215,-0.0814646,1.0
29827487,0.0515938,-0.0450474,-0.074546,1.0
29859479,0.050421,-0.0457781,-0.0680834,1.0
29891549,0.0489668,-0.0448924,-0.0615771,1.0
29923542,0.0483427,-0.0442347,-0.055397,1.0
29955480,0.0449386,-0.0505861,-0.0484209,1.0
29983466,0.0443005,-0.0481037,-0.0432022,1.0
30014470,0.0420211,-0.0499401,-0.0376933,1.0
30047499,0.0406446,-0.0479528,-0.0331719,1.0
30079482,0.0400408,-0.0456821,-0.0289601,1.0
30111486,0.0393586,-0.0457155,-0.0241114,1.0
30143486,0.0403448,-0.0399634,-0.0202677,1.0
30175478,0.0395114,-0.0429994,-0.0166524,1.0
30207515,0.0398174,-0.0386659,-0.0132759,1.0
30233869,0.0397045,-0.0433034,-0.0112211,1.0
30266485,0.0385124,-0.0414569,-0.00891235,1.0
30299482,0.0378621,-0.0454039,-0.00699071,1.0
30331478,0.0381914,-0.0459957,-0.00505121,1.0
30363480,0.0360659,-0.0446934,-0.00375639,1.0
30395474,0.0356867,-0.0452227,-0.00274518,1.0
30427514,0.0373903,-0.0184686,-0.00155565,1.0
30459466,0.0368371,-0.00566797,-0.0013502,1.0
30487494,0.0395216,-0.047801,-0.00090312,1.0
30519493,0.040601,-0.0592075,-0.000500954,1.0
30552547,0.0374782,-0.0522028,0.000263286,1.0
30583487,0.0377136,-0.0531738,3.56418e-05,1.0
30615487,0.0372567,-0.0496903,0.000368817,1.0
30647519,0.121924,-0.0485653,0.000210798,1.0
30679481,0.917596,-0.045666,0.000855655,1.0
30711480,1.48223,-0.046935,0.00164006,1.0
30739478,2.1525,-0.0432154,0.00193375,1.0
30771482,3.34143,-0.0445332,0.00428437,1.0
30806178,2.80679,-0.0451012,0.00454051,1.0
30835484,2.32715,-0.0449664,0.00496474,1.0
30867523,1.79057,-0.0483534,0.00503071,1.0
30899482,1.34867,-0.0488542,0.00537783,1.0
30929554,0.999805,-0.0544508,0.00566827,1.0
30961618,0.640791,-0.0493538,0.00493875,1.0
30991483,-0.299705,-0.0532987,0.00345639,1.0
31023477,-0.974207,-0.0507937,0.00159714,1.0
31055480,-1.67915,-0.0496056,-0.000716939,1.0
31087513,-2.98995,-0.0502773,-0.00509126,1.0
31117665,-2.89316,-0.0479632,-0.0068742,1.0
31151558,-2.51329,-0.047409,-0.00803769,1.0
31183494,-2.19419,-0.0494951,-0.00986518,1.0
31215549,-1.89688,-0.0463027,-0.0111214,1.0
31243533,-1.59566,-0.0488022,-0.0120603,1.0
31273571,-1.29362,-0.0458464,-0.0131223,1.0
31307518,-0.938782,-0.0516063,-0.0142869,1.0
31339477,-0.610571,-0.0532286,-0.0149937,1.0
31371560,-0.33951,-0.0915468,-0.0156849,1.0
31403550,0.0933732,-0.222613,-0.0179649,1.0
31435477,0.255755,-0.196368,-0.0185408,1.0
31467470,0.436891,-0.02312,-0.0179323,1.0
31495491,0.395998,0.0236873,-0.0186537,1.0
31527480,0.309341,0.0178047,-0.0208777,1.0
31559573,0.244575,-0.000880299,-0.0235817,1.0
31591476,0.180477,-0.0103084,-0.0257821,1.0
31623484,0.136642,-0.0198037,-0.0279161,1.0
31655518,0.0973531,-0.0299125,-0.0298004,1.0
31687481,0.0728592,-0.0369346,-0.0319379,1.0
31719532,0.0530535,-0.0437039,-0.03444,1.0
31747481,0.0395436,-0.0461057,-0.0369084,1.0
31779480,0.033379,-0.0523104,-0.0389681,1.0
31811481,0.0239325,-0.0547442,-0.0403339,1.0
31845767,0.0210441,-0.0583356,-0.0425602,1.0
31875478,0.0142309,-0.0600047,-0.0436071,1.0
31907536,0.0122586,-0.0616567,-0.0444276,1.0
31939482,0.0112805,-0.065124,-0.0452959,1.0
31971466,0.00653083,-0.0630712,-0.0458579,1.0
32001915,0.00921358,-0.0691259,-0.0458288,1.0
32031481,0.00366219,-0.0655326,-0.0458013,1.0
32063482,0.00789651,-0.0669232,-0.0453345,1.0
32095480,0.00487888,-0.0654508,-0.0447588,1.0
32127480,0.00501659,-0.0639942,-0.0434273,1.0
32157742,0.00367752,-0.0638701,-0.0420042,1.0
32191480,0.000321519,-0.0616339,-0.0400485,1.0
32223479,0.00164664,-0.0623332,-0.0379108,1.0
32251481,-0.00531371,-0.0622819,-0.0363983,1.0
32283481,-0.00295544,-0.0626495,-0.0348158,1.0
32314061,-3.83972,-2.33015,0.785398,0.12
32347546,-3.83972,-2.32069,0.785398,0.120171
32379576,-3.83972,-2.31747,0.785398,0.124669
32411497,-3.66255,-2.32881,0.785398,0.131873
32443581,-3.00457,-2.34417,0.785398,0.140539
32475477,-2.34841,-2.32825,0.785398,0.147743
32503469,-1.72208,-2.26503,0.785398,0.153446
32535519,-1.1378,-2.13929,0.785398,0.157914
32567509,-0.608803,-1.95909,0.785398,0.161253
32599544,-0.206507,-1.74618,0.785398,0.163496
32631467,0.0882181,-1.52088,0.785398,0.165045
32663480,0.335153,-1.25687,0.785398,0.166307
32695489,0.461448,-1.00782,0.785398,0.167238
32727467,0.562764,-0.785829,0.785398,0.167829
32755599,0.576208,-0.596102,0.785398,0.168325
32787477,0.593019,-0.437081,0.785398,0.168616
32819493,0.543344,-0.269958,0.785398,0.168966
32851507,0.477014,-0.153427,0.785398,0.169201
32883478,0.410397,-0.0681669,0.785398,0.169358
32915544,0.327004,0.00367238,0.785398,0.169491
32947469,0.259957,0.0417192,0.785398,0.169566
32979479,0.193516,0.0764118,0.785398,0.169619
33007495,0.140345,0.0720318,0.785398,0.169656
33042015,0.0890381,0.0820386,0.785398,0.169676
33071483,0.0530263,0.0688784,0.785398,0.16969
33103481,0.0217585,0.0605073,0.785398,0.169697
33135495,-0.00815947,0.0547438,0.785398,0.169699
33167479,-0.0213335,0.0352025,0.785398,0.169702
33197806,-0.0359333,0.0251625,0.785398,0.169702
33231558,-0.0418535,0.00576613,0.785398,0.169702
33259467,-0.0476543,0.000785299,0.785398,0.169701
33291574,-0.0464819,-0.0159143,0.785398,0.169701
33323482,-0.0451531,-0.0217532,0.785398,0.169701
33353747,-0.0440517,-0.0292834,0.785398,0.1697
33387480,-0.0392508,-0.0362578,0.785398,0.1697
33419477,-0.0357636,-0.0387489,0.785398,0.1697
33451601,-0.0313156,-0.044919,0.785398,0.1697
33483470,-0.029194,-0.0444338,0.785398,0.1697
33509823,-0.0240605,-0.0497619,0.785398,0.1697
33545483,-0.0210954,-0.0479396,0.785398,0.1697
33576592,-0.0160352,-0.0516358,0.785398,0.1697
33607489,-0.0129711,-0.0504396,0.785398,0.1697
33639739,-0.00977905,-0.0525129,0.785398,0.1697
33671479,-0.00718571,-0.0521283,0.785398,0.1697
33703473,-0.00405086,-0.0488201,0.785398,0.169701
33735483,-0.00290074,-0.0483341,0.785398,0.169701
33763481,-0.00121596,-0.0439422,0.785398,0.169702
33795683,-0.00241225,-0.0457446,0.785398,0.169701
33827480,0.000121641,-0.0432638,0.785398,0.169702
33859488,0.00159612,-0.0426551,0.785398,0.169702
33891467,0.00278456,-0.0431888,0.785398,0.169702
33919482,0.00387039,-0.0412138,0.785398,0.169702
33955483,0.00232081,-0.0418617,0.785398,0.169702
33987471,0.0035483,-0.0410281,0.785398,0.169702
34019490,0.00243928,-0.0409311,0.785398,0.169702
34051481,0.00465757,-0.0411371,0.785398,0.169702
34081895,0.0032045,-0.0412648,0.785398,0.169702
34115542,0.00413683,-0.0387942,0.785398,0.169703
34147493,0.00476609,-0.0419894,0.785398,0.169702
34179484,0.00321107,-0.0403195,0.785398,0.169702
34211505,0.00623825,-0.0401002,0.785398,0.169702
34238156,0.00539411,-0.0384962,0.785398,0.169703
34271552,0.00819995,-0.0346862,0.785398,0.169703
34303485,0.00701645,-0.0339163,0.785398,0.169703
34335513,0.00835186,-0.0301351,0.785398,0.169704
34367485,0.0069751,-0.0352165,0.785398,0.169703
34399467,0.00723364,-0.030275,0.785398,0.169704
34431478,0.00854005,-0.0261017,0.785398,0.169704
34463481,0.0105846,-0.031315,0.785398,0.169703
34491481,0.0107136,-0.0221828,0.785398,0.169704
34523482,0.0124429,-0.0255104,0.785398,0.169704
34555498,0.00982068,-0.0249754,0.785398,0.169704
34587490,0.0134008,-0.0265692,0.785398,0.169704
34619481,0.0147807,-0.025603,0.785398,0.201211
34651478,0.0150365,-0.0236159,0.785398,0.264616
34683480,0.0143895,-0.0287089,0.785398,0.316825
34715545,0.0144891,-0.0274572,0.785398,0.361861
34743482,0.0113755,-0.0308235,0.785398,0.400592
34775647,0.0148944,-0.0314249,0.785398,0.437433
34807494,0.0130251,-0.030737,0.785398,0.46986
34839477,0.0150246,-0.031024,0.785398,0.498282
34871479,0.0113924,-0.031545,0.785398,0.521831
34903486,0.0119926,-0.0275679,0.785398,0.544402
34935507,0.0133736,-0.0281561,0.785398,0.56324
34965576,0.011269,-0.0243498,0.785398,0.579983
34995493,0.0167675,-0.025146,0.785398,0.593013
35027518,0.0151804,-0.0201201,0.785398,0.605622
35059483,0.0186465,-0.0206781,0.785398,0.618519
35091495,0.0154594,-0.0189352,0.785398,0.628834
35121614,0.0206337,-0.015996,0.785398,0.63858
35155494,0.0243617,-0.0182881,0.785398,0.647636
35187478,0.0237895,-0.0139651,0.785398,0.655587
35219497,0.0290201,-0.0183193,0.785398,0.662627
35247550,0.0344045,-0.0145745,0.785398,0.668689
35277649,0.0387598,-0.0181972,0.785398,0.674746
35311485,0.0412487,-0.0190652,0.785398,0.680323
35343482,0.0431826,-0.0219375,0.785398,0.685268
35375482,0.0432669,-0.0238543,0.785398,0.689686
35407482,0.0487678,-0.0217861,0.785398,0.693867
35439466,0.0489084,-0.0218211,0.785398,0.69767
35471536,0.0503895,-0.0183156,0.785398,0.700656
35499478,0.0454942,-0.0205315,0.785398,0.702566
35531482,0.0442488,-0.0160928,0.785398,0.704336
35563481,0.0486368,-0.0173099,0.785398,0.706308
35595478,0.0508942,-0.0129849,0.785398,0.707886
35627484,0.0521023,-0.013862,0.785398,0.708873
35659480,0.0539895,-0.0139554,0.785398,0.70979
35691480,0.0522,-0.0133071,0.785398,0.710305
35723535,0.0619599,-0.013477,0.723214,0.710761
35751485,0.0662236,-0.0128235,0.665317,0.711154
35783497,0.0711916,-0.00947223,0.592252,0.711149
35815483,0.0693124,-0.0180557,0.524454,0.710816
35847484,0.0765901,-0.11614,0.464832,0.69986
35879477,0.0704524,-0.253628,0.411022,0.685647
35911620,0.0650873,-0.329103,0.358598,0.676725
35939483,0.0481327,-0.494968,0.321656,0.658511
35975479,0.0405223,-0.572879,0.272547,0.648398
36005606,0.0353236,-0.575814,0.231256,0.642588
36035481,0.0157418,-0.624272,0.200075,0.633869
36067480,0.0161539,-0.585529,0.165532,0.629917
36099481,0.00301766,-0.631014,0.138062,0.619596
36131598,0.00254276,-0.597477,0.109933,0.614205
36162034,-0.00373502,-0.595974,0.0890238,0.60694
36195480,-0.00946972,-0.572429,0.0687945,0.60085
36227478,-0.0111689,-0.549429,0.0512228,0.594217
36255478,0.00458092,-0.504824,0.0373119,0.590328
36287466,0.00624739,-0.469135,0.0245227,0.58475
36317674,-6.95281e-05,-0.44891,0.0154571,0.57875
36351596,0.00159772,-0.417168,0.00745589,0.573534
36383466,0.00299723,-0.388943,0.00166645,0.568354
36415489,0.00613282,-0.370869,-0.00263671,0.563023
36447483,0.0119235,-0.355232,-0.00390006,0.557844
36479466,0.0117945,-0.370736,-0.00349624,0.552041
36507479,0.00869505,-0.344382,-0.00343915,0.54852
36539489,0.00843855,-0.337212,-0.00222753,0.544491
36571599,0.0181185,-0.32194,-1.89271e-05,0.540768
36603538,0.024485,-0.314739,0.00319271,0.537074
36635517,0.020345,-0.323264,0.00755433,0.533016
36667479,0.0262749,-0.292776,0.010927,0.53045
36699499,0.0278791,-0.293469,0.0156192,0.5272
36731479,0.0243367,-0.265134,0.0205458,0.524906
36759598,0.0385072,-0.248575,0.0241769,0.523061
36791480,0.0279873,-0.249716,0.0295539,0.520343
36823477,0.0365448,-0.228394,0.0343,0.518365
36855548,0.037125,-0.216021,0.0392199,0.516275
36887484,0.0404207,-0.206526,0.0433638,0.514579
36919480,0.0420334,-0.191943,0.0481364,0.512967
36951469,-0.0133025,-0.483634,0.0663569,0.502639
36983517,-0.0890087,-0.823807,0.0860631,0.492088
37011470,-0.148571,-1.06915,0.10059,0.485342
37045945,-0.182791,-1.27649,0.115232,0.480398
37075481,-0.224598,-1.42752,0.12461,0.477842
37107484,-0.236031,-1.49871,0.13178,0.477704
37139491,-0.257235,-1.57369,0.13607,0.478618
37171483,-0.255862,-1.5764,0.1372,0.481286
37201914,-0.26853,-1.56349,0.135383,0.484556
37235481,-0.260332,-1.51422,0.132325,0.488614
37263476,-0.240261,-1.4624,0.12881,0.492149
37295544,-0.232527,-1.39711,0.123031,0.496732
37327483,-0.215425,-1.32066,0.115197,0.501133
37357598,-0.205751,-1.24678,0.107239,0.505368
37391477,-0.195891,-1.16349,0.0982619,0.50956
37423482,-0.188778,-1.09109,0.0889348,0.513845
37455623,-0.184542,-1.01717,0.0798316,0.518436
37487469,-0.175837,-0.947074,0.070647,0.522917
37514102,-0.18171,-0.882305,0.0628668,0.527036
37547535,-0.170835,-0.81988,0.0542,0.531351
37579482,-0.160633,-0.749555,0.0459573,0.535619
37611485,-0.149961,-0.692404,0.0379111,0.540197
37643512,-0.142435,-0.630331,0.0311583,0.544308
37675640,-0.138293,-0.559576,0.0252752,0.547156
37707486,-0.125343,-0.518854,0.018595,0.55208
37739479,-0.11762,-0.471931,0.0132174,0.556235
37767479,-0.109163,-0.438273,0.00878844,0.560274
37799513,-0.092265,-0.387917,0.00599058,0.56353
37831482,-0.0899659,-0.310427,0.00451218,0.565348
37864488,-0.080152,-0.301229,0.002002,0.570231
37895478,-0.07065,-0.260099,0.00050043,0.572766
37927465,-0.0604198,-0.24289,-0.000234238,0.575831
37959465,-0.0486924,-0.209748,9.09076e-05,0.578202
37991522,-0.0442376,-0.232039,-0.00174498,0.5835
38019540,-0.0334298,-0.157756,0.00149082,0.581632
38051481,-0.0305954,-0.122209,0.00307602,0.583202
38085677,-0.0176823,-0.117557,0.00451368,0.585605
38115482,-0.0170039,-0.0785344,0.00708527,0.58553
38147482,-0.0154789,-0.100588,0.00762973,0.588878
38179485,-0.00250753,-0.0398422,0.012069,0.587011
38211481,0.00619933,-0.0119226,0.0151567,0.586963
38242198,0.011704,0.00929037,0.0180565,0.587178
38271549,0.0214075,0.00836574,0.0197558,0.588406
38303572,0.0256974,-0.00967641,0.0214057,0.590378
38335472,0.0347699,0.0505458,0.0266964,0.58726
38367482,0.0456959,0.0704122,0.0306453,0.585907
38397929,0.0525017,0.0896035,0.0337902,0.584708
38431478,0.0694717,0.100546,0.036632,0.58363
38463470,0.0699876,0.108348,0.0392255,0.582754
38495533,0.0742724,0.131417,0.0426969,0.580935
38523514,0.0767493,0.166174,0.0469041,0.578036
38553663,0.0802863,0.177543,0.0498752,0.576487
38587480,0.0856059,0.195252,0.052209,0.574304
38619480,0.0884441,0.218816,0.0547632,0.571931
38651479,0.0937931,0.230046,0.0562478,0.57001
38683480,0.0975811,0.252522,0.0577669,0.567544
38715473,0.105459,0.309782,0.0608598,0.563245
38747580,0.10549,0.286736,0.0614325,0.562446
38775469,0.110273,0.283416,0.0622451,0.561534
38807466,0.111823,0.30535,0.0640708,0.558554
38839480,0.113647,0.321027,0.0650118,0.555913
38871478,0.123086,0.363718,0.0663703,0.551818
38903484,0.114868,0.33896,0.0653126,0.550618
38936568,0.106714,0.326235,0.0647012,0.548848
38967479,0.115646,0.376803,0.0658247,0.544691
38999479,0.10743,0.385914,0.0653705,0.542042
39027480,0.0970885,0.406358,0.0655357,0.539565
39059482,0.096326,0.408351,0.0642523,0.537062
39091480,0.0927358,0.421603,0.0635096,0.534303
39125595,0.0999164,0.422682,0.0628659,0.53184
39155480,0.0995097,0.44684,0.0624179,0.529122
39187483,0.092651,0.423446,0.0603268,0.527877
39219489,0.099067,0.462782,0.0588675,0.524185
39251517,0.0982032,0.474747,0.0571,0.522297
39279475,0.105355,0.468197,0.0552577,0.521041
39311479,0.101406,0.486806,0.0534032,0.518906
39343618,0.0949199,0.461576,0.0515567,0.51812
39375477,0.0979419,0.505985,0.0499532,0.515334
39407530,0.0973286,0.508771,0.0480516,0.513688
39437751,0.0963926,0.511497,0.0465159,0.512284
39471553,0.0983197,0.523641,0.0440154,0.510586
39503482,0.0936626,0.510879,0.0418735,0.509515
39531480,0.0819619,0.510124,0.039837,0.508353
39563553,0.0807793,0.510895,0.0375102,0.507435
39593965,0.0730769,0.507714,0.0348346,0.506496
39627496,0.074153,0.503179,0.0323453,0.505755
39659561,0.0684981,0.50105,0.0302905,0.505084
39691477,0.0667734,0.498171,0.0284901,0.504588
39723499,0.0589885,0.49398,0.0260965,0.504111
39755480,0.0553176,0.503254,0.0243553,0.503577
39787484,0.0497282,0.485029,0.0226398,0.503642
39819484,0.0446404,0.486006,0.0205807,0.503495
39851487,0.0408844,0.4746,0.0188775,0.503423
39883567,0.0344055,0.468376,0.017339,0.503506
39915483,0.031564,0.449623,0.0156641,0.503683
39947503,0.0323991,0.444794,0.0141668,0.503702
39979479,0.0331469,0.444505,0.0117539,0.503809
40009700,0.0351265,0.430367,0.0106706,0.504057
40039481,0.0369986,0.437267,0.00940203,0.504495
40071554,0.0376719,0.430441,0.00843972,0.504778
40103546,0.0360424,0.416243,0.00807616,0.505222
40135473,0.0333572,0.408546,0.00714038,0.50592
40165643,0.0326908,0.393896,0.00646383,0.506341
40199537,0.0303328,0.383661,0.00578755,0.506701
40231466,0.0184946,0.37203,0.00555602,0.507021
40259480,0.0111508,0.346082,0.00547141,0.507154
40291479,0.0153878,0.335223,0.00550217,0.507834
40321626,0.0167824,0.323333,0.00551421,0.508522
40355607,0.0208153,0.307718,0.00515563,0.508902
40387478,0.0163803,0.291864,0.0051698,0.509313
40419488,0.0171299,0.279429,0.0051443,0.509644
40451481,0.0103151,0.269733,0.00553981,0.510125
40483478,0.00951209,0.246247,0.00633982,0.510601
40515482,0.00486596,0.239494,0.00646578,0.511297
40547480,0.00541276,0.228489,0.0070243,0.511793
40581708,0.012557,0.231555,0.00719016,0.512764
40611491,0.00572139,0.207069,0.00819642,0.512685
40643477,0.00435289,0.201153,0.00842267,0.51316
40675500,0.00635136,0.173274,0.00952065,0.513259
40707483,0.00892883,0.173026,0.00978278,0.513934
40737654,0.00689035,0.145033,0.0103042,0.513745
40767619,0.0058881,0.161856,0.0105903,0.514629
40799478,0.00923447,0.171793,0.0106044,0.515126
40831478,0.00968998,0.139332,0.0106989,0.514745
40863510,0.0120084,0.130596,0.0109378,0.514723
40893880,0.0063627,0.122015,0.0117694,0.514703
40927466,0.0083832,0.122322,0.0125536,0.514691
40959502,0.0107037,0.108493,0.0130897,0.514725
40987480,0.000662469,0.0825031,0.0133662,0.514029
41019480,-0.00370242,0.0698804,0.0130582,0.513848
41049894,-0.00952012,0.0608061,0.012615,0.513659
41083479,-0.00783758,0.0497136,0.0123841,0.513504
41115473,-0.00634194,0.0336249,0.0127098,0.513324
41147482,-0.00717657,0.0169952,0.0129114,0.512968
41179484,-0.00529793,0.00318975,0.0126992,0.512621
41211480,-0.00303855,-0.011099,0.0124778,0.511998
41244510,-0.00278062,-0.00672496,0.0119518,0.51172
41275483,0.00456947,0.00834345,0.0111896,0.511754
41309727,-0.00363476,-0.0165873,0.0107538,0.510664
41339481,0.00124009,-0.00489852,0.0102682,0.510645
41371511,0.000559473,-0.0035854,0.00978637,0.51047
41403546,-0.0001976,-0.0364843,0.00938939,0.509198
41435483,0.00231124,-0.0444702,0.00860627,0.508554
41465633,-0.0023226,-0.0611973,0.00792992,0.50761
41497506,-0.00536403,-0.0858195,0.00771789,0.506339
41527483,-0.00876026,-0.0796905,0.00690963,0.505963
41559483,-0.00838673,-0.106443,0.00610072,0.504799
41591519,-0.00674178,-0.115777,0.00599419,0.504153
41621743,-0.0126988,-0.121526,0.00559015,0.503518
41655585,-0.0202979,-0.139842,0.00470102,0.50268
41687479,-0.0173082,-0.132947,0.00446485,0.502171
41712782,-0.0142998,-0.158521,0.00471172,0.501203
41747554,-0.0121818,-0.118406,0.00430471,0.501278
41777615,-0.00768064,-0.134481,0.00398026,0.500267
41811564,-0.00952566,-0.126489,0.00320174,0.499756
41843469,-0.00166818,-0.129709,0.00323667,0.499176
41875481,-0.00521146,-0.131761,0.00293838,0.498442
41907524,-0.00683009,-0.135709,0.00288857,0.497534
41939488,-0.0138199,-0.166698,0.00285299,0.496512
41967481,-0.0153243,-0.156558,0.00298046,0.496108
41999482,-0.0137737,-0.162646,0.00311335,0.495497
42031555,-0.0107815,-0.166217,0.00287941,0.494852
42064597,-0.0175533,-0.167614,0.001342,0.494369
42095563,-0.0193272,-0.214086,0.00158133,0.493366
42127483,-0.0238786,-0.177429,0.0016492,0.493536
42159466,-0.0193715,-0.180588,0.00178578,0.493165
42191497,-0.0200972,-0.185523,0.00126026,0.49248
42219498,-0.0289304,-0.204699,0.000659257,0.491927
42249730,-0.0249304,-0.217081,0.000289233,0.491345
42283479,-0.0293809,-0.195347,0.000213686,0.491145
42315480,-0.0318466,-0.202314,-0.000199513,0.490826
42347615,-0.0382311,-0.185837,-0.000440756,0.490457
42379479,-0.0440682,-0.186391,-0.000643873,0.489989
42411483,-0.0477996,-0.180928,-0.000413022,0.489738
42443487,-0.0504673,-0.178461,9.19915e-05,0.489335
42471465,-0.047876,-0.167078,0.000204067,0.489109
42504534,-0.0472847,-0.16992,0.000525822,0.488788
42535537,-0.0466618,-0.171124,0.000649005,0.48846
42567476,-0.0479195,-0.176727,0.000510007,0.488412
42599484,-0.0502271,-0.183995,-0.000107076,0.488227
42631483,-0.049058,-0.18604,-0.000722567,0.488034
42663476,-0.0447767,-0.188855,-0.000984386,0.488078
42693775,-0.0490507,-0.185986,-0.00153743,0.488019
42723478,-0.0457517,-0.200632,-0.00198464,0.487822
42755480,-0.0491988,-0.199585,-0.00253893,0.487709
42787478,-0.048684,-0.196496,-0.00279352,0.487744
42821724,-0.0494193,-0.188932,-0.00253223,0.487756
42851551,-0.0489017,-0.190238,-0.00261175,0.487889
42883483,-0.0551975,-0.185641,-0.00267127,0.487848
42915483,-0.0479818,-0.184765,-0.0032123,0.48789
42947599,-0.0431714,-0.188099,-0.0033534,0.487963
42977658,-0.0352448,-0.185027,-0.00310703,0.488045
43007612,-0.0427313,-0.175559,-0.00339702,0.488148
43039532,-0.0362733,-0.17079,-0.00344985,0.488401
43071480,-0.0303277,-0.166918,-0.00374651,0.488673
43103479,-0.0302861,-0.167034,-0.00401861,0.488731
43133981,-0.0208239,-0.165576,-0.0042753,0.488756
43167596,-0.0204178,-0.163431,-0.00440257,0.488786
43199519,-0.016827,-0.166086,-0.00528523,0.488947
43227479,-0.0164651,-0.162125,-0.00548235,0.489102
43259482,-0.0156906,-0.162354,-0.00574283,0.489298
43289832,-0.0199247,-0.156107,-0.00524172,0.489667
43323597,-0.0187896,-0.151344,-0.0055855,0.48997
43355534,-0.018251,-0.145844,-0.00498035,0.490171
43387482,-0.0191409,-0.147006,-0.00474829,0.490374
43419478,-0.0237675,-0.14604,-0.00494196,0.490569
43451469,-0.0237634,-0.138025,-0.00380029,0.490752
43483482,-0.0256527,-0.133273,-0.00276963,0.491119
43515480,-0.0197731,-0.121281,-0.00267215,0.491365
43549690,-0.020165,-0.124514,-0.00261445,0.491874
43575483,-0.00722936,-0.119887,-0.00245455,0.491929
43611470,-0.0169239,-0.119318,-0.00301702,0.492114
43643491,-0.00975231,-0.109337,-0.00282169,0.49234
43675497,-0.00464738,-0.108791,-0.00246703,0.492529
43705712,-0.00418069,-0.109366,-0.00218533,0.492727
43735479,-0.00392865,-0.111443,-0.00194203,0.492879
43769484,-0.00947218,-0.120291,-0.00183508,0.493197
43799477,0.00507471,-0.104875,-0.00168571,0.493091
43831595,0.000636405,-0.101451,-0.00189498,0.493348
43862107,0.00567904,-0.0931515,-0.00178043,0.49345
43895478,0.00042987,-0.0893042,-0.00146147,0.493571
43927482,-0.00111405,-0.0910079,-0.0020405,0.493784
43955473,0.00765749,-0.0818755,-0.00234134,0.493643
43987480,0.00537936,-0.0803317,-0.00269005,0.493743
44017697,0.0158367,-0.0686242,-0.00227487,0.49364
44051600,0.010421,-0.0679163,-0.00247423,0.493661
44083486,0.0233676,-0.0586569,-0.00158236,0.493744
44115482,0.0278694,-0.0530782,-0.001428,0.493871
44147479,0.0224655,-0.0463256,-0.00105223,0.494037
44179481,0.0382473,-0.0353096,-0.000491437,0.493931
44211513,0.0276703,-0.0375884,-0.000802651,0.494263
44243482,0.0280533,-0.0335074,-0.000114988,0.494395
44277663,0.0246281,-0.0332356,0.000371338,0.494487
44307519,0.0236394,-0.0295271,0.000888181,0.494659
44339471,0.0203769,-0.0359596,0.000596663,0.494679
44371482,0.0244778,-0.0232656,0.000760412,0.494447
44403599,0.0199401,-0.0189499,0.000887965,0.49442
44433983,0.0146292,-0.0149607,0.00088514,0.494415
44463498,0.0161335,-0.0242121,0.00124432,0.494696
44495465,0.00986988,-0.0356126,0.000639507,0.495007
44527493,0.0177182,-0.0137525,0.00124017,0.494764
44559479,0.0218425,-0.0180427,0.00110106,0.494851
44589757,0.0221859,-0.0032309,0.00109245,0.494962
44623599,0.0212057,-0.00536895,0.000668653,0.495107
44655534,0.0251732,-0.00110498,0.000380229,0.495036
44683478,0.0221238,0.012731,0.000536809,0.494887
44715478,0.0294655,0.0155124,0.000833971,0.494543
44746180,0.0291007,0.0215396,0.000918125,0.494579
44779600,0.0314743,0.0186986,0.00158983,0.494528
44811483,0.0309871,0.0275083,0.00146395,0.494374
44844585,0.0280666,0.0180713,0.00141113,0.494166
44875471,0.0374137,0.0202937,0.00098902,0.493909
44907588,0.031474,0.0342937,0.00140649,0.493797
44936529,0.0338485,0.00489909,0.00167971,0.493901
44967471,0.0303175,0.0194613,0.00159897,0.493864
44999480,0.0439704,0.0192111,0.00149195,0.493797
45031477,0.0345916,0.0251374,0.00134095,0.493741
45063486,0.0482736,0.0261432,0.00126411,0.493535
45095534,0.043786,0.0194187,0.00161934,0.493595
45127466,0.0523753,0.0213908,0.0011532,0.493412
45159468,0.047485,0.0240232,0.00185396,0.493209
45187477,0.0504611,0.0376964,0.0024578,0.492888
45219498,0.0447266,0.0420007,0.00266095,0.493034
45251488,0.0434261,0.0365044,0.00318169,0.493073
45283482,0.0435757,0.0431882,0.00289353,0.492712
45315484,0.041055,0.043808,0.00283148,0.492506
45347556,0.0423246,0.0521889,0.00366029,0.492336
45379466,0.0340369,0.0526906,0.00341516,0.492293
45411491,0.0380435,0.0598847,0.00376825,0.492292
45439485,0.033168,0.0522916,0.00336131,0.492485
45473738,0.0359264,0.0606559,0.00330737,0.492083
45503481,0.0371708,0.0585462,0.00312117,0.492112
45535537,0.0363839,0.0404558,0.00301144,0.492049
45567478,0.0415955,0.0528895,0.00247892,0.49181
45599468,0.0388326,0.0546263,0.00213313,0.491668
45629616,0.0429678,0.0599257,0.00185772,0.491461
45663595,0.0407838,0.0653288,0.00202768,0.491326
45691466,0.0421222,0.0643116,0.00208056,0.491118
45723485,0.0424062,0.0522254,0.00223325,0.491218
45755478,0.0424313,0.0514036,0.00259308,0.491136
45786552,0.0450575,0.0612285,0.00236315,0.490945
45819479,0.0466586,0.0620103,0.00215355,0.490765
45851479,0.0428069,0.0632691,0.0025208,0.490477
45883627,0.0380869,0.0655897,0.00234683,0.490422
45915472,0.0383471,0.0640862,0.00223684,0.490426
45942109,0.0348208,0.084795,0.00267756,0.490315
45975549,0.0281959,0.0736753,0.00198867,0.490325
46007474,0.0292076,0.0760565,0.0025964,0.49018
46039478,0.0214963,0.0733437,0.00258383,0.490286
46071621,0.0234693,0.0701345,0.00250048,0.490094
46103480,0.021079,0.0754317,0.00289297,0.49003
46135479,0.0203328,0.0666268,0.00285907,0.489896
46167479,0.0255377,0.067669,0.00254789,0.490008
46195480,0.0192509,0.0706971,0.00263408,0.489936
46227535,0.0194461,0.0737096,0.00277008,0.49005
46259529,0.0116898,0.0715005,0.00304042,0.489848
46291597,0.0139759,0.0672883,0.00367152,0.489992
46323504,0.0149439,0.0719324,0.00408038,0.490004
46355477,0.016178,0.0717938,0.00339984,0.489857
46387479,0.0137035,0.0701539,0.00303858,0.489631
46419480,0.00669347,0.0623578,0.00219494,0.489602
46451520,0.0114197,0.0678565,0.00216264,0.489587
46483477,0.00397359,0.0595528,0.00198098,0.489683
46513935,0.00339172,0.0639701,0.00231697,0.489724
46547501,0.00335621,0.062554,0.00275655,0.489535
46579480,0.00367147,0.0577221,0.00256116,0.489694
46611560,0.00184414,0.0564802,0.00245789,0.489654
46643539,0.00344631,0.0516093,0.00265691,0.489631
46669677,0.00727343,0.0498677,0.00221536,0.489746
46703479,0.00836575,0.0404727,0.00226194,0.489781
46735479,0.00803962,0.0438123,0.00296139,0.489703
46767481,0.00754142,0.0445689,0.00325346,0.489533
46799588,0.00858612,0.0420424,0.00331661,0.489606
46831479,0.00595655,0.0419954,0.00336747,0.489908
46863512,-0.00253856,0.0423739,0.00366739,0.490039
46895482,-0.00487684,0.0395644,0.00352305,0.490001
46923482,-0.00626203,0.0458986,0.00319022,0.490005
46955480,-0.00645553,0.0465423,0.00307457,0.489906
46987498,-0.00915751,0.0426813,0.00257087,0.489808
47019558,-0.0110921,0.0395162,0.00252233,0.489843
47051485,-0.0132133,0.0440807,0.00212844,0.489527
47083535,-0.0156072,0.0381137,0.00201075,0.489485
47115482,-0.0203614,0.0391657,0.00207202,0.489417
47147468,-0.011439,0.0392606,0.00174058,0.489549
47175489,-0.0169364,0.0409432,0.00186986,0.489645
47207481,-0.0138975,0.0439466,0.00155899,0.489642
47241920,-0.0105791,0.0316532,0.00150468,0.489517
47271513,-0.0137172,0.0323939,0.00164685,0.489665
47303501,-0.0100771,0.035792,0.00212889,0.489689
47335501,-0.0143234,0.0350989,0.00216706,0.489597
47367479,-0.00698364,0.0346981,0.00279679,0.489609
47399484,-0.0183369,0.0374531,0.0027084,0.489627
47427477,-0.00749797,0.0266104,0.00289403,0.489641
47459691,-0.0146222,0.0310938,0.00310088,0.48968
47491483,-0.0143577,0.0227069,0.00292541,0.489641
47523486,-0.0143836,0.0229442,0.00281057,0.489837
47554104,-0.0176789,0.0188373,0.00293186,0.489874
47587487,-0.0153102,0.0144047,0.00279682,0.490072
47619466,-0.017643,0.0122727,0.00254284,0.490109
47651465,-0.0163746,0.00698403,0.002219,0.490128
47679499,-0.0188842,0.0118398,0.00168172,0.489976
47711470,-0.0193849,0.0148054,0.00235381,0.489936
47743483,-0.0239278,0.0132723,0.00246479,0.490164
47777523,-0.00933139,0.00845466,0.00215203,0.490368
47807472,-0.0160241,0.00581102,0.00247351,0.490428
47839493,-0.0112775,0.00215691,0.00260389,0.490355
47871482,-0.0152998,0.00425916,0.00316716,0.490287
47903477,-0.0165382,-0.000387217,0.00291313,0.490293
47933469,-0.0146712,0.000570504,0.00280564,0.490102
47965798,-0.019371,-0.00300399,0.00285349,0.490022
47995480,-0.0251881,-0.000824367,0.00231748,0.490034
48027481,-0.027757,0.00136154,0.00172286,0.490045
48059482,-0.0287899,-0.00651702,0.00189505,0.489848
48091479,-0.0236225,-0.00614048,0.002052,0.48972
48121846,-0.207604,-0.0308895,0.001794,0.561214
48151529,-0.19138,-0.0454294,0.00121921,0.559042
50495486,3.83972,-3.83972,0.245211,0.557988
50527497,3.83972,-3.83972,0.329842,1.0
50559483,3.83972,-3.83972,0.381564,1.0
50591525,3.83972,-3.83972,0.471185,1.0
50617703,3.83972,-3.83972,0.55252,1.0
50651480,3.83972,-3.83972,0.623606,0.12
50683466,3.83972,-3.83972,0.719732,0.563519
50716485,3.83972,-3.83972,0.785398,1.0
50747482,3.61359,-3.83972,0.785398,1.0
50779484,3.00215,-3.83972,0.785398,1.0
50811516,2.36404,-3.83972,0.785398,1.0
50839481,1.87329,-3.83972,0.785398,1.0
50871477,1.4209,-3.30499,0.785398,1.0
50903487,1.04604,-2.57109,0.785398,1.0
50935483,0.767825,-1.94665,0.785398,1.0
50967481,0.542352,-1.43364,0.785398,1.0
50999536,0.396897,-1.04603,0.785398,1.0
51031494,0.265402,-0.7379,0.732911,1.0
51063554,0.192429,-0.520324,0.666714,1.0
51095478,0.121152,-0.360052,0.599771,1.0
51124481,0.0765272,-0.255608,0.541037,1.0
51155686,0.0667074,-0.19331,0.475061,1.0
51189944,0.0303477,-0.129295,0.403258,1.0
51219515,0.0425248,-0.117769,0.349527,1.0
51251482,0.0318206,-0.0979178,0.291586,1.0
51283554,0.0317072,-0.08926,0.237448,1.0
51315473,0.0478501,-0.0965352,0.187311,1.0
51346001,0.0155356,-0.0712575,0.141443,1.0
51375485,0.0250879,-0.0779458,0.105041,1.0
51407479,0.00879514,-0.064672,0.0677247,1.0
51439539,0.0192663,-0.0702558,0.0337612,1.0
51471557,0.0273262,-0.0709102,0.00528905,1.0
51501982,0.0394469,-0.0744139,-0.0183663,1.0
51535480,0.0488503,-0.0757767,-0.0382339,1.0
51567481,0.0510722,-0.0723055,-0.0533111,1.0
51599482,0.0623425,-0.0757643,-0.0653023,1.0
51627470,0.0665608,-0.0720907,-0.0724019,1.0
51657702,0.070957,-0.0761485,-0.0781913,1.0
51690424,0.0739559,-0.0793743,-0.0815562,1.0
51724598,0.0702773,-0.0763462,-0.0823829,1.0
51755477,0.0757188,-0.0843128,-0.0821491,1.0
51787466,0.0689298,-0.0802982,-0.0800981,1.0
51819539,0.0710339,-0.0867745,-0.0771594,1.0
51851466,0.068268,-0.0878453,-0.0727983,1.0
51879466,0.0656573,-0.0877413,-0.0684622,1.0
51911470,0.0661341,-0.0917428,-0.0624671,1.0
51943469,0.0549841,-0.0835944,-0.0560432,1.0
51975481,0.0577942,-0.0888084,-0.0501157,1.0
52007480,0.0541548,-0.0849989,-0.0430617,1.0
52039481,0.0544774,-0.0841405,-0.03599,1.0
52071532,0.0537414,-0.0839453,-0.0296097,1.0
52103466,0.0501518,-0.0764164,-0.0234524,1.0
52131493,0.0477476,-0.0773322,-0.0181631,1.0
52163477,0.0441323,-0.0699472,-0.0114904,1.0
52195481,0.04201,-0.0729892,-0.00564187,1.0
52229524,0.0402794,-0.0674525,-0.000666477,1.0
52259479,0.0402217,-0.0651123,0.00398804,1.0
52291490,0.0373556,-0.0621773,0.00819184,1.0
52323479,0.039288,-0.050362,0.0124118,1.0
52355578,0.0365419,-0.0519274,0.0163165,1.0
52385746,0.0375046,-0.0408726,0.019761,1.0
52415469,0.0342179,-0.0468976,0.0218591,1.0
52448546,0.0353089,-0.039262,0.0238312,1.0
52479478,0.0331797,-0.0458952,0.0256528,1.0
52511556,0.0306941,-0.045175,0.0272524,1.0
52542617,0.030501,-0.0523711,0.0286799,1.0
52575481,0.0292289,-0.0530275,0.0292768,1.0
52607550,0.0282528,-0.0469458,0.0291027,1.0
52635480,0.0270535,-0.0522518,0.0296033,1.0
52667481,-1.58744,0.368467,0.0504353,0.999347
52698030,-1.6665,0.390377,0.0530884,0.947659
52731640,-1.4765,0.35115,0.0548499,0.910325
52763533,-1.2983,0.313492,0.0568011,0.867466
52767469,-1.26814,0.312501,0.0577143,0.862815
54751488,-3.83972,1.66351,0.164128,0.857588
54783517,3.83972,-1.42356,0.135561,1.0
54815487,3.83972,-0.902865,0.556843,1.0
54847482,-0.396639,-0.123239,0.690377,1.0
54875479,-3.83972,0.388657,0.59492,1.0
54907514,-3.83972,0.768847,0.319933,1.0
54939490,-3.83972,1.87916,-0.0202518,1.0
54971481,3.83972,0.576696,0.3572,1.0
55003479,3.83972,0.246203,0.672582,1.0
55035572,3.83972,-0.0444469,0.785398,0.12
55067480,3.83972,-0.142055,0.785398,0.12
55099482,3.83972,-0.230565,0.785398,0.752001
55127485,3.83972,-0.176812,0.785398,1.0
55159466,3.83972,-0.257036,0.785398,1.0
55194195,3.83972,-0.341758,0.785398,1.0
55223556,3.83972,-0.402354,0.785398,1.0
55255522,3.83972,-0.458599,0.785398,1.0
55287478,3.83972,-0.510482,0.785398,1.0
55319537,3.83972,-0.546582,0.785398,1.0
55349761,3.83972,-0.578281,0.785398,1.0
55379500,3.83972,-0.592579,0.745934,1.0
55411466,3.83972,-0.598875,0.688285,1.0
55443553,3.83972,-0.593717,0.62993,1.0
55475482,3.83972,-0.579815,0.571674,1.0
55506014,3.83972,-0.558562,0.513304,1.0
55539481,3.56816,-0.530749,0.457682,1.0
55567486,3.22009,-0.499919,0.4112,1.0
55601528,2.83963,-0.4672,0.356422,1.0
55631495,2.55813,-0.435502,0.314074,1.0
55661981,2.32978,-0.4099,0.269362,1.0
55693993,2.13043,-0.377197,0.226347,1.0
55727479,1.99554,-0.351378,0.190257,1.0
55759518,1.89162,-0.327751,0.156471,1.0
55791483,1.8095,-0.297108,0.125005,1.0
55823595,1.76264,-0.279199,0.0997997,1.0
55855477,1.71492,-0.252476,0.0742609,1.0
55883482,1.69582,-0.238943,0.055852,1.0
55915481,1.66961,-0.216092,0.0375058,1.0
55947484,1.65939,-0.200702,0.0216109,1.0
55979583,1.64539,-0.182801,0.00887372,1.0
56011540,1.63167,-0.166019,-0.0046003,1.0
56043480,1.62712,-0.160657,-0.0129309,1.0
56075481,1.60488,-0.145294,-0.0208208,1.0
56107481,1.5963,-0.141612,-0.0265217,1.0
56135466,1.57645,-0.128258,-0.0302382,1.0
56167484,1.56626,-0.126566,-0.0343481,1.0
56199513,1.54699,-0.116728,-0.037412,1.0
56231481,1.53628,-0.116076,-0.0381206,1.0
56264534,1.51694,-0.109714,-0.038645,1.0
56295477,1.49939,-0.105515,-0.0381686,1.0
56327479,1.49026,-0.108015,-0.0368122,1.0
56359580,1.46668,-0.102406,-0.034881,1.0
56389884,1.44878,-0.100636,-0.0318468,1.0
56419516,1.42858,-0.0934213,-0.0300743,1.0
56451528,1.40957,-0.0908904,-0.026884,1.0
56483480,1.39384,-0.0872917,-0.0234165,1.0
56515483,1.37524,-0.0853987,-0.0200016,1.0
56546217,1.3557,-0.0836467,-0.0164908,1.0
56579513,1.33916,-0.0815846,-0.0133532,1.0
56611477,1.31928,-0.0800298,-0.00931214,1.0
56639514,1.30678,-0.0775358,-0.00673932,1.0
56671478,1.28763,-0.0780438,-0.00326531,1.0
56701820,1.27381,-0.0748846,4.07681e-06,1.0
56735559,1.25599,-0.0741932,0.00289911,1.0
56767542,1.24157,-0.0711416,0.0058107,1.0
56799484,1.22479,-0.0683495,0.00880738,1.0
56831481,1.21055,-0.0679005,0.0113912,1.0
56863497,1.19805,-0.0658677,0.0137289,1.0
56895515,1.18119,-0.0681817,0.0162869,1.0
56927466,1.17085,-0.0638892,0.0177345,1.0
56959480,1.15655,-0.0662175,0.0199424,1.0
56991484,3.83972,-1.29458,0.174248,0.987344
57019482,3.83972,-1.25983,0.17881,0.97985
57053519,0.682066,0.126605,0.014854,1.0
57085470,3.83972,-1.08373,0.173577,0.988476
57117750,3.83972,-1.0688,0.177098,0.98576
57147465,-0.00146027,0.373392,0.000470916,1.0
57179484,-0.0827675,0.396991,-0.00442874,1.0
57211482,1.16381,0.0826503,-0.00988111,1.0
57244481,3.83972,-0.92677,0.164745,0.969855
57273939,3.83972,-0.829672,0.156644,0.989331
57307479,1.93661,-0.0952466,0.000672115,1.0
57339483,1.77959,-0.0582017,-0.00135532,1.0
57367480,1.70927,-0.0278694,-0.00164349,1.0
57399477,1.74184,-0.082526,0.00228687,1.0
59523483,-3.83972,3.83972,-0.265645,1.0
59551537,-2.01592,-0.427719,-0.680903,1.0
59583469,3.83972,-3.83972,-0.785398,1.0
59614151,-3.83972,3.83972,0.405072,1.0
59647466,-3.83972,2.23877,-0.567319,1.0
59679469,2.53581,-3.83972,-0.785398,1.0
59711513,3.83972,-3.83972,-0.785398,1.0
59743477,-3.83972,3.83972,0.212555,1.0
59775481,-3.83972,3.83972,-0.574228,1.0
59803484,-2.02773,0.0270001,-0.785398,1.0
59835479,2.26424,-3.83972,-0.785398,1.0
59867490,3.83972,-3.83972,-0.785398,1.0
59899514,3.83972,-3.83972,-0.725629,1.0
59931533,-3.83972,3.83972,0.34206,1.0
59964506,-3.83972,3.83972,-0.14108,1.0
59995632,-3.83972,3.83972,-0.54628,1.0
60027481,-3.83972,3.83972,-0.785398,0.12
60055485,-3.83972,3.83972,-0.785398,0.360094
60087514,-3.83972,3.83972,-0.785398,0.999378
60119483,-3.83972,3.83972,-0.785398,1.0
60151480,-3.83972,3.83972,-0.785398,1.0
60183477,-3.83972,3.83972,-0.785398,1.0
60215554,-3.83972,3.83972,-0.785398,1.0
60244470,-3.83972,3.83972,-0.785398,1.0
60275510,-3.47302,3.83972,-0.785398,1.0
60307497,-3.11477,3.83972,-0.776818,1.0
60342289,-2.75783,3.83972,-0.644919,1.0
60371481,-2.53688,3.51801,-0.544487,1.0
60403477,-2.34676,3.10829,-0.433348,1.0
60435561,-2.22939,2.74905,-0.325816,1.0
60467482,-2.16639,2.42353,-0.225415,1.0
60497907,-2.15245,2.16357,-0.131174,1.0
60531486,-2.1656,1.94855,-0.0525658,1.0
60559494,-2.19067,1.80484,0.0099505,1.0
60591491,-2.22479,1.66181,0.0684785,1.0
60623567,-2.25325,1.57097,0.116183,1.0
60653897,-2.27505,1.49592,0.150783,1.0
60687537,-2.27444,1.44885,0.175669,1.0
60719474,-2.25732,1.41915,0.191746,1.0
60751293,-2.23151,1.40032,0.19977,1.0
60783483,-2.18609,1.39103,0.203308,1.0
60811565,-2.14537,1.38496,0.200947,1.0
60843477,-2.0742,1.39634,0.19772,1.0
60875481,-2.00887,1.40417,0.189517,1.0
60907486,-1.93458,1.4148,0.179207,1.0
60940470,-1.85894,1.43252,0.167803,1.0
60971474,-1.79497,1.43687,0.154418,1.0
61003482,-1.72687,1.44765,0.141688,1.0
61035493,-1.6671,1.44911,0.127874,1.0
61065859,-1.60576,1.45648,0.115851,1.0
61095478,-1.56296,1.45488,0.105385,1.0
61127479,-1.51151,1.45922,0.0937986,1.0
61159512,-1.46991,1.45698,0.0830716,1.0
61191477,-1.43382,1.44873,0.073422,1.0
61221814,-1.4015,1.44376,0.0639774,1.0
61255477,-1.37505,1.43328,0.0556209,1.0
61287476,-1.35314,1.42217,0.0483539,1.0
61315484,-1.33872,1.41332,0.0428482,1.0
61347476,-1.31833,1.39785,0.0365915,1.0
61378162,-1.3067,1.38819,0.0317415,1.0
61412539,-1.2904,1.36869,0.0280093,1.0
61444477,-1.27938,1.355,0.0248256,1.0
61475494,-1.26894,1.34271,0.0222157,1.0
61507515,-1.25678,1.32795,0.0195365,1.0
61539562,-1.25103,1.31515,0.018076,1.0
61567479,-1.23952,1.30162,0.0162718,1.0
61599960,-1.23284,1.28985,0.0151856,1.0
61631534,-1.22055,1.27359,0.0140885,1.0
61664488,-1.21135,1.26339,0.0124403,1.0
61695541,-1.19981,1.24805,0.011239,1.0
61727470,-1.1899,1.23919,0.00991593,1.0
61759511,-1.1802,1.22619,0.00872033,1.0
61791477,-1.16885,1.21533,0.00683332,1.0
61819537,-1.16174,1.20659,0.00524902,1.0
61851531,-1.14821,1.19422,0.00375566,1.0
61883515,-1.13912,1.18439,0.00190894,1.0
61915501,-1.12867,1.17407,-0.000328872,1.0
61947488,-1.11569,1.16502,-0.00296677,1.0
61979511,-1.10647,1.15351,-0.00565493,1.0
62011512,-1.09059,1.14185,-0.008536,1.0
62043479,-1.0804,1.13212,-0.0113843,1.0
62071483,-1.06809,1.12352,-0.0138052,1.0
62105978,-3.65313,3.83972,0.304537,0.973112
62135546,-0.828459,0.876694,-0.0207674,1.0
62167485,-0.502672,0.534255,-0.0279176,1.0
62199520,-0.403619,0.432627,-0.0351732,1.0
62231483,-0.467624,0.497261,-0.0418011,1.0
62261963,-0.529923,0.565673,-0.0481472,1.0
62295486,-3.36817,3.83972,0.333368,0.966215
62323586,-0.351147,0.342653,-0.062846,1.0
62355527,-0.264953,0.238056,-0.0732009,1.0
62387515,-3.05755,3.83972,0.32025,0.983146
62417925,-3.00538,3.83972,0.310813,0.994662
62451480,0.103769,-0.267343,-0.104161,1.0
62483512,-0.745247,0.873192,-0.0860655,1.0
62515483,-2.71797,3.8359,0.2836,0.966119
62547466,-1.18436,1.45788,-0.0341849,1.0
62573834,-1.2861,1.58585,-0.00536521,1.0
62607515,-2.18248,3.01313,0.24915,0.98872
62639490,-2.03415,2.78642,0.237421,0.966555
62671470,1.03007,-1.78109,-0.0605572,1.0
62703510,1.10581,-1.92178,-0.07541,1.0
62735466,0.898387,-1.64069,-0.086431,1.0
62767481,0.617009,-1.23822,-0.095001,1.0
62799492,0.332458,-0.824358,-0.101071,1.0
62828480,0.0726747,-0.438466,-0.104748,1.0
62859576,-0.150852,-0.100392,-0.107665,1.0
62891512,-0.346439,0.202559,-0.109101,1.0
62923483,-0.485034,0.421226,-0.109991,1.0
62955473,-0.580598,0.576564,-0.111237,1.0
62987482,-0.653783,0.693465,-0.112853,1.0
63019512,-0.681631,0.744195,-0.114588,1.0
63051505,-0.715793,0.797035,-0.115972,1.0
63079512,-0.724124,0.811783,-0.117677,1.0
63111498,-0.737382,0.828599,-0.119911,1.0
63143530,-0.742232,0.837635,-0.121418,1.0
63175478,-0.739024,0.821711,-0.122234,1.0
63207481,-0.738936,0.812394,-0.12356,1.0
63239511,-0.729106,0.802038,-0.123182,1.0
63271466,-0.728922,0.783449,-0.123493,1.0
63302023,-0.719445,0.771367,-0.1228,1.0
63331480,-0.713727,0.759208,-0.121102,1.0
63363518,-0.708476,0.749305,-0.118459,1.0
63395469,-0.699705,0.739831,-0.115476,1.0
63428480,-0.696411,0.728202,-0.111632,1.0
63458097,-0.687049,0.720848,-0.107638,1.0
63491479,-0.679313,0.710864,-0.102875,1.0
63523466,-0.672405,0.704976,-0.0975643,1.0
63555512,-0.661815,0.69644,-0.0920004,1.0
63583477,-0.659949,0.68904,-0.0875665,1.0
63613962,-0.647468,0.682853,-0.0815684,1.0
63647479,-0.639668,0.673904,-0.0756921,1.0
63679479,-0.634263,0.665519,-0.0700602,1.0
63711482,-0.622647,0.659564,-0.0639912,1.0
63743481,-0.619241,0.649867,-0.0581485,1.0
63775583,-0.614514,0.643097,-0.0536105,1.0
63807483,-0.603871,0.637592,-0.0477063,1.0
63835512,-0.602854,0.628295,-0.043254,1.0
63867497,-0.590413,0.622601,-0.0387043,1.0
63899466,-0.588832,0.612754,-0.0345296,1.0
63931483,-0.581713,0.606536,-0.0296743,1.0
63963480,-0.576236,0.598913,-0.0268095,1.0
63995527,-0.57389,0.591004,-0.0234866,1.0
64023513,-0.567114,0.584864,-0.0211498,1.0
64059507,-0.56117,0.579256,-0.0180571,1.0
64087480,-0.551319,0.572508,-0.0160609,1.0
64119478,-0.545654,0.57108,-0.0137023,1.0
64151469,-0.538004,0.564815,-0.0125851,1.0
64183477,-0.533043,0.561112,-0.0110918,1.0
64215516,-0.527636,0.555966,-0.00985268,1.0
64248552,-0.522017,0.549304,-0.0086249,1.0
64279510,-0.520473,0.544803,-0.00829018,1.0
64311501,-0.51379,0.537336,-0.00678392,1.0
64327482,-0.51462,0.537266,-0.00645005,1.0
67591487,-3.83972,3.83972,0.03177,1.0
67623503,-3.83972,3.83972,-1.81298,1.0
67656504,-3.83972,3.83972,-1.7056,1.0
67687514,-3.83972,3.83972,-1.79487,1.0
67715483,-3.83972,3.83972,-1.92138,1.0
67751467,-3.83972,3.83972,-2.13198,1.0
67783480,-3.83972,3.83972,-2.31638,1.0
67811486,-3.83972,3.83972,-2.47481,1.0
67843494,-3.83972,3.83972,-2.64941,1.0
67877905,-3.83972,3.83972,-2.82247,1.0
67911480,-3.83972,3.62577,-2.95564,1.0
67943520,-3.83972,3.01603,-3.05945,1.0
67975485,-3.83972,2.49697,-3.10795,1.0
68007485,-3.83972,1.99435,-3.11686,1.0
68034222,-3.83972,1.62339,-3.08724,1.0
68067472,-3.74025,1.27569,-3.0181,1.0
68099556,-3.04708,1.00776,-2.91686,1.0
68131466,-2.40579,0.796688,-2.78007,1.0
68163483,-1.89251,0.641917,-2.62774,1.0
68195479,-1.46271,0.534012,-2.44741,1.0
68227479,-1.11385,0.466808,-2.24817,1.0
68259487,-0.875234,0.396754,-2.03863,1.0
68287481,-0.719836,0.348229,-1.85158,1.0
68319555,-0.603867,0.294961,-1.637,1.0
68351479,-0.52407,0.261453,-1.43266,1.0
68383480,-0.464725,0.233853,-1.21653,1.0
68415481,-0.430633,0.215263,-1.00968,1.0
68447541,-0.401586,0.211626,-0.823274,1.0
68479483,-0.388171,0.210252,-0.640558,1.0
68511483,-0.378589,0.210023,-0.468172,1.0
68543503,-0.367781,0.214761,-0.304962,1.0
68575533,-0.362789,0.214795,-0.152752,1.0
68605915,-0.360161,0.219925,-0.0101594,1.0
68639488,-0.358854,0.22334,0.121632,1.0
68671565,-0.354615,0.226367,0.247465,1.0
68703484,-0.351364,0.228235,0.355771,1.0
68735481,-0.346901,0.233661,0.457084,1.0
68762685,-0.346467,0.233539,0.537594,1.0
68795479,-0.34126,0.237193,0.619899,1.0
68827480,-0.339761,0.236631,0.691355,1.0
68859536,-0.33238,0.243687,0.752659,1.0
68891554,-0.328044,0.242837,0.803339,1.0
68923526,-0.318868,0.249192,0.841577,1.0
68955560,-0.312161,0.254107,0.871257,1.0
68987480,-0.310347,0.256662,0.888758,1.0
69015488,-0.303219,0.26225,0.895361,1.0
69047481,-0.30175,0.264546,0.892213,1.0
69079481,-0.295402,0.271867,0.87897,1.0
69111655,-0.288023,0.277739,0.852913,1.0
69143494,-0.28751,0.27913,0.821229,1.0
69175523,-0.283795,0.282843,0.781085,1.0
69207483,-0.279593,0.286022,0.734829,1.0
69239466,-0.279813,0.286351,0.684731,1.0
69267492,-0.276266,0.289079,0.637817,1.0
69299554,-0.267909,0.280258,0.582675,1.0
69334060,-0.256843,0.271339,0.520333,1.0
69364554,-0.247201,0.265437,0.472403,1.0
69396560,-0.236173,0.256794,0.415964,1.0
69427476,-0.228326,0.255433,0.364488,1.0
69459479,-0.21799,0.250597,0.314601,1.0
69490393,-0.210049,0.248049,0.267373,1.0
69519563,-0.201744,0.244044,0.22842,1.0
69551538,-0.194707,0.242591,0.187044,1.0
69583515,-0.18919,0.241747,0.149584,1.0
69615482,-0.184521,0.240607,0.114865,1.0
69646382,-0.179805,0.238624,0.0838199,1.0
69679484,-0.17553,0.237017,0.0570854,1.0
69711473,-0.172473,0.235789,0.0325617,1.0
69739638,-0.16955,0.2343,0.0156584,1.0
69771531,-0.164891,0.231718,-0.00182115,1.0
69802031,-0.165011,0.231759,-0.0153555,1.0
69835483,-0.159172,0.229622,-0.026391,1.0
69867553,-0.159809,0.22748,-0.0345309,1.0
69899495,-0.165158,0.220969,-0.0409416,1.0
69931480,-0.172148,0.211273,-0.0460943,1.0
69957969,-0.177309,0.205463,-0.049339,1.0
69995477,-0.181743,0.195717,-0.0521271,1.0
70023519,-0.182683,0.18905,-0.0528871,1.0
70055530,-0.185221,0.184099,-0.0534145,1.0
70087479,-0.184847,0.177666,-0.0526035,1.0
70119483,-0.18438,0.174735,-0.0512596,1.0
70151481,-0.186212,0.169344,-0.049517,1.0
70183481,-0.185025,0.167044,-0.0472608,1.0
70215486,-0.186333,0.161869,-0.0443476,1.0
70247469,-0.185638,0.161057,-0.0411347,1.0
70275478,-0.185144,0.158371,-0.0383298,1.0
70307481,-0.18399,0.155072,-0.0345339,1.0
70339485,-0.182538,0.152185,-0.0309879,1.0
70371479,-0.180506,0.150142,-0.0266791,1.0
70403484,-0.178848,0.148533,-0.0228502,1.0
70435478,-0.176793,0.14471,-0.019169,1.0
70467466,-0.175071,0.145613,-0.0157668,1.0
70499486,-0.172668,0.145112,-0.0119875,1.0
70530202,-0.172659,0.145138,-0.00864651,1.0
70559480,-0.171744,0.143874,-0.00598741,1.0
70591495,-0.168118,0.141449,-0.00475841,1.0
70623477,-0.16684,0.14189,-0.00258006,1.0
70655479,-0.165766,0.138784,1.92725e-05,1.0
70685961,-0.163382,0.142298,0.00266231,1.0
70719481,-0.16226,0.139605,0.00466462,1.0
70751555,-0.160388,0.139704,0.00605984,1.0
70779488,-0.16042,0.138853,0.00748302,1.0
70811487,-0.157461,0.135298,0.00913779,1.0
70842281,-0.156734,0.136642,0.00961124,1.0
71127481,-0.139264,0.123437,0.0111804,1.0
71159466,-0.135973,0.121606,0.0103809,1.0
71191597,-0.133239,0.117337,0.00961602,1.0
71223482,-0.131085,0.118526,0.00861976,1.0
71255488,-0.128594,0.112878,0.00846471,1.0
