timestamp,roll_body,pitch_body,yaw_body,yaw_sp_move_rate,q_d[0],q_d[1],q_d[2],q_d[3],thrust,landing_gear,q_d_valid,roll_reset_integral,pitch_reset_integral,yaw_reset_integral,fw_control_yaw,disable_mc_yaw_control,apply_flaps
121635484,0.0,-0.0,0.021207,0.0,0.999944,0.0,0.0,0.0106033,0.0,-1.0,1,0,0,0,0,0,0
121755054,0.0,-0.0,0.0215109,0.0,0.999942,0.0,0.0,0.0107552,0.0,-1.0,1,0,0,0,0,0,0
121854063,0.0,-0.0,0.0217191,0.0,0.999941,0.0,0.0,0.0108593,0.0,-1.0,1,0,0,0,0,0,0
121958811,0.0,-0.0,0.0216821,0.0,0.999941,0.0,0.0,0.0108409,0.0,-1.0,1,0,0,0,0,0,0
122058396,0.0,-0.0,0.0217799,0.0,0.999941,0.0,0.0,0.0108898,0.0,-1.0,1,0,0,0,0,0,0
122158153,0.0,-0.0,0.021946,0.0,0.99994,0.0,0.0,0.0109728,0.0,-1.0,1,0,0,0,0,0,0
122262171,0.0,-0.0,0.0217624,0.0,0.999941,0.0,0.0,0.010881,0.0,-1.0,1,0,0,0,0,0,0
122363059,0.0,-0.0,0.0210666,-0.0465229,0.999945,0.0,0.0,0.0105331,0.186732,-1.0,1,0,0,0,0,0,0
122462052,0.0,-0.0,0.01987,0.111238,0.999951,0.0,0.0,0.00993486,0.484477,-1.0,1,0,0,0,0,0,0
122567044,0.0,-0.0,0.0644139,0.490627,0.999481,0.0,0.0,0.0322014,0.528085,-1.0,1,0,0,0,0,0,0
122667424,0.0,-0.0,0.113724,0.507074,0.998384,0.0,0.0,0.0568313,0.536849,-1.0,1,0,0,0,0,0,0
122767766,0.0,-0.0,0.13924,-0.0233855,0.997577,0.0,0.0,0.0695636,0.538389,-1.0,1,0,0,0,0,0,0
122871395,0.0,-0.0,0.138573,1.75383e-06,0.997601,0.0,0.0,0.0692313,0.534456,-1.0,1,0,0,0,0,0,0
122971015,0.0,-0.0,0.138566,2.74137e-05,0.997601,0.0,0.0,0.0692278,0.534187,-1.0,1,0,0,0,0,0,0
123074072,0.0,-0.0,0.138567,3.48459e-07,0.997601,0.0,0.0,0.0692278,0.534567,-1.0,1,0,0,0,0,0,0
123175418,0.0,-0.0,0.138567,1.98027e-09,0.997601,0.0,0.0,0.0692278,0.533457,-1.0,1,0,0,0,0,0,0
123275480,0.0,-0.0,0.138567,-3.04791e-10,0.997601,0.0,0.0,0.0692278,0.53456,-1.0,1,0,0,0,0,0,0
123378366,0.0,-0.0,0.138567,-4.59871e-12,0.997601,0.0,0.0,0.0692278,0.534312,-1.0,1,0,0,0,0,0,0
123479589,0.0,-0.0,0.138567,1.1845e-13,0.997601,0.0,0.0,0.0692278,0.533511,-1.0,1,0,0,0,0,0,0
123582447,0.0,-0.0,0.138567,3.1744e-15,0.997601,0.0,0.0,0.0692278,0.534535,-1.0,1,0,0,0,0,0,0
123681791,0.0,-0.0,0.138567,5.58363e-17,0.997601,0.0,0.0,0.0692278,0.492679,-1.0,1,0,0,0,0,0,0
123786169,0.0,-0.0,0.138567,6.68063e-19,0.997601,0.0,0.0,0.0692278,0.460728,-1.0,1,0,0,0,0,0,0
123882183,0.0,-0.0,0.138567,-3.07125e-20,0.997601,0.0,0.0,0.0692278,0.460577,-1.0,1,0,0,0,0,0,0
123987433,0.0,-0.0,0.138567,-6.33129e-22,0.997601,0.0,0.0,0.0692278,0.4623,-1.0,1,0,0,0,0,0,0
124087403,0.0,-0.0,0.138567,3.1638e-24,0.997601,0.0,0.0,0.0692278,0.464746,-1.0,1,0,0,0,0,0,0
124190191,0.0,-0.0,0.138567,2.6966e-25,0.997601,0.0,0.0,0.0692278,0.46602,-1.0,1,0,0,0,0,0,0
124290735,0.0,-0.0,0.138567,6.72919e-27,0.997601,0.0,0.0,0.0692278,0.466127,-1.0,1,0,0,0,0,0,0
124394053,0.0,-0.0,0.138567,3.26989e-29,0.997601,0.0,0.0,0.0692278,0.466437,-1.0,1,0,0,0,0,0,0
124494010,0.0,-0.0,0.138567,-2.02147e-30,0.997601,0.0,0.0,0.0692278,0.46604,-1.0,1,0,0,0,0,0,0
124594032,0.0,-0.0,0.138567,-1.42673e-31,0.997601,0.0,0.0,0.0692278,0.466011,-1.0,1,0,0,0,0,0,0
124698015,0.0,-0.0,0.138567,-1.0845e-33,0.997601,0.0,0.0,0.0692278,0.466469,-1.0,1,0,0,0,0,0,0
124798136,0.0,-0.0,0.138567,1.03489e-35,0.997601,0.0,0.0,0.0692278,0.466525,-1.0,1,0,0,0,0,0,0
124898860,0.0,-0.0,0.138567,1.80193e-36,0.997601,0.0,0.0,0.0692278,0.465985,-1.0,1,0,0,0,0,0,0
125003359,0.0,-0.0,0.138567,1.91971e-38,0.997601,0.0,0.0,0.0692278,0.466468,-1.0,1,0,0,0,0,0,0
125102040,0.0,-0.0,0.138567,2.51225e-41,0.997601,0.0,0.0,0.0692278,0.466525,-1.0,1,0,0,0,0,0,0
125206030,0.0,-0.0,0.138567,-4.81346e-42,0.997601,0.0,0.0,0.0692278,0.466128,-1.0,1,0,0,0,0,0,0
125307424,0.0,-0.0,0.138567,-2.83062e-43,0.997601,0.0,0.0,0.0692278,0.466468,-1.0,1,0,0,0,0,0,0
125406069,0.0,-0.0,0.138567,-4.2039e-45,0.997601,0.0,0.0,0.0692278,0.466525,-1.0,1,0,0,0,0,0,0
125506141,0.0,-0.0,0.138567,0.0,0.997601,0.0,0.0,0.0692278,0.465985,-1.0,1,0,0,0,0,0,0
125612026,0.0,-0.0,0.138567,0.0,0.997601,0.0,0.0,0.0692278,0.46633,-1.0,1,0,0,0,0,0,0
125709485,0.0,-0.0,0.138567,0.0,0.997601,0.0,0.0,0.0692278,0.467443,-1.0,1,0,0,0,0,0,0
125813264,0.0,-0.0,0.138567,0.0,0.997601,0.0,0.0,0.0692278,0.467456,-1.0,1,0,0,0,0,0,0
125914356,0.0,-0.0,0.138567,0.0,0.997601,0.0,0.0,0.0692278,0.467511,-1.0,1,0,0,0,0,0,0
126014437,0.0,-0.0,0.138567,0.0,0.997601,0.0,0.0,0.0692278,0.466965,-1.0,1,0,0,0,0,0,0
126119488,0.0,-0.0,0.138567,0.0,0.997601,0.0,0.0,0.0692278,0.466409,-1.0,1,0,0,0,0,0,0
126219072,0.0,-0.0,0.138567,0.0,0.997601,0.0,0.0,0.0692278,0.467466,-1.0,1,0,0,0,0,0,0
126322168,0.0,-0.0,0.138567,0.0,0.997601,0.0,0.0,0.0692278,0.503097,-1.0,1,0,0,0,0,0,0
126422071,0.0,-0.0,0.138567,0.0,0.997601,0.0,0.0,0.0692278,0.50479,-1.0,1,0,0,0,0,0,0
126522382,0.0,-0.0,0.138567,0.0,0.997601,0.0,0.0,0.0692278,0.50493,-1.0,1,0,0,0,0,0,0
126627841,0.0,-0.0,0.138567,0.0,0.997601,0.0,0.0,0.0692278,0.505414,-1.0,1,0,0,0,0,0,0
126726401,0.0,-0.0,0.138567,0.0,0.997601,0.0,0.0,0.0692278,0.504904,-1.0,1,0,0,0,0,0,0
126830461,0.0,-0.0,0.138567,0.0,0.997601,0.0,0.0,0.0692278,0.50493,-1.0,1,0,0,0,0,0,0
126930022,0.0,-0.0,0.138567,0.0,0.997601,0.0,0.0,0.0692278,0.504931,-1.0,1,0,0,0,0,0,0
127030380,0.0,-0.0,0.138567,0.0,0.997601,0.0,0.0,0.0692278,0.504931,-1.0,1,0,0,0,0,0,0
127134418,0.0,-0.0,0.138567,0.0,0.997601,0.0,0.0,0.0692278,0.504931,-1.0,1,0,0,0,0,0,0
127234035,0.0,-0.0,0.138567,0.0,0.997601,0.0,0.0,0.0692278,0.504931,-1.0,1,0,0,0,0,0,0
127334411,0.0,-0.0,0.138567,0.0,0.997601,0.0,0.0,0.0692278,0.504931,-1.0,1,0,0,0,0,0,0
127438019,0.0,-0.0,0.138567,0.0,0.997601,0.0,0.0,0.0692278,0.504931,-1.0,1,0,0,0,0,0,0
127539250,0.0,-0.0,0.138567,0.0,0.997601,0.0,0.0,0.0692278,0.504931,-1.0,1,0,0,0,0,0,0
127642051,0.0,-0.0,0.138567,0.0,0.997601,0.0,0.0,0.0692278,0.504931,-1.0,1,0,0,0,0,0,0
127742603,0.0,-0.0,0.138567,0.0,0.997601,0.0,0.0,0.0692278,0.504931,-1.0,1,0,0,0,0,0,0
127840745,0.0,-0.0,0.138567,0.0,0.997601,0.0,0.0,0.0692278,0.504931,-1.0,1,0,0,0,0,0,0
127944976,0.0,-0.0,0.138567,0.0,0.997601,0.0,0.0,0.0692278,0.504931,-1.0,1,0,0,0,0,0,0
128046395,0.0,-0.0,0.138567,0.0,0.997601,0.0,0.0,0.0692278,0.504931,-1.0,1,0,0,0,0,0,0
128146050,0.0,-0.0,0.138567,0.0,0.997601,0.0,0.0,0.0692278,0.504931,-1.0,1,0,0,0,0,0,0
128250788,0.0,-0.0,0.138567,0.0,0.997601,0.0,0.0,0.0692278,0.504931,-1.0,1,0,0,0,0,0,0
128350096,0.0,-0.0,0.138567,0.0,0.997601,0.0,0.0,0.0692278,0.504931,-1.0,1,0,0,0,0,0,0
128454047,0.0,-0.0,0.138567,0.0,0.997601,0.0,0.0,0.0692278,0.504931,-1.0,1,0,0,0,0,0,0
128554738,0.0,-0.0,0.138567,0.0,0.997601,0.0,0.0,0.0692278,0.504931,-1.0,1,0,0,0,0,0,0
128654070,0.0,-0.0,0.138567,0.0,0.997601,0.0,0.0,0.0692278,0.504931,-1.0,1,0,0,0,0,0,0
128758176,0.0,-0.0,0.138567,0.0,0.997601,0.0,0.0,0.0692278,0.504931,-1.0,1,0,0,0,0,0,0
128794687,0.0,-0.0,0.138567,0.0,0.997601,0.0,0.0,0.0692278,0.504931,-1.0,1,0,0,0,0,0,0
128794687,0.0,-0.0,0.138567,0.0,0.997601,0.0,0.0,0.0692278,0.504931,-1.0,1,0,0,0,0,0,0
128794687,0.0,-0.0,0.138567,0.0,0.997601,0.0,0.0,0.0692278,0.504931,-1.0,1,0,0,0,0,0,0
128794687,0.0,-0.0,0.138567,0.0,0.997601,0.0,0.0,0.0692278,0.504931,-1.0,1,0,0,0,0,0,0
128794687,0.0,-0.0,0.138567,0.0,0.997601,0.0,0.0,0.0692278,0.504931,-1.0,1,0,0,0,0,0,0
128794687,0.0,-0.0,0.138567,0.0,0.997601,0.0,0.0,0.0692278,0.504931,-1.0,1,0,0,0,0,0,0
128794687,0.0,-0.0,0.138567,0.0,0.997601,0.0,0.0,0.0692278,0.504931,-1.0,1,0,0,0,0,0,0
128794687,0.0,-0.0,0.138567,0.0,0.997601,0.0,0.0,0.0692278,0.504931,-1.0,1,0,0,0,0,0,0
128794687,0.0,-0.0,0.138567,0.0,0.997601,0.0,0.0,0.0692278,0.504931,-1.0,1,0,0,0,0,0,0
128794687,0.0,-0.0,0.138567,0.0,0.997601,0.0,0.0,0.0692278,0.504931,-1.0,1,0,0,0,0,0,0
128794687,0.0,-0.0,0.138567,0.0,0.997601,0.0,0.0,0.0692278,0.504931,-1.0,1,0,0,0,0,0,0
128794687,0.0,-0.0,0.138567,0.0,0.997601,0.0,0.0,0.0692278,0.504931,-1.0,1,0,0,0,0,0,0
128794687,0.0,-0.0,0.138567,0.0,0.997601,0.0,0.0,0.0692278,0.504931,-1.0,1,0,0,0,0,0,0
128794687,0.0,-0.0,0.138567,0.0,0.997601,0.0,0.0,0.0692278,0.504931,-1.0,1,0,0,0,0,0,0
128794687,0.0,-0.0,0.138567,0.0,0.997601,0.0,0.0,0.0692278,0.504931,-1.0,1,0,0,0,0,0,0
128794687,0.0,-0.0,0.138567,0.0,0.997601,0.0,0.0,0.0692278,0.504931,-1.0,1,0,0,0,0,0,0
128794687,0.0,-0.0,0.138567,0.0,0.997601,0.0,0.0,0.0692278,0.504931,-1.0,1,0,0,0,0,0,0
128794687,0.0,-0.0,0.138567,0.0,0.997601,0.0,0.0,0.0692278,0.504931,-1.0,1,0,0,0,0,0,0
128794687,0.0,-0.0,0.138567,0.0,0.997601,0.0,0.0,0.0692278,0.504931,-1.0,1,0,0,0,0,0,0
130786156,0.0105042,-0.0555636,0.0,0.0,0.9996,0.00525006,-0.0277778,0.000145894,0.306191,1.0,1,0,0,0,0,0,0
130890165,0.00757675,-0.0434888,0.0,0.0,0.999756,0.00378747,-0.0217425,8.23693e-05,0.371248,1.0,1,0,0,0,0,0,0
130990529,0.00638708,-0.0339729,0.0,0.0,0.999851,0.00319307,-0.0169855,5.42442e-05,0.410559,1.0,1,0,0,0,0,0,0
131090897,0.00557027,-0.0280375,0.0,0.0,0.999898,0.00278486,-0.0140182,3.90427e-05,0.435334,1.0,1,0,0,0,0,0,0
131194491,0.0051201,-0.0246755,0.0,0.0,0.999921,0.00255985,-0.0123374,3.15843e-05,0.452069,1.0,1,0,0,0,0,0,0
131294299,0.00483896,-0.0229056,0.0,0.0,0.999932,0.00241932,-0.0114525,2.77092e-05,0.463864,1.0,1,0,0,0,0,0,0
131394763,0.00470628,-0.0202446,0.0,0.0,0.999946,0.00235302,-0.0101221,2.38188e-05,0.473091,1.0,1,0,0,0,0,0,0
131498545,0.00423043,-0.0175849,0.0,0.0,0.999959,0.00211513,-0.00879233,1.85977e-05,0.480962,1.0,1,0,0,0,0,0,0
131598175,0.0032766,-0.0144404,0.0,0.0,0.999973,0.00163826,-0.00722014,1.18288e-05,0.487889,1.0,1,0,0,0,0,0,0
131702281,0.00340652,-0.0118454,0.0,0.0,0.999981,0.00170323,-0.00592268,1.00879e-05,0.494533,1.0,1,0,0,0,0,0,0
131802980,0.00304832,-0.00994242,0.0,0.0,0.999986,0.00152414,-0.00497118,7.57688e-06,0.501341,1.0,1,0,0,0,0,0,0
131902259,0.00247037,-0.00886522,0.0,0.0,0.999989,0.00123517,-0.00443259,5.47508e-06,0.507585,1.0,1,0,0,0,0,0,0
132006304,0.00177239,-0.00723393,0.0,0.0,0.999993,0.000886188,-0.00361695,3.20532e-06,0.514324,1.0,1,0,0,0,0,0,0
132104963,0.00106565,-0.00434718,0.0,0.0,0.999997,0.000532822,-0.00217359,1.15814e-06,0.519994,1.0,1,0,0,0,0,0,0
132209501,0.000200592,-0.00330492,0.0,0.0,0.999999,0.000100296,-0.00165246,1.65735e-07,0.526278,1.0,1,0,0,0,0,0,0
132310521,-0.000411465,-0.00142022,0.0,0.0,1.0,-0.000205732,-0.000710109,-1.46093e-07,0.531684,1.0,1,0,0,0,0,0,0
132410184,-0.000985759,-0.000750988,0.0,0.0,1.0,-0.000492879,-0.000375494,-1.85073e-07,0.536576,1.0,1,0,0,0,0,0,0
132514213,-0.00135149,0.000317021,0.0,0.0,1.0,-0.000675745,0.000158511,1.07113e-07,0.540195,1.0,1,0,0,0,0,0,0
132602228,-0.00170939,0.000842983,0.0,0.0,1.0,-0.000854694,0.000421491,3.60246e-07,0.542788,1.0,1,0,0,0,0,0,0
132714035,0.0,-0.0,0.00335663,0.0,0.999999,0.0,0.0,0.00167831,0.50493,1.0,1,0,0,0,0,0,0
132818090,0.0,-0.0,0.00335663,0.0,0.999999,0.0,0.0,0.00167831,0.504931,1.0,1,0,0,0,0,0,0
132918405,0.0,-0.0,0.00335663,0.0,0.999999,0.0,0.0,0.00167831,0.504931,1.0,1,0,0,0,0,0,0
133018072,0.0,-0.0,0.00335663,0.0,0.999999,0.0,0.0,0.00167831,0.504963,1.0,1,0,0,0,0,0,0
133122032,0.0,-0.0,0.00335663,0.0,0.999999,0.0,0.0,0.00167831,0.504933,1.0,1,0,0,0,0,0,0
133222400,0.0,-0.0,0.00335663,0.0,0.999999,0.0,0.0,0.00167831,0.504931,1.0,1,0,0,0,0,0,0
133326683,0.0,-0.0,0.00335663,0.0,0.999999,0.0,0.0,0.00167831,0.504931,1.0,1,0,0,0,0,0,0
133426028,0.0,-0.0,0.00335663,0.0,0.999999,0.0,0.0,0.00167831,0.504931,1.0,1,0,0,0,0,0,0
133526670,0.0,-0.0,0.00335663,0.0,0.999999,0.0,0.0,0.00167831,0.504931,1.0,1,0,0,0,0,0,0
133630645,0.0,-0.0,0.00335663,0.0,0.999999,0.0,0.0,0.00167831,0.505135,1.0,1,0,0,0,0,0,0
133730051,0.0,-0.0,0.00335663,0.0,0.999999,0.0,0.0,0.00167831,0.504904,1.0,1,0,0,0,0,0,0
133830945,0.0,-0.0,0.00335663,0.0,0.999999,0.0,0.0,0.00167831,0.50493,1.0,1,0,0,0,0,0,0
133935323,0.0,-0.0,0.00335663,0.0,0.999999,0.0,0.0,0.00167831,0.504931,1.0,1,0,0,0,0,0,0
134036229,0.0,-0.0,0.00335663,0.0,0.999999,0.0,0.0,0.00167831,0.504931,1.0,1,0,0,0,0,0,0
134139090,0.0,-0.0,0.00335663,0.0,0.999999,0.0,0.0,0.00167831,0.504931,1.0,1,0,0,0,0,0,0
134236648,0.0,-0.0,0.00335663,0.0,0.999999,0.0,0.0,0.00167831,0.506561,1.0,1,0,0,0,0,0,0
134340568,0.0,-0.0,0.00335663,0.0,0.999999,0.0,0.0,0.00167831,0.52432,1.0,1,0,0,0,0,0,0
134442745,0.0,-0.0,0.00335663,0.0,0.999999,0.0,0.0,0.00167831,0.533368,1.0,1,0,0,0,0,0,0
134542042,0.0,-0.0,0.00335663,0.0,0.999999,0.0,0.0,0.00167831,0.534798,1.0,1,0,0,0,0,0,0
134642414,0.0,-0.0,0.00335663,0.0,0.999999,0.0,0.0,0.00167831,0.558913,1.0,1,0,0,0,0,0,0
134746406,0.0,-0.0,0.00335663,0.0,0.999999,0.0,0.0,0.00167831,0.562668,1.0,1,0,0,0,0,0,0
134846077,0.0,-0.0,0.00335663,0.0,0.999999,0.0,0.0,0.00167831,0.562272,1.0,1,0,0,0,0,0,0
134950053,0.0,-0.0,0.00335663,0.0,0.999999,0.0,0.0,0.00167831,0.562259,1.0,1,0,0,0,0,0,0
135050450,0.0,-0.0,0.00335663,0.0,0.999999,0.0,0.0,0.00167831,0.562965,1.0,1,0,0,0,0,0,0
135150058,0.0,-0.0,0.00335663,0.0,0.999999,0.0,0.0,0.00167831,0.563019,1.0,1,0,0,0,0,0,0
135254212,0.0,-0.0,0.00335663,0.0,0.999999,0.0,0.0,0.00167831,0.561524,1.0,1,0,0,0,0,0,0
135354394,0.0,-0.0,0.00335663,0.0,0.999999,0.0,0.0,0.00167831,0.562342,1.0,1,0,0,0,0,0,0
135454067,0.0,-0.0,0.00335663,0.0,0.999999,0.0,0.0,0.00167831,0.561158,1.0,1,0,0,0,0,0,0
135558050,0.0,-0.0,0.00335663,0.0,0.999999,0.0,0.0,0.00167831,0.561347,1.0,1,0,0,0,0,0,0
135658758,0.0,-0.0,0.00335663,0.0,0.999999,0.0,0.0,0.00167831,0.56146,1.0,1,0,0,0,0,0,0
135762441,0.0,-0.0,0.00335663,0.0,0.999999,0.0,0.0,0.00167831,0.561577,1.0,1,0,0,0,0,0,0
135862019,0.0,-0.0,0.00335663,0.0,0.999999,0.0,0.0,0.00167831,0.533177,1.0,1,0,0,0,0,0,0
135962939,0.0,-0.0,0.00335663,0.0,0.999999,0.0,0.0,0.00167831,0.532507,1.0,1,0,0,0,0,0,0
136066914,0.0,-0.0,0.00335663,0.0,0.999999,0.0,0.0,0.00167831,0.532544,1.0,1,0,0,0,0,0,0
136166200,0.0,-0.0,0.00335663,0.0,0.999999,0.0,0.0,0.00167831,0.532544,1.0,1,0,0,0,0,0,0
136264816,0.0,-0.0,0.00335663,0.0,0.999999,0.0,0.0,0.00167831,0.532544,1.0,1,0,0,0,0,0,0
136368888,0.0,-0.0,0.00335663,0.0,0.999999,0.0,0.0,0.00167831,0.532544,1.0,1,0,0,0,0,0,0
136473064,0.0,-0.0,0.00335663,0.0,0.999999,0.0,0.0,0.00167831,0.532544,1.0,1,0,0,0,0,0,0
136574087,0.0,-0.0,0.00335663,0.0,0.999999,0.0,0.0,0.00167831,0.532544,1.0,1,0,0,0,0,0,0
136674119,0.0,-0.0,0.00335663,0.0,0.999999,0.0,0.0,0.00167831,0.532544,1.0,1,0,0,0,0,0,0
136774457,0.0,-0.0,0.00335663,0.0,0.999999,0.0,0.0,0.00167831,0.532544,1.0,1,0,0,0,0,0,0
136878396,0.0,-0.0,0.00335663,0.0,0.999999,0.0,0.0,0.00167831,0.532544,1.0,1,0,0,0,0,0,0
136978070,0.0,-0.0,0.00335663,0.0,0.999999,0.0,0.0,0.00167831,0.532544,1.0,1,0,0,0,0,0,0
137078753,0.0,-0.0,0.00335663,0.0,0.999999,0.0,0.0,0.00167831,0.532544,1.0,1,0,0,0,0,0,0
137182390,0.0,-0.0,0.00335663,0.0,0.999999,0.0,0.0,0.00167831,0.532544,1.0,1,0,0,0,0,0,0
137282085,0.0,-0.0,0.00335663,0.0,0.999999,0.0,0.0,0.00167831,0.532544,1.0,1,0,0,0,0,0,0
137386169,0.0,-0.0,0.00335663,0.0,0.999999,0.0,0.0,0.00167831,0.510155,1.0,1,0,0,0,0,0,0
137486437,0.0,-0.0,0.00335663,0.0,0.999999,0.0,0.0,0.00167831,0.500852,1.0,1,0,0,0,0,0,0
137586071,0.0,-0.0,0.00335663,0.0,0.999999,0.0,0.0,0.00167831,0.504087,1.0,1,0,0,0,0,0,0
137690069,0.0,-0.0,0.00335663,0.0,0.999999,0.0,0.0,0.00167831,0.504983,1.0,1,0,0,0,0,0,0
137790740,0.0,-0.0,0.00335663,0.0,0.999999,0.0,0.0,0.00167831,0.504937,1.0,1,0,0,0,0,0,0
137890077,0.0,-0.0,0.00335663,0.0,0.999999,0.0,0.0,0.00167831,0.504931,1.0,1,0,0,0,0,0,0
137994037,0.0,-0.0,0.00335663,0.0,0.999999,0.0,0.0,0.00167831,0.504931,1.0,1,0,0,0,0,0,0
138039061,0.0,-0.0,0.00335663,0.0,0.999999,0.0,0.0,0.00167831,0.504931,1.0,1,0,0,0,0,0,0
138039061,0.0,-0.0,0.00335663,0.0,0.999999,0.0,0.0,0.00167831,0.504931,1.0,1,0,0,0,0,0,0
138039061,0.0,-0.0,0.00335663,0.0,0.999999,0.0,0.0,0.00167831,0.504931,1.0,1,0,0,0,0,0,0
138039061,0.0,-0.0,0.00335663,0.0,0.999999,0.0,0.0,0.00167831,0.504931,1.0,1,0,0,0,0,0,0
138039061,0.0,-0.0,0.00335663,0.0,0.999999,0.0,0.0,0.00167831,0.504931,1.0,1,0,0,0,0,0,0
138039061,0.0,-0.0,0.00335663,0.0,0.999999,0.0,0.0,0.00167831,0.504931,1.0,1,0,0,0,0,0,0
138039061,0.0,-0.0,0.00335663,0.0,0.999999,0.0,0.0,0.00167831,0.504931,1.0,1,0,0,0,0,0,0
138039061,0.0,-0.0,0.00335663,0.0,0.999999,0.0,0.0,0.00167831,0.504931,1.0,1,0,0,0,0,0,0
138039061,0.0,-0.0,0.00335663,0.0,0.999999,0.0,0.0,0.00167831,0.504931,1.0,1,0,0,0,0,0,0
138039061,0.0,-0.0,0.00335663,0.0,0.999999,0.0,0.0,0.00167831,0.504931,1.0,1,0,0,0,0,0,0
138039061,0.0,-0.0,0.00335663,0.0,0.999999,0.0,0.0,0.00167831,0.504931,1.0,1,0,0,0,0,0,0
138039061,0.0,-0.0,0.00335663,0.0,0.999999,0.0,0.0,0.00167831,0.504931,1.0,1,0,0,0,0,0,0
138039061,0.0,-0.0,0.00335663,0.0,0.999999,0.0,0.0,0.00167831,0.504931,1.0,1,0,0,0,0,0,0
138039061,0.0,-0.0,0.00335663,0.0,0.999999,0.0,0.0,0.00167831,0.504931,1.0,1,0,0,0,0,0,0
138039061,0.0,-0.0,0.00335663,0.0,0.999999,0.0,0.0,0.00167831,0.504931,1.0,1,0,0,0,0,0,0
138039061,0.0,-0.0,0.00335663,0.0,0.999999,0.0,0.0,0.00167831,0.504931,1.0,1,0,0,0,0,0,0
138039061,0.0,-0.0,0.00335663,0.0,0.999999,0.0,0.0,0.00167831,0.504931,1.0,1,0,0,0,0,0,0
138039061,0.0,-0.0,0.00335663,0.0,0.999999,0.0,0.0,0.00167831,0.504931,1.0,1,0,0,0,0,0,0
138039061,0.0,-0.0,0.00335663,0.0,0.999999,0.0,0.0,0.00167831,0.504931,1.0,1,0,0,0,0,0,0
138039061,0.0,-0.0,0.00335663,0.0,0.999999,0.0,0.0,0.00167831,0.504931,1.0,1,0,0,0,0,0,0
138039061,0.0,-0.0,0.00335663,0.0,0.999999,0.0,0.0,0.00167831,0.504931,1.0,1,0,0,0,0,0,0
138039061,0.0,-0.0,0.00335663,0.0,0.999999,0.0,0.0,0.00167831,0.504931,1.0,1,0,0,0,0,0,0
138039061,0.0,-0.0,0.00335663,0.0,0.999999,0.0,0.0,0.00167831,0.504931,1.0,1,0,0,0,0,0,0
138039061,0.0,-0.0,0.00335663,0.0,0.999999,0.0,0.0,0.00167831,0.504931,1.0,1,0,0,0,0,0,0
138039061,0.0,-0.0,0.00335663,0.0,0.999999,0.0,0.0,0.00167831,0.504931,1.0,1,0,0,0,0,0,0
138039061,0.0,-0.0,0.00335663,0.0,0.999999,0.0,0.0,0.00167831,0.504931,1.0,1,0,0,0,0,0,0
138039061,0.0,-0.0,0.00335663,0.0,0.999999,0.0,0.0,0.00167831,0.504931,1.0,1,0,0,0,0,0,0
138039061,0.0,-0.0,0.00335663,0.0,0.999999,0.0,0.0,0.00167831,0.504931,1.0,1,0,0,0,0,0,0
138039061,0.0,-0.0,0.00335663,0.0,0.999999,0.0,0.0,0.00167831,0.504931,1.0,1,0,0,0,0,0,0
138039061,0.0,-0.0,0.00335663,0.0,0.999999,0.0,0.0,0.00167831,0.504931,1.0,1,0,0,0,0,0,0
138039061,0.0,-0.0,0.00335663,0.0,0.999999,0.0,0.0,0.00167831,0.504931,1.0,1,0,0,0,0,0,0
138039061,0.0,-0.0,0.00335663,0.0,0.999999,0.0,0.0,0.00167831,0.504931,1.0,1,0,0,0,0,0,0
138039061,0.0,-0.0,0.00335663,0.0,0.999999,0.0,0.0,0.00167831,0.504931,1.0,1,0,0,0,0,0,0
138039061,0.0,-0.0,0.00335663,0.0,0.999999,0.0,0.0,0.00167831,0.504931,1.0,1,0,0,0,0,0,0
138039061,0.0,-0.0,0.00335663,0.0,0.999999,0.0,0.0,0.00167831,0.504931,1.0,1,0,0,0,0,0,0
138039061,0.0,-0.0,0.00335663,0.0,0.999999,0.0,0.0,0.00167831,0.504931,1.0,1,0,0,0,0,0,0
138039061,0.0,-0.0,0.00335663,0.0,0.999999,0.0,0.0,0.00167831,0.504931,1.0,1,0,0,0,0,0,0
138039061,0.0,-0.0,0.00335663,0.0,0.999999,0.0,0.0,0.00167831,0.504931,1.0,1,0,0,0,0,0,0
138039061,0.0,-0.0,0.00335663,0.0,0.999999,0.0,0.0,0.00167831,0.504931,1.0,1,0,0,0,0,0,0
138039061,0.0,-0.0,0.00335663,0.0,0.999999,0.0,0.0,0.00167831,0.504931,1.0,1,0,0,0,0,0,0
138039061,0.0,-0.0,0.00335663,0.0,0.999999,0.0,0.0,0.00167831,0.504931,1.0,1,0,0,0,0,0,0
138039061,0.0,-0.0,0.00335663,0.0,0.999999,0.0,0.0,0.00167831,0.504931,1.0,1,0,0,0,0,0,0
138039061,0.0,-0.0,0.00335663,0.0,0.999999,0.0,0.0,0.00167831,0.504931,1.0,1,0,0,0,0,0,0
138039061,0.0,-0.0,0.00335663,0.0,0.999999,0.0,0.0,0.00167831,0.504931,1.0,1,0,0,0,0,0,0
138039061,0.0,-0.0,0.00335663,0.0,0.999999,0.0,0.0,0.00167831,0.504931,1.0,1,0,0,0,0,0,0
138039061,0.0,-0.0,0.00335663,0.0,0.999999,0.0,0.0,0.00167831,0.504931,1.0,1,0,0,0,0,0,0
138039061,0.0,-0.0,0.00335663,0.0,0.999999,0.0,0.0,0.00167831,0.504931,1.0,1,0,0,0,0,0,0
138039061,0.0,-0.0,0.00335663,0.0,0.999999,0.0,0.0,0.00167831,0.504931,1.0,1,0,0,0,0,0,0
138039061,0.0,-0.0,0.00335663,0.0,0.999999,0.0,0.0,0.00167831,0.504931,1.0,1,0,0,0,0,0,0
138039061,0.0,-0.0,0.00335663,0.0,0.999999,0.0,0.0,0.00167831,0.504931,1.0,1,0,0,0,0,0,0
138039061,0.0,-0.0,0.00335663,0.0,0.999999,0.0,0.0,0.00167831,0.504931,1.0,1,0,0,0,0,0,0
138039061,0.0,-0.0,0.00335663,0.0,0.999999,0.0,0.0,0.00167831,0.504931,1.0,1,0,0,0,0,0,0
138039061,0.0,-0.0,0.00335663,0.0,0.999999,0.0,0.0,0.00167831,0.504931,1.0,1,0,0,0,0,0,0
138039061,0.0,-0.0,0.00335663,0.0,0.999999,0.0,0.0,0.00167831,0.504931,1.0,1,0,0,0,0,0,0
138039061,0.0,-0.0,0.00335663,0.0,0.999999,0.0,0.0,0.00167831,0.504931,1.0,1,0,0,0,0,0,0
138039061,0.0,-0.0,0.00335663,0.0,0.999999,0.0,0.0,0.00167831,0.504931,1.0,1,0,0,0,0,0,0
138039061,0.0,-0.0,0.00335663,0.0,0.999999,0.0,0.0,0.00167831,0.504931,1.0,1,0,0,0,0,0,0
138039061,0.0,-0.0,0.00335663,0.0,0.999999,0.0,0.0,0.00167831,0.504931,1.0,1,0,0,0,0,0,0
138039061,0.0,-0.0,0.00335663,0.0,0.999999,0.0,0.0,0.00167831,0.504931,1.0,1,0,0,0,0,0,0
138039061,0.0,-0.0,0.00335663,0.0,0.999999,0.0,0.0,0.00167831,0.504931,1.0,1,0,0,0,0,0,0
138039061,0.0,-0.0,0.00335663,0.0,0.999999,0.0,0.0,0.00167831,0.504931,1.0,1,0,0,0,0,0,0
138039061,0.0,-0.0,0.00335663,0.0,0.999999,0.0,0.0,0.00167831,0.504931,1.0,1,0,0,0,0,0,0
138039061,0.0,-0.0,0.00335663,0.0,0.999999,0.0,0.0,0.00167831,0.504931,1.0,1,0,0,0,0,0,0
138039061,0.0,-0.0,0.00335663,0.0,0.999999,0.0,0.0,0.00167831,0.504931,1.0,1,0,0,0,0,0,0
138039061,0.0,-0.0,0.00335663,0.0,0.999999,0.0,0.0,0.00167831,0.504931,1.0,1,0,0,0,0,0,0
138039061,0.0,-0.0,0.00335663,0.0,0.999999,0.0,0.0,0.00167831,0.504931,1.0,1,0,0,0,0,0,0
138039061,0.0,-0.0,0.00335663,0.0,0.999999,0.0,0.0,0.00167831,0.504931,1.0,1,0,0,0,0,0,0
138039061,0.0,-0.0,0.00335663,0.0,0.999999,0.0,0.0,0.00167831,0.504931,1.0,1,0,0,0,0,0,0
138039061,0.0,-0.0,0.00335663,0.0,0.999999,0.0,0.0,0.00167831,0.504931,1.0,1,0,0,0,0,0,0
138039061,0.0,-0.0,0.00335663,0.0,0.999999,0.0,0.0,0.00167831,0.504931,1.0,1,0,0,0,0,0,0
138039061,0.0,-0.0,0.00335663,0.0,0.999999,0.0,0.0,0.00167831,0.504931,1.0,1,0,0,0,0,0,0
138039061,0.0,-0.0,0.00335663,0.0,0.999999,0.0,0.0,0.00167831,0.504931,1.0,1,0,0,0,0,0,0
138039061,0.0,-0.0,0.00335663,0.0,0.999999,0.0,0.0,0.00167831,0.504931,1.0,1,0,0,0,0,0,0
138039061,0.0,-0.0,0.00335663,0.0,0.999999,0.0,0.0,0.00167831,0.504931,1.0,1,0,0,0,0,0,0
138039061,0.0,-0.0,0.00335663,0.0,0.999999,0.0,0.0,0.00167831,0.504931,1.0,1,0,0,0,0,0,0
138039061,0.0,-0.0,0.00335663,0.0,0.999999,0.0,0.0,0.00167831,0.504931,1.0,1,0,0,0,0,0,0
138039061,0.0,-0.0,0.00335663,0.0,0.999999,0.0,0.0,0.00167831,0.504931,1.0,1,0,0,0,0,0,0
138039061,0.0,-0.0,0.00335663,0.0,0.999999,0.0,0.0,0.00167831,0.504931,1.0,1,0,0,0,0,0,0
138039061,0.0,-0.0,0.00335663,0.0,0.999999,0.0,0.0,0.00167831,0.504931,1.0,1,0,0,0,0,0,0
138039061,0.0,-0.0,0.00335663,0.0,0.999999,0.0,0.0,0.00167831,0.504931,1.0,1,0,0,0,0,0,0
138039061,0.0,-0.0,0.00335663,0.0,0.999999,0.0,0.0,0.00167831,0.504931,1.0,1,0,0,0,0,0,0
138039061,0.0,-0.0,0.00335663,0.0,0.999999,0.0,0.0,0.00167831,0.504931,1.0,1,0,0,0,0,0,0
138039061,0.0,-0.0,0.00335663,0.0,0.999999,0.0,0.0,0.00167831,0.504931,1.0,1,0,0,0,0,0,0
138039061,0.0,-0.0,0.00335663,0.0,0.999999,0.0,0.0,0.00167831,0.504931,1.0,1,0,0,0,0,0,0
138039061,0.0,-0.0,0.00335663,0.0,0.999999,0.0,0.0,0.00167831,0.504931,1.0,1,0,0,0,0,0,0
138039061,0.0,-0.0,0.00335663,0.0,0.999999,0.0,0.0,0.00167831,0.504931,1.0,1,0,0,0,0,0,0
138039061,0.0,-0.0,0.00335663,0.0,0.999999,0.0,0.0,0.00167831,0.504931,1.0,1,0,0,0,0,0,0
138039061,0.0,-0.0,0.00335663,0.0,0.999999,0.0,0.0,0.00167831,0.504931,1.0,1,0,0,0,0,0,0
138039061,0.0,-0.0,0.00335663,0.0,0.999999,0.0,0.0,0.00167831,0.504931,1.0,1,0,0,0,0,0,0
138039061,0.0,-0.0,0.00335663,0.0,0.999999,0.0,0.0,0.00167831,0.504931,1.0,1,0,0,0,0,0,0
138039061,0.0,-0.0,0.00335663,0.0,0.999999,0.0,0.0,0.00167831,0.504931,1.0,1,0,0,0,0,0,0
138039061,0.0,-0.0,0.00335663,0.0,0.999999,0.0,0.0,0.00167831,0.504931,1.0,1,0,0,0,0,0,0
138039061,0.0,-0.0,0.00335663,0.0,0.999999,0.0,0.0,0.00167831,0.504931,1.0,1,0,0,0,0,0,0
138039061,0.0,-0.0,0.00335663,0.0,0.999999,0.0,0.0,0.00167831,0.504931,1.0,1,0,0,0,0,0,0
138039061,0.0,-0.0,0.00335663,0.0,0.999999,0.0,0.0,0.00167831,0.504931,1.0,1,0,0,0,0,0,0
138039061,0.0,-0.0,0.00335663,0.0,0.999999,0.0,0.0,0.00167831,0.504931,1.0,1,0,0,0,0,0,0
138039061,0.0,-0.0,0.00335663,0.0,0.999999,0.0,0.0,0.00167831,0.504931,1.0,1,0,0,0,0,0,0
138039061,0.0,-0.0,0.00335663,0.0,0.999999,0.0,0.0,0.00167831,0.504931,1.0,1,0,0,0,0,0,0
138039061,0.0,-0.0,0.00335663,0.0,0.999999,0.0,0.0,0.00167831,0.504931,1.0,1,0,0,0,0,0,0
138039061,0.0,-0.0,0.00335663,0.0,0.999999,0.0,0.0,0.00167831,0.504931,1.0,1,0,0,0,0,0,0
138039061,0.0,-0.0,0.00335663,0.0,0.999999,0.0,0.0,0.00167831,0.504931,1.0,1,0,0,0,0,0,0
138039061,0.0,-0.0,0.00335663,0.0,0.999999,0.0,0.0,0.00167831,0.504931,1.0,1,0,0,0,0,0,0
138039061,0.0,-0.0,0.00335663,0.0,0.999999,0.0,0.0,0.00167831,0.504931,1.0,1,0,0,0,0,0,0
138039061,0.0,-0.0,0.00335663,0.0,0.999999,0.0,0.0,0.00167831,0.504931,1.0,1,0,0,0,0,0,0
138039061,0.0,-0.0,0.00335663,0.0,0.999999,0.0,0.0,0.00167831,0.504931,1.0,1,0,0,0,0,0,0
138039061,0.0,-0.0,0.00335663,0.0,0.999999,0.0,0.0,0.00167831,0.504931,1.0,1,0,0,0,0,0,0
138039061,0.0,-0.0,0.00335663,0.0,0.999999,0.0,0.0,0.00167831,0.504931,1.0,1,0,0,0,0,0,0
138039061,0.0,-0.0,0.00335663,0.0,0.999999,0.0,0.0,0.00167831,0.504931,1.0,1,0,0,0,0,0,0
138039061,0.0,-0.0,0.00335663,0.0,0.999999,0.0,0.0,0.00167831,0.504931,1.0,1,0,0,0,0,0,0
138039061,0.0,-0.0,0.00335663,0.0,0.999999,0.0,0.0,0.00167831,0.504931,1.0,1,0,0,0,0,0,0
138039061,0.0,-0.0,0.00335663,0.0,0.999999,0.0,0.0,0.00167831,0.504931,1.0,1,0,0,0,0,0,0
138039061,0.0,-0.0,0.00335663,0.0,0.999999,0.0,0.0,0.00167831,0.504931,1.0,1,0,0,0,0,0,0
138039061,0.0,-0.0,0.00335663,0.0,0.999999,0.0,0.0,0.00167831,0.504931,1.0,1,0,0,0,0,0,0
138039061,0.0,-0.0,0.00335663,0.0,0.999999,0.0,0.0,0.00167831,0.504931,1.0,1,0,0,0,0,0,0
138039061,0.0,-0.0,0.00335663,0.0,0.999999,0.0,0.0,0.00167831,0.504931,1.0,1,0,0,0,0,0,0
138039061,0.0,-0.0,0.00335663,0.0,0.999999,0.0,0.0,0.00167831,0.504931,1.0,1,0,0,0,0,0,0
138039061,0.0,-0.0,0.00335663,0.0,0.999999,0.0,0.0,0.00167831,0.504931,1.0,1,0,0,0,0,0,0
138039061,0.0,-0.0,0.00335663,0.0,0.999999,0.0,0.0,0.00167831,0.504931,1.0,1,0,0,0,0,0,0
138039061,0.0,-0.0,0.00335663,0.0,0.999999,0.0,0.0,0.00167831,0.504931,1.0,1,0,0,0,0,0,0
138039061,0.0,-0.0,0.00335663,0.0,0.999999,0.0,0.0,0.00167831,0.504931,1.0,1,0,0,0,0,0,0
138039061,0.0,-0.0,0.00335663,0.0,0.999999,0.0,0.0,0.00167831,0.504931,1.0,1,0,0,0,0,0,0
138039061,0.0,-0.0,0.00335663,0.0,0.999999,0.0,0.0,0.00167831,0.504931,1.0,1,0,0,0,0,0,0
138039061,0.0,-0.0,0.00335663,0.0,0.999999,0.0,0.0,0.00167831,0.504931,1.0,1,0,0,0,0,0,0
138039061,0.0,-0.0,0.00335663,0.0,0.999999,0.0,0.0,0.00167831,0.504931,1.0,1,0,0,0,0,0,0
138039061,0.0,-0.0,0.00335663,0.0,0.999999,0.0,0.0,0.00167831,0.504931,1.0,1,0,0,0,0,0,0
138039061,0.0,-0.0,0.00335663,0.0,0.999999,0.0,0.0,0.00167831,0.504931,1.0,1,0,0,0,0,0,0
138039061,0.0,-0.0,0.00335663,0.0,0.999999,0.0,0.0,0.00167831,0.504931,1.0,1,0,0,0,0,0,0
138039061,0.0,-0.0,0.00335663,0.0,0.999999,0.0,0.0,0.00167831,0.504931,1.0,1,0,0,0,0,0,0
138039061,0.0,-0.0,0.00335663,0.0,0.999999,0.0,0.0,0.00167831,0.504931,1.0,1,0,0,0,0,0,0
138039061,0.0,-0.0,0.00335663,0.0,0.999999,0.0,0.0,0.00167831,0.504931,1.0,1,0,0,0,0,0,0
138039061,0.0,-0.0,0.00335663,0.0,0.999999,0.0,0.0,0.00167831,0.504931,1.0,1,0,0,0,0,0,0
138039061,0.0,-0.0,0.00335663,0.0,0.999999,0.0,0.0,0.00167831,0.504931,1.0,1,0,0,0,0,0,0
138039061,0.0,-0.0,0.00335663,0.0,0.999999,0.0,0.0,0.00167831,0.504931,1.0,1,0,0,0,0,0,0
138039061,0.0,-0.0,0.00335663,0.0,0.999999,0.0,0.0,0.00167831,0.504931,1.0,1,0,0,0,0,0,0
138039061,0.0,-0.0,0.00335663,0.0,0.999999,0.0,0.0,0.00167831,0.504931,1.0,1,0,0,0,0,0,0
138039061,0.0,-0.0,0.00335663,0.0,0.999999,0.0,0.0,0.00167831,0.504931,1.0,1,0,0,0,0,0,0
138039061,0.0,-0.0,0.00335663,0.0,0.999999,0.0,0.0,0.00167831,0.504931,1.0,1,0,0,0,0,0,0
138039061,0.0,-0.0,0.00335663,0.0,0.999999,0.0,0.0,0.00167831,0.504931,1.0,1,0,0,0,0,0,0
138039061,0.0,-0.0,0.00335663,0.0,0.999999,0.0,0.0,0.00167831,0.504931,1.0,1,0,0,0,0,0,0
138039061,0.0,-0.0,0.00335663,0.0,0.999999,0.0,0.0,0.00167831,0.504931,1.0,1,0,0,0,0,0,0
138039061,0.0,-0.0,0.00335663,0.0,0.999999,0.0,0.0,0.00167831,0.504931,1.0,1,0,0,0,0,0,0
138039061,0.0,-0.0,0.00335663,0.0,0.999999,0.0,0.0,0.00167831,0.504931,1.0,1,0,0,0,0,0,0
152513164,0.00287764,-0.244156,0.0,0.0,0.992557,0.00142811,-0.121775,0.000175212,0.120137,1.0,1,0,0,0,0,0,0
152613501,0.00654203,-0.248774,0.0,0.0,0.992269,0.00324574,-0.124066,0.000405823,0.122679,1.0,1,0,0,0,0,0,0
152713433,0.00931739,-0.230072,0.0,0.0,0.99338,0.00462789,-0.114781,0.000534735,0.123183,1.0,1,0,0,0,0,0,0
152818054,0.0142456,-0.208131,0.0,0.0,0.994565,0.00708421,-0.103875,0.000739896,0.122645,1.0,1,0,0,0,0,0,0
152917142,0.0165638,-0.19097,0.0,0.0,0.995411,0.00824406,-0.0953368,0.000789585,0.122203,1.0,1,0,0,0,0,0,0
153018184,0.0191995,-0.153144,0.0,0.0,0.997024,0.00957149,-0.0764934,0.000734342,0.142298,1.0,1,0,0,0,0,0,0
153122253,0.012189,-0.0574662,0.0,0.0,0.999569,0.00609192,-0.0287286,0.000175088,0.264946,1.0,1,0,0,0,0,0,0
153220286,0.00794636,-0.0261803,0.0,0.0,0.999906,0.00397283,-0.0130897,5.20079e-05,0.343247,1.0,1,0,0,0,0,0,0
153326070,0.00830847,-0.0189026,0.0,0.0,0.999947,0.00415404,-0.00945109,3.92623e-05,0.394219,1.0,1,0,0,0,0,0,0
153425193,0.00873524,-0.0161724,0.0,0.0,0.999958,0.00436746,-0.00808603,3.53169e-05,0.425855,1.0,1,0,0,0,0,0,0
153525139,0.00848324,-0.0134955,0.0,0.0,0.999968,0.00424151,-0.00674765,2.86211e-05,0.44618,1.0,1,0,0,0,0,0,0
153629609,0.00809811,-0.0107196,0.0,0.0,0.999977,0.00404899,-0.00535974,2.1702e-05,0.460194,1.0,1,0,0,0,0,0,0
153685579,0.00867244,-0.00881774,0.0,0.0,0.999981,0.00433617,-0.00440881,1.91177e-05,0.465988,1.0,1,0,0,0,0,0,0
153685579,0.00867244,-0.00881774,0.0,0.0,0.999981,0.00433617,-0.00440881,1.91177e-05,0.465988,1.0,1,0,0,0,0,0,0
153685579,0.00867244,-0.00881774,0.0,0.0,0.999981,0.00433617,-0.00440881,1.91177e-05,0.465988,1.0,1,0,0,0,0,0,0
153685579,0.00867244,-0.00881774,0.0,0.0,0.999981,0.00433617,-0.00440881,1.91177e-05,0.465988,1.0,1,0,0,0,0,0,0
153685579,0.00867244,-0.00881774,0.0,0.0,0.999981,0.00433617,-0.00440881,1.91177e-05,0.465988,1.0,1,0,0,0,0,0,0
153685579,0.00867244,-0.00881774,0.0,0.0,0.999981,0.00433617,-0.00440881,1.91177e-05,0.465988,1.0,1,0,0,0,0,0,0
153685579,0.00867244,-0.00881774,0.0,0.0,0.999981,0.00433617,-0.00440881,1.91177e-05,0.465988,1.0,1,0,0,0,0,0,0
153685579,0.00867244,-0.00881774,0.0,0.0,0.999981,0.00433617,-0.00440881,1.91177e-05,0.465988,1.0,1,0,0,0,0,0,0
153685579,0.00867244,-0.00881774,0.0,0.0,0.999981,0.00433617,-0.00440881,1.91177e-05,0.465988,1.0,1,0,0,0,0,0,0
153685579,0.00867244,-0.00881774,0.0,0.0,0.999981,0.00433617,-0.00440881,1.91177e-05,0.465988,1.0,1,0,0,0,0,0,0
153685579,0.00867244,-0.00881774,0.0,0.0,0.999981,0.00433617,-0.00440881,1.91177e-05,0.465988,1.0,1,0,0,0,0,0,0
153685579,0.00867244,-0.00881774,0.0,0.0,0.999981,0.00433617,-0.00440881,1.91177e-05,0.465988,1.0,1,0,0,0,0,0,0
153685579,0.00867244,-0.00881774,0.0,0.0,0.999981,0.00433617,-0.00440881,1.91177e-05,0.465988,1.0,1,0,0,0,0,0,0
153685579,0.00867244,-0.00881774,0.0,0.0,0.999981,0.00433617,-0.00440881,1.91177e-05,0.465988,1.0,1,0,0,0,0,0,0
153685579,0.00867244,-0.00881774,0.0,0.0,0.999981,0.00433617,-0.00440881,1.91177e-05,0.465988,1.0,1,0,0,0,0,0,0
153685579,0.00867244,-0.00881774,0.0,0.0,0.999981,0.00433617,-0.00440881,1.91177e-05,0.465988,1.0,1,0,0,0,0,0,0
153685579,0.00867244,-0.00881774,0.0,0.0,0.999981,0.00433617,-0.00440881,1.91177e-05,0.465988,1.0,1,0,0,0,0,0,0
153685579,0.00867244,-0.00881774,0.0,0.0,0.999981,0.00433617,-0.00440881,1.91177e-05,0.465988,1.0,1,0,0,0,0,0,0
153685579,0.00867244,-0.00881774,0.0,0.0,0.999981,0.00433617,-0.00440881,1.91177e-05,0.465988,1.0,1,0,0,0,0,0,0
153685579,0.00867244,-0.00881774,0.0,0.0,0.999981,0.00433617,-0.00440881,1.91177e-05,0.465988,1.0,1,0,0,0,0,0,0
153685579,0.00867244,-0.00881774,0.0,0.0,0.999981,0.00433617,-0.00440881,1.91177e-05,0.465988,1.0,1,0,0,0,0,0,0
153685579,0.00867244,-0.00881774,0.0,0.0,0.999981,0.00433617,-0.00440881,1.91177e-05,0.465988,1.0,1,0,0,0,0,0,0
153685579,0.00867244,-0.00881774,0.0,0.0,0.999981,0.00433617,-0.00440881,1.91177e-05,0.465988,1.0,1,0,0,0,0,0,0
153685579,0.00867244,-0.00881774,0.0,0.0,0.999981,0.00433617,-0.00440881,1.91177e-05,0.465988,1.0,1,0,0,0,0,0,0
153685579,0.00867244,-0.00881774,0.0,0.0,0.999981,0.00433617,-0.00440881,1.91177e-05,0.465988,1.0,1,0,0,0,0,0,0
153685579,0.00867244,-0.00881774,0.0,0.0,0.999981,0.00433617,-0.00440881,1.91177e-05,0.465988,1.0,1,0,0,0,0,0,0
153685579,0.00867244,-0.00881774,0.0,0.0,0.999981,0.00433617,-0.00440881,1.91177e-05,0.465988,1.0,1,0,0,0,0,0,0
153685579,0.00867244,-0.00881774,0.0,0.0,0.999981,0.00433617,-0.00440881,1.91177e-05,0.465988,1.0,1,0,0,0,0,0,0
153685579,0.00867244,-0.00881774,0.0,0.0,0.999981,0.00433617,-0.00440881,1.91177e-05,0.465988,1.0,1,0,0,0,0,0,0
153685579,0.00867244,-0.00881774,0.0,0.0,0.999981,0.00433617,-0.00440881,1.91177e-05,0.465988,1.0,1,0,0,0,0,0,0
153685579,0.00867244,-0.00881774,0.0,0.0,0.999981,0.00433617,-0.00440881,1.91177e-05,0.465988,1.0,1,0,0,0,0,0,0
153685579,0.00867244,-0.00881774,0.0,0.0,0.999981,0.00433617,-0.00440881,1.91177e-05,0.465988,1.0,1,0,0,0,0,0,0
153685579,0.00867244,-0.00881774,0.0,0.0,0.999981,0.00433617,-0.00440881,1.91177e-05,0.465988,1.0,1,0,0,0,0,0,0
153685579,0.00867244,-0.00881774,0.0,0.0,0.999981,0.00433617,-0.00440881,1.91177e-05,0.465988,1.0,1,0,0,0,0,0,0
153685579,0.00867244,-0.00881774,0.0,0.0,0.999981,0.00433617,-0.00440881,1.91177e-05,0.465988,1.0,1,0,0,0,0,0,0
153685579,0.00867244,-0.00881774,0.0,0.0,0.999981,0.00433617,-0.00440881,1.91177e-05,0.465988,1.0,1,0,0,0,0,0,0
153685579,0.00867244,-0.00881774,0.0,0.0,0.999981,0.00433617,-0.00440881,1.91177e-05,0.465988,1.0,1,0,0,0,0,0,0
153685579,0.00867244,-0.00881774,0.0,0.0,0.999981,0.00433617,-0.00440881,1.91177e-05,0.465988,1.0,1,0,0,0,0,0,0
153685579,0.00867244,-0.00881774,0.0,0.0,0.999981,0.00433617,-0.00440881,1.91177e-05,0.465988,1.0,1,0,0,0,0,0,0
153685579,0.00867244,-0.00881774,0.0,0.0,0.999981,0.00433617,-0.00440881,1.91177e-05,0.465988,1.0,1,0,0,0,0,0,0
153685579,0.00867244,-0.00881774,0.0,0.0,0.999981,0.00433617,-0.00440881,1.91177e-05,0.465988,1.0,1,0,0,0,0,0,0
153685579,0.00867244,-0.00881774,0.0,0.0,0.999981,0.00433617,-0.00440881,1.91177e-05,0.465988,1.0,1,0,0,0,0,0,0
153685579,0.00867244,-0.00881774,0.0,0.0,0.999981,0.00433617,-0.00440881,1.91177e-05,0.465988,1.0,1,0,0,0,0,0,0
153685579,0.00867244,-0.00881774,0.0,0.0,0.999981,0.00433617,-0.00440881,1.91177e-05,0.465988,1.0,1,0,0,0,0,0,0
153685579,0.00867244,-0.00881774,0.0,0.0,0.999981,0.00433617,-0.00440881,1.91177e-05,0.465988,1.0,1,0,0,0,0,0,0
153685579,0.00867244,-0.00881774,0.0,0.0,0.999981,0.00433617,-0.00440881,1.91177e-05,0.465988,1.0,1,0,0,0,0,0,0
153685579,0.00867244,-0.00881774,0.0,0.0,0.999981,0.00433617,-0.00440881,1.91177e-05,0.465988,1.0,1,0,0,0,0,0,0
153685579,0.00867244,-0.00881774,0.0,0.0,0.999981,0.00433617,-0.00440881,1.91177e-05,0.465988,1.0,1,0,0,0,0,0,0
153685579,0.00867244,-0.00881774,0.0,0.0,0.999981,0.00433617,-0.00440881,1.91177e-05,0.465988,1.0,1,0,0,0,0,0,0
153685579,0.00867244,-0.00881774,0.0,0.0,0.999981,0.00433617,-0.00440881,1.91177e-05,0.465988,1.0,1,0,0,0,0,0,0
153685579,0.00867244,-0.00881774,0.0,0.0,0.999981,0.00433617,-0.00440881,1.91177e-05,0.465988,1.0,1,0,0,0,0,0,0
153685579,0.00867244,-0.00881774,0.0,0.0,0.999981,0.00433617,-0.00440881,1.91177e-05,0.465988,1.0,1,0,0,0,0,0,0
153685579,0.00867244,-0.00881774,0.0,0.0,0.999981,0.00433617,-0.00440881,1.91177e-05,0.465988,1.0,1,0,0,0,0,0,0
153685579,0.00867244,-0.00881774,0.0,0.0,0.999981,0.00433617,-0.00440881,1.91177e-05,0.465988,1.0,1,0,0,0,0,0,0
153685579,0.00867244,-0.00881774,0.0,0.0,0.999981,0.00433617,-0.00440881,1.91177e-05,0.465988,1.0,1,0,0,0,0,0,0
153685579,0.00867244,-0.00881774,0.0,0.0,0.999981,0.00433617,-0.00440881,1.91177e-05,0.465988,1.0,1,0,0,0,0,0,0
153685579,0.00867244,-0.00881774,0.0,0.0,0.999981,0.00433617,-0.00440881,1.91177e-05,0.465988,1.0,1,0,0,0,0,0,0
159516363,0.0,-0.0,-0.0221136,-0.221346,0.999939,0.0,-0.0,-0.0110566,1.0,1.0,1,0,0,0,0,0,0
159617039,0.0,-0.0,-0.0380432,-0.168461,0.999819,0.0,-0.0,-0.0190204,1.0,1.0,1,0,0,0,0,0,0
159717515,0.0,-0.0,-0.0564865,-0.183898,0.999601,0.0,-0.0,-0.0282395,1.0,1.0,1,0,0,0,0,0,0
159821717,0.0,-0.0,-0.0753898,-0.18012,0.99929,0.0,-0.0,-0.037686,1.0,1.0,1,0,0,0,0,0,0
159921039,0.0,-0.0,-0.0927217,-0.169726,0.998926,0.0,-0.0,-0.0463442,1.0,1.0,1,0,0,0,0,0,0
160021491,0.0,-0.0,-0.109567,-0.163962,0.9985,0.0,-0.0,-0.0547559,1.0,1.0,1,0,0,0,0,0,0
160125869,0.0,-0.0,-0.125903,-0.143974,0.998019,0.0,-0.0,-0.0629097,1.0,1.0,1,0,0,0,0,0,0
160225031,0.0,-0.0,-0.139952,-0.138338,0.997553,0.0,-0.0,-0.0699189,1.0,1.0,1,0,0,0,0,0,0
160325481,0.0,-0.0,-0.152998,-0.129989,0.997075,0.0,-0.0,-0.0764244,1.0,1.0,1,0,0,0,0,0,0
160429037,0.0,-0.0,-0.165526,-0.118355,0.996577,0.0,-0.0,-0.0826686,1.0,1.0,1,0,0,0,0,0,0
160529759,0.0,-0.0,-0.176932,-0.111557,0.996089,0.0,-0.0,-0.0883505,1.0,1.0,1,0,0,0,0,0,0
160633573,0.0,-0.0,-0.188529,-0.111697,0.99556,0.0,-0.0,-0.094125,1.0,1.0,1,0,0,0,0,0,0
160733159,0.0,-0.0,-0.199653,-0.111701,0.995021,0.0,-0.0,-0.0996607,1.0,1.0,1,0,0,0,0,0,0
160833708,0.0,-0.0,-0.210544,-0.10054,0.994464,0.0,-0.0,-0.105078,1.0,1.0,1,0,0,0,0,0,0
160937416,0.0,-0.0,-0.215086,-0.0050535,0.994223,0.0,-0.0,-0.107336,1.0,1.0,1,0,0,0,0,0,0
161037278,0.0,-0.0,-0.215087,-8.37108e-05,0.994223,0.0,-0.0,-0.107336,1.0,1.0,1,0,0,0,0,0,0
161137975,0.0,-0.0,-0.216185,-0.0237382,0.994164,0.0,-0.0,-0.107882,1.0,1.0,1,0,0,0,0,0,0
161241909,0.0,-0.0,-0.219472,-0.040246,0.993985,0.0,-0.0,-0.109516,1.0,1.0,1,0,0,0,0,0,0
161341241,0.0,-0.0,-0.224085,-0.0493386,0.99373,0.0,-0.0,-0.111808,1.0,1.0,1,0,0,0,0,0,0
161445166,0.0,-0.0,-0.229439,-0.0494652,0.993427,0.0,-0.0,-0.114468,1.0,1.0,1,0,0,0,0,0,0
161543665,0.0,-0.0,-0.232798,-0.0174896,0.993233,0.0,-0.0,-0.116136,1.0,1.0,1,0,0,0,0,0,0
161647988,0.0,-0.0,-0.235639,-0.0432527,0.993067,0.0,-0.0,-0.117547,1.0,1.0,1,0,0,0,0,0,0
161749048,0.0,-0.0,-0.24008,-0.0575291,0.992804,0.0,-0.0,-0.119752,1.0,1.0,1,0,0,0,0,0,0
161849428,0.0,-0.0,-0.248844,-0.117629,0.99227,0.0,-0.0,-0.124101,1.0,1.0,1,0,0,0,0,0,0
161949051,0.0,-0.0,-0.250838,0.00330957,0.992145,0.0,-0.0,-0.12509,1.0,1.0,1,0,0,0,0,0,0
162053048,0.0,-0.0,-0.250885,8.47599e-05,0.992142,0.0,-0.0,-0.125114,1.0,1.0,1,0,0,0,0,0,0
162153542,0.0,-0.0,-0.250884,5.13538e-07,0.992142,0.0,-0.0,-0.125113,1.0,1.0,1,0,0,0,0,0,0
162257764,0.0,-0.0,-0.250884,-2.41674e-08,0.992142,0.0,-0.0,-0.125113,1.0,1.0,1,0,0,0,0,0,0
162357062,0.0,-0.0,-0.250884,-8.32561e-10,0.992142,0.0,-0.0,-0.125113,1.0,1.0,1,0,0,0,0,0,0
162457456,0.0,-0.0,-0.250884,-1.47899e-11,0.992142,0.0,-0.0,-0.125113,1.0,1.0,1,0,0,0,0,0,0
162561871,0.0,-0.0,-0.250884,1.13283e-13,0.992142,0.0,-0.0,-0.125113,1.0,1.0,1,0,0,0,0,0,0
162661051,0.0,-0.0,-0.250884,2.31345e-14,0.992142,0.0,-0.0,-0.125113,1.0,1.0,1,0,0,0,0,0,0
162761408,0.0,-0.0,-0.250884,2.53561e-16,0.992142,0.0,-0.0,-0.125113,1.0,1.0,1,0,0,0,0,0,0
162865062,0.0,-0.0,-0.250884,-1.39258e-17,0.992142,0.0,-0.0,-0.125113,1.0,1.0,1,0,0,0,0,0,0
162965016,0.0,-0.0,-0.250884,-2.69196e-19,0.992142,0.0,-0.0,-0.125113,1.0,1.0,1,0,0,0,0,0,0
163069052,0.0,-0.0,-0.250884,2.35859e-21,0.992142,0.0,-0.0,-0.125113,1.0,1.0,1,0,0,0,0,0,0
163169379,0.0,-0.0,-0.250884,1.2756e-22,0.992142,0.0,-0.0,-0.125113,1.0,1.0,1,0,0,0,0,0,0
163269028,0.0,-0.0,-0.250884,3.83651e-24,0.992142,0.0,-0.0,-0.125113,1.0,1.0,1,0,0,0,0,0,0
163371131,0.0,-0.0,-0.250884,2.64282e-27,0.992142,0.0,-0.0,-0.125113,1.0,1.0,1,0,0,0,0,0,0
163474167,0.0,-0.0,-0.250884,-4.3459e-27,0.992142,0.0,-0.0,-0.125113,1.0,1.0,1,0,0,0,0,0,0
163571376,0.0,-0.0,-0.250884,-5.62995e-29,0.992142,0.0,-0.0,-0.125113,1.0,1.0,1,0,0,0,0,0,0
163675527,0.0,-0.0,-0.250884,-3.43913e-31,0.992142,0.0,-0.0,-0.125113,1.0,1.0,1,0,0,0,0,0,0
163779511,0.0,-0.0,-0.250884,4.80055e-32,0.992142,0.0,-0.0,-0.125113,1.0,1.0,1,0,0,0,0,0,0
163881711,0.0,-0.0,-0.250884,7.3591e-34,0.992142,0.0,-0.0,-0.125113,1.0,1.0,1,0,0,0,0,0,0
163981044,0.0,-0.0,-0.250884,-1.80569e-35,0.992142,0.0,-0.0,-0.125113,1.0,1.0,1,0,0,0,0,0,0
164081604,0.0,-0.0,-0.250884,-4.96548e-37,0.992142,0.0,-0.0,-0.125113,1.0,1.0,1,0,0,0,0,0,0
164185454,0.0,-0.0,-0.250884,-4.56424e-39,0.992142,0.0,-0.0,-0.125113,1.0,1.0,1,0,0,0,0,0,0
164285029,0.0,-0.0,-0.250884,1.21767e-40,0.992142,0.0,-0.0,-0.125113,1.0,1.0,1,0,0,0,0,0,0
164385395,0.0,-0.0,-0.250884,1.16224e-41,0.992142,0.0,-0.0,-0.125113,1.0,1.0,1,0,0,0,0,0,0
164489426,0.0,-0.0,-0.250884,1.02295e-43,0.992142,0.0,-0.0,-0.125113,1.0,1.0,1,0,0,0,0,0,0
164589088,0.0,-0.0,-0.250884,-9.80909e-45,0.992142,0.0,-0.0,-0.125113,1.0,1.0,1,0,0,0,0,0,0
164693034,0.0,-0.0,-0.250884,0.0,0.992142,0.0,-0.0,-0.125113,1.0,1.0,1,0,0,0,0,0,0
164793395,0.0,-0.0,-0.250884,0.0,0.992142,0.0,-0.0,-0.125113,1.0,1.0,1,0,0,0,0,0,0
164893033,0.0,-0.0,-0.250884,0.0,0.992142,0.0,-0.0,-0.125113,1.0,1.0,1,0,0,0,0,0,0
164913405,0.0,-0.0,-0.250884,0.0,0.992142,0.0,-0.0,-0.125113,1.0,1.0,1,0,0,0,0,0,0
164913405,0.0,-0.0,-0.250884,0.0,0.992142,0.0,-0.0,-0.125113,1.0,1.0,1,0,0,0,0,0,0
164913405,0.0,-0.0,-0.250884,0.0,0.992142,0.0,-0.0,-0.125113,1.0,1.0,1,0,0,0,0,0,0
164913405,0.0,-0.0,-0.250884,0.0,0.992142,0.0,-0.0,-0.125113,1.0,1.0,1,0,0,0,0,0,0
164913405,0.0,-0.0,-0.250884,0.0,0.992142,0.0,-0.0,-0.125113,1.0,1.0,1,0,0,0,0,0,0
164913405,0.0,-0.0,-0.250884,0.0,0.992142,0.0,-0.0,-0.125113,1.0,1.0,1,0,0,0,0,0,0
164913405,0.0,-0.0,-0.250884,0.0,0.992142,0.0,-0.0,-0.125113,1.0,1.0,1,0,0,0,0,0,0
164913405,0.0,-0.0,-0.250884,0.0,0.992142,0.0,-0.0,-0.125113,1.0,1.0,1,0,0,0,0,0,0
164913405,0.0,-0.0,-0.250884,0.0,0.992142,0.0,-0.0,-0.125113,1.0,1.0,1,0,0,0,0,0,0
164913405,0.0,-0.0,-0.250884,0.0,0.992142,0.0,-0.0,-0.125113,1.0,1.0,1,0,0,0,0,0,0
164913405,0.0,-0.0,-0.250884,0.0,0.992142,0.0,-0.0,-0.125113,1.0,1.0,1,0,0,0,0,0,0
164913405,0.0,-0.0,-0.250884,0.0,0.992142,0.0,-0.0,-0.125113,1.0,1.0,1,0,0,0,0,0,0
164913405,0.0,-0.0,-0.250884,0.0,0.992142,0.0,-0.0,-0.125113,1.0,1.0,1,0,0,0,0,0,0
164913405,0.0,-0.0,-0.250884,0.0,0.992142,0.0,-0.0,-0.125113,1.0,1.0,1,0,0,0,0,0,0
164913405,0.0,-0.0,-0.250884,0.0,0.992142,0.0,-0.0,-0.125113,1.0,1.0,1,0,0,0,0,0,0
164913405,0.0,-0.0,-0.250884,0.0,0.992142,0.0,-0.0,-0.125113,1.0,1.0,1,0,0,0,0,0,0
164913405,0.0,-0.0,-0.250884,0.0,0.992142,0.0,-0.0,-0.125113,1.0,1.0,1,0,0,0,0,0,0
164913405,0.0,-0.0,-0.250884,0.0,0.992142,0.0,-0.0,-0.125113,1.0,1.0,1,0,0,0,0,0,0
164913405,0.0,-0.0,-0.250884,0.0,0.992142,0.0,-0.0,-0.125113,1.0,1.0,1,0,0,0,0,0,0
164913405,0.0,-0.0,-0.250884,0.0,0.992142,0.0,-0.0,-0.125113,1.0,1.0,1,0,0,0,0,0,0
164913405,0.0,-0.0,-0.250884,0.0,0.992142,0.0,-0.0,-0.125113,1.0,1.0,1,0,0,0,0,0,0
164913405,0.0,-0.0,-0.250884,0.0,0.992142,0.0,-0.0,-0.125113,1.0,1.0,1,0,0,0,0,0,0
164913405,0.0,-0.0,-0.250884,0.0,0.992142,0.0,-0.0,-0.125113,1.0,1.0,1,0,0,0,0,0,0
164913405,0.0,-0.0,-0.250884,0.0,0.992142,0.0,-0.0,-0.125113,1.0,1.0,1,0,0,0,0,0,0
164913405,0.0,-0.0,-0.250884,0.0,0.992142,0.0,-0.0,-0.125113,1.0,1.0,1,0,0,0,0,0,0
164913405,0.0,-0.0,-0.250884,0.0,0.992142,0.0,-0.0,-0.125113,1.0,1.0,1,0,0,0,0,0,0
164913405,0.0,-0.0,-0.250884,0.0,0.992142,0.0,-0.0,-0.125113,1.0,1.0,1,0,0,0,0,0,0
164913405,0.0,-0.0,-0.250884,0.0,0.992142,0.0,-0.0,-0.125113,1.0,1.0,1,0,0,0,0,0,0
164913405,0.0,-0.0,-0.250884,0.0,0.992142,0.0,-0.0,-0.125113,1.0,1.0,1,0,0,0,0,0,0
164913405,0.0,-0.0,-0.250884,0.0,0.992142,0.0,-0.0,-0.125113,1.0,1.0,1,0,0,0,0,0,0
168043892,0.0,-0.0,-0.252162,0.0,0.992062,0.0,-0.0,-0.125747,1.0,1.0,1,0,0,0,0,0,0
168147465,0.0,-0.0,-0.252162,0.0,0.992062,0.0,-0.0,-0.125747,1.0,1.0,1,0,0,0,0,0,0
168248373,0.0,-0.0,-0.252162,0.0,0.992062,0.0,-0.0,-0.125747,1.0,1.0,1,0,0,0,0,0,0
168348875,0.0,-0.0,-0.252162,0.0,0.992062,0.0,-0.0,-0.125747,1.0,1.0,1,0,0,0,0,0,0
168448035,0.0,-0.0,-0.252162,0.0,0.992062,0.0,-0.0,-0.125747,1.0,1.0,1,0,0,0,0,0,0
168553052,0.0,-0.0,-0.252162,0.0,0.992062,0.0,-0.0,-0.125747,1.0,1.0,1,0,0,0,0,0,0
168653818,0.0,-0.0,-0.252162,0.0,0.992062,0.0,-0.0,-0.125747,1.0,1.0,1,0,0,0,0,0,0
168756824,0.0,-0.0,-0.252162,0.0,0.992062,0.0,-0.0,-0.125747,1.0,1.0,1,0,0,0,0,0,0
168856096,0.0,-0.0,-0.252162,0.0,0.992062,0.0,-0.0,-0.125747,1.0,1.0,1,0,0,0,0,0,0
168957457,0.0,-0.0,-0.252162,0.0,0.992062,0.0,-0.0,-0.125747,1.0,1.0,1,0,0,0,0,0,0
169060475,0.0,-0.0,-0.252162,0.0,0.992062,0.0,-0.0,-0.125747,1.0,1.0,1,0,0,0,0,0,0
169160155,0.0,-0.0,-0.252162,0.0,0.992062,0.0,-0.0,-0.125747,1.0,1.0,1,0,0,0,0,0,0
169263342,0.0,-0.0,-0.252162,0.0,0.992062,0.0,-0.0,-0.125747,1.0,1.0,1,0,0,0,0,0,0
169364897,0.0,-0.0,-0.252162,0.0,0.992062,0.0,-0.0,-0.125747,1.0,1.0,1,0,0,0,0,0,0
169464017,0.0,-0.0,-0.252162,0.0,0.992062,0.0,-0.0,-0.125747,1.0,1.0,1,0,0,0,0,0,0
169568072,0.0,-0.0,-0.252162,0.0,0.992062,0.0,-0.0,-0.125747,1.0,1.0,1,0,0,0,0,0,0
169669864,0.0,-0.0,-0.252162,0.0,0.992062,0.0,-0.0,-0.125747,1.0,1.0,1,0,0,0,0,0,0
169771514,0.0,-0.0,-0.252162,0.0,0.992062,0.0,-0.0,-0.125747,1.0,1.0,1,0,0,0,0,0,0
169873071,0.0,-0.0,-0.252162,0.0,0.992062,0.0,-0.0,-0.125747,1.0,1.0,1,0,0,0,0,0,0
169972182,0.0,-0.0,-0.252162,0.0,0.992062,0.0,-0.0,-0.125747,1.0,1.0,1,0,0,0,0,0,0
170076168,0.0,-0.0,-0.252162,0.0,0.992062,0.0,-0.0,-0.125747,1.0,1.0,1,0,0,0,0,0,0
170176736,0.0,-0.0,-0.252162,0.0,0.992062,0.0,-0.0,-0.125747,1.0,1.0,1,0,0,0,0,0,0
170279537,0.0,-0.0,-0.252162,0.0,0.992062,0.0,-0.0,-0.125747,1.0,1.0,1,0,0,0,0,0,0
170380402,0.0,-0.0,-0.252162,0.0,0.992062,0.0,-0.0,-0.125747,1.0,1.0,1,0,0,0,0,0,0
170480131,0.0,-0.0,-0.252162,0.0,0.992062,0.0,-0.0,-0.125747,1.0,1.0,1,0,0,0,0,0,0
170580422,0.0,-0.0,-0.252162,0.0,0.992062,0.0,-0.0,-0.125747,1.0,1.0,1,0,0,0,0,0,0
170685384,0.0,-0.0,-0.252162,0.0,0.992062,0.0,-0.0,-0.125747,1.0,1.0,1,0,0,0,0,0,0
170784033,0.0,-0.0,-0.252162,0.0,0.992062,0.0,-0.0,-0.125747,1.0,1.0,1,0,0,0,0,0,0
170884411,0.0,-0.0,-0.252162,0.0,0.992062,0.0,-0.0,-0.125747,1.0,1.0,1,0,0,0,0,0,0
170988444,0.0,-0.0,-0.252162,0.0,0.992062,0.0,-0.0,-0.125747,1.0,1.0,1,0,0,0,0,0,0
171088152,0.0,-0.0,-0.252162,0.0,0.992062,0.0,-0.0,-0.125747,1.0,1.0,1,0,0,0,0,0,0
171192026,0.0,-0.0,-0.252162,0.0,0.992062,0.0,-0.0,-0.125747,1.0,1.0,1,0,0,0,0,0,0
171292742,0.0,-0.0,-0.252162,0.0,0.992062,0.0,-0.0,-0.125747,1.0,1.0,1,0,0,0,0,0,0
171392077,0.0,-0.0,-0.252162,0.0,0.992062,0.0,-0.0,-0.125747,1.0,1.0,1,0,0,0,0,0,0
171496068,0.0,-0.0,-0.252162,0.0,0.992062,0.0,-0.0,-0.125747,1.0,1.0,1,0,0,0,0,0,0
171596067,0.0,-0.0,-0.252162,0.0,0.992062,0.0,-0.0,-0.125747,1.0,1.0,1,0,0,0,0,0,0
171700711,0.0,-0.0,-0.252162,0.0,0.992062,0.0,-0.0,-0.125747,1.0,1.0,1,0,0,0,0,0,0
171800731,0.0,-0.0,-0.252162,0.0,0.992062,0.0,-0.0,-0.125747,1.0,1.0,1,0,0,0,0,0,0
171900046,0.0,-0.0,-0.252162,0.0,0.992062,0.0,-0.0,-0.125747,1.0,1.0,1,0,0,0,0,0,0
172004926,0.0,-0.0,-0.252162,0.0,0.992062,0.0,-0.0,-0.125747,1.0,1.0,1,0,0,0,0,0,0
172104259,0.0,-0.0,-0.252162,0.0,0.992062,0.0,-0.0,-0.125747,1.0,1.0,1,0,0,0,0,0,0
172207136,0.0,-0.0,-0.252162,0.0,0.992062,0.0,-0.0,-0.125747,1.0,1.0,1,0,0,0,0,0,0
172309091,0.0,-0.0,-0.252162,0.0,0.992062,0.0,-0.0,-0.125747,1.0,1.0,1,0,0,0,0,0,0
172410177,0.0,-0.0,-0.252162,0.0,0.992062,0.0,-0.0,-0.125747,1.0,1.0,1,0,0,0,0,0,0
172511158,0.0,-0.0,-0.252162,0.0,0.992062,0.0,-0.0,-0.125747,1.0,1.0,1,0,0,0,0,0,0
172612151,0.0,-0.0,-0.252162,0.0,0.992062,0.0,-0.0,-0.125747,1.0,1.0,1,0,0,0,0,0,0
172714049,0.0,-0.0,-0.252162,0.0,0.992062,0.0,-0.0,-0.125747,1.0,1.0,1,0,0,0,0,0,0
172814530,0.0,-0.0,-0.252162,0.0,0.992062,0.0,-0.0,-0.125747,1.0,1.0,1,0,0,0,0,0,0
172915540,0.0,-0.0,-0.252162,0.0,0.992062,0.0,-0.0,-0.125747,1.0,1.0,1,0,0,0,0,0,0
173016276,0.0,-0.0,-0.252162,0.0,0.992062,0.0,-0.0,-0.125747,1.0,1.0,1,0,0,0,0,0,0
173121394,0.0,-0.0,-0.252162,0.0,0.992062,0.0,-0.0,-0.125747,1.0,1.0,1,0,0,0,0,0,0
173220009,0.167027,-0.0,-0.252162,0.0,0.988605,0.0827542,-0.0104894,-0.125309,1.0,1.0,1,0,0,0,0,0,0
173325065,0.565934,-0.0,-0.252162,0.0,0.952609,0.276989,-0.0351093,-0.120746,1.0,1.0,1,0,0,0,0,0,0
173426268,0.610118,0.0323408,-0.241977,0.0,0.946147,0.299976,-0.0209351,-0.119927,1.0,1.0,1,0,0,0,0,0,0
173527805,0.610467,0.0236182,-0.24472,0.0,0.946147,0.299623,-0.025498,-0.119927,1.0,1.0,1,0,0,0,0,0,0
173624197,0.55291,0.000165308,-0.252115,0.0,0.954393,0.270791,-0.034237,-0.120972,1.0,1.0,1,0,0,0,0,0,0
173730433,0.509957,-1.52447e-05,-0.252166,0.0,0.959988,0.250222,-0.0317243,-0.121681,1.0,1.0,1,0,0,0,0,0,0
173831662,0.381325,-6.9098e-08,-0.252162,0.0,0.974085,0.188005,-0.0238303,-0.123468,1.0,1.0,1,0,0,0,0,0,0
173933508,0.178909,4.8422e-09,-0.252162,0.0,0.988096,0.0886263,-0.0112337,-0.125244,1.0,1.0,1,0,0,0,0,0,0
174034117,0.00120913,1.58308e-10,-0.252162,0.0,0.992062,0.000599765,-7.6022e-05,-0.125747,1.0,1.0,1,0,0,0,0,0,0
174136033,0.000361968,2.49351e-12,-0.252162,0.0,0.992062,0.000179548,-2.27582e-05,-0.125747,1.0,1.0,1,0,0,0,0,0,0
174237863,4.17137e-06,-2.5599e-14,-0.252162,0.0,0.992062,2.06913e-06,-2.62269e-07,-0.125747,1.0,1.0,1,0,0,0,0,0,0
174339251,-2.0734e-07,-4.2363e-15,-0.252162,0.0,0.992062,-1.02847e-07,1.30362e-08,-0.125747,1.0,1.0,1,0,0,0,0,0,0
174437777,0.00673481,-4.46719e-17,-0.252162,0.0,0.992057,0.00334067,-0.00042344,-0.125746,1.0,1.0,1,0,0,0,0,0,0
174540220,0.180055,2.62669e-18,-0.252162,0.0,0.988045,0.0891922,-0.0113054,-0.125238,1.0,1.0,1,0,0,0,0,0,0
174640992,0.259248,4.92583e-20,-0.252162,0.0,0.983739,0.128236,-0.0162543,-0.124692,1.0,1.0,1,0,0,0,0,0,0
174743237,0.168367,-5.08799e-22,-0.252162,0.0,0.988549,0.0834166,-0.0105733,-0.125302,1.0,1.0,1,0,0,0,0,0,0
174845035,-0.0674697,-2.45381e-23,-0.252162,0.0,0.991498,-0.0334607,0.00424125,-0.125675,1.0,1.0,1,0,0,0,0,0,0
174946855,-0.208581,-6.66937e-25,-0.252162,0.0,0.986672,-0.103275,0.0130905,-0.125064,1.0,1.0,1,0,0,0,0,0,0
175048637,-0.374101,3.33674e-28,-0.252162,0.0,0.974758,-0.184486,0.0233841,-0.123554,1.0,1.0,1,0,0,0,0,0,0
175149577,-0.465818,1.95821e-28,-0.252162,0.0,0.965276,-0.228977,0.0290236,-0.122352,1.0,1.0,1,0,0,0,0,0,0
175253109,-0.498541,9.68327e-30,-0.252162,0.0,0.9614,-0.244739,0.0310214,-0.121861,1.0,1.0,1,0,0,0,0,0,0
175353340,-0.480997,5.2899e-32,-0.252162,0.0,0.96351,-0.236296,0.0299513,-0.122128,1.0,1.0,1,0,0,0,0,0,0
175455521,-0.37575,-8.74493e-33,-0.252162,0.0,0.974605,-0.185289,0.023486,-0.123534,1.0,1.0,1,0,0,0,0,0,0
175522505,-0.372872,7.11091e-34,-0.252162,0.0,0.974871,-0.183887,0.0233082,-0.123568,1.0,1.0,1,0,0,0,0,0,0
175522505,-0.372872,7.11091e-34,-0.252162,0.0,0.974871,-0.183887,0.0233082,-0.123568,1.0,1.0,1,0,0,0,0,0,0
175522505,-0.372872,7.11091e-34,-0.252162,0.0,0.974871,-0.183887,0.0233082,-0.123568,1.0,1.0,1,0,0,0,0,0,0
175522505,-0.372872,7.11091e-34,-0.252162,0.0,0.974871,-0.183887,0.0233082,-0.123568,1.0,1.0,1,0,0,0,0,0,0
175522505,-0.372872,7.11091e-34,-0.252162,0.0,0.974871,-0.183887,0.0233082,-0.123568,1.0,1.0,1,0,0,0,0,0,0
175522505,-0.372872,7.11091e-34,-0.252162,0.0,0.974871,-0.183887,0.0233082,-0.123568,1.0,1.0,1,0,0,0,0,0,0
175522505,-0.372872,7.11091e-34,-0.252162,0.0,0.974871,-0.183887,0.0233082,-0.123568,1.0,1.0,1,0,0,0,0,0,0
175522505,-0.372872,7.11091e-34,-0.252162,0.0,0.974871,-0.183887,0.0233082,-0.123568,1.0,1.0,1,0,0,0,0,0,0
175522505,-0.372872,7.11091e-34,-0.252162,0.0,0.974871,-0.183887,0.0233082,-0.123568,1.0,1.0,1,0,0,0,0,0,0
175522505,-0.372872,7.11091e-34,-0.252162,0.0,0.974871,-0.183887,0.0233082,-0.123568,1.0,1.0,1,0,0,0,0,0,0
175522505,-0.372872,7.11091e-34,-0.252162,0.0,0.974871,-0.183887,0.0233082,-0.123568,1.0,1.0,1,0,0,0,0,0,0
175522505,-0.372872,7.11091e-34,-0.252162,0.0,0.974871,-0.183887,0.0233082,-0.123568,1.0,1.0,1,0,0,0,0,0,0
175522505,-0.372872,7.11091e-34,-0.252162,0.0,0.974871,-0.183887,0.0233082,-0.123568,1.0,1.0,1,0,0,0,0,0,0
175522505,-0.372872,7.11091e-34,-0.252162,0.0,0.974871,-0.183887,0.0233082,-0.123568,1.0,1.0,1,0,0,0,0,0,0
175522505,-0.372872,7.11091e-34,-0.252162,0.0,0.974871,-0.183887,0.0233082,-0.123568,1.0,1.0,1,0,0,0,0,0,0
175522505,-0.372872,7.11091e-34,-0.252162,0.0,0.974871,-0.183887,0.0233082,-0.123568,1.0,1.0,1,0,0,0,0,0,0
175522505,-0.372872,7.11091e-34,-0.252162,0.0,0.974871,-0.183887,0.0233082,-0.123568,1.0,1.0,1,0,0,0,0,0,0
175522505,-0.372872,7.11091e-34,-0.252162,0.0,0.974871,-0.183887,0.0233082,-0.123568,1.0,1.0,1,0,0,0,0,0,0
175522505,-0.372872,7.11091e-34,-0.252162,0.0,0.974871,-0.183887,0.0233082,-0.123568,1.0,1.0,1,0,0,0,0,0,0
175522505,-0.372872,7.11091e-34,-0.252162,0.0,0.974871,-0.183887,0.0233082,-0.123568,1.0,1.0,1,0,0,0,0,0,0
175522505,-0.372872,7.11091e-34,-0.252162,0.0,0.974871,-0.183887,0.0233082,-0.123568,1.0,1.0,1,0,0,0,0,0,0
175522505,-0.372872,7.11091e-34,-0.252162,0.0,0.974871,-0.183887,0.0233082,-0.123568,1.0,1.0,1,0,0,0,0,0,0
175522505,-0.372872,7.11091e-34,-0.252162,0.0,0.974871,-0.183887,0.0233082,-0.123568,1.0,1.0,1,0,0,0,0,0,0
175522505,-0.372872,7.11091e-34,-0.252162,0.0,0.974871,-0.183887,0.0233082,-0.123568,1.0,1.0,1,0,0,0,0,0,0
175522505,-0.372872,7.11091e-34,-0.252162,0.0,0.974871,-0.183887,0.0233082,-0.123568,1.0,1.0,1,0,0,0,0,0,0
175522505,-0.372872,7.11091e-34,-0.252162,0.0,0.974871,-0.183887,0.0233082,-0.123568,1.0,1.0,1,0,0,0,0,0,0
175522505,-0.372872,7.11091e-34,-0.252162,0.0,0.974871,-0.183887,0.0233082,-0.123568,1.0,1.0,1,0,0,0,0,0,0
175522505,-0.372872,7.11091e-34,-0.252162,0.0,0.974871,-0.183887,0.0233082,-0.123568,1.0,1.0,1,0,0,0,0,0,0
175522505,-0.372872,7.11091e-34,-0.252162,0.0,0.974871,-0.183887,0.0233082,-0.123568,1.0,1.0,1,0,0,0,0,0,0
175522505,-0.372872,7.11091e-34,-0.252162,0.0,0.974871,-0.183887,0.0233082,-0.123568,1.0,1.0,1,0,0,0,0,0,0
175522505,-0.372872,7.11091e-34,-0.252162,0.0,0.974871,-0.183887,0.0233082,-0.123568,1.0,1.0,1,0,0,0,0,0,0
175522505,-0.372872,7.11091e-34,-0.252162,0.0,0.974871,-0.183887,0.0233082,-0.123568,1.0,1.0,1,0,0,0,0,0,0
175522505,-0.372872,7.11091e-34,-0.252162,0.0,0.974871,-0.183887,0.0233082,-0.123568,1.0,1.0,1,0,0,0,0,0,0
175522505,-0.372872,7.11091e-34,-0.252162,0.0,0.974871,-0.183887,0.0233082,-0.123568,1.0,1.0,1,0,0,0,0,0,0
175522505,-0.372872,7.11091e-34,-0.252162,0.0,0.974871,-0.183887,0.0233082,-0.123568,1.0,1.0,1,0,0,0,0,0,0
175522505,-0.372872,7.11091e-34,-0.252162,0.0,0.974871,-0.183887,0.0233082,-0.123568,1.0,1.0,1,0,0,0,0,0,0
175522505,-0.372872,7.11091e-34,-0.252162,0.0,0.974871,-0.183887,0.0233082,-0.123568,1.0,1.0,1,0,0,0,0,0,0
175522505,-0.372872,7.11091e-34,-0.252162,0.0,0.974871,-0.183887,0.0233082,-0.123568,1.0,1.0,1,0,0,0,0,0,0
175522505,-0.372872,7.11091e-34,-0.252162,0.0,0.974871,-0.183887,0.0233082,-0.123568,1.0,1.0,1,0,0,0,0,0,0
175522505,-0.372872,7.11091e-34,-0.252162,0.0,0.974871,-0.183887,0.0233082,-0.123568,1.0,1.0,1,0,0,0,0,0,0
175522505,-0.372872,7.11091e-34,-0.252162,0.0,0.974871,-0.183887,0.0233082,-0.123568,1.0,1.0,1,0,0,0,0,0,0
175522505,-0.372872,7.11091e-34,-0.252162,0.0,0.974871,-0.183887,0.0233082,-0.123568,1.0,1.0,1,0,0,0,0,0,0
175522505,-0.372872,7.11091e-34,-0.252162,0.0,0.974871,-0.183887,0.0233082,-0.123568,1.0,1.0,1,0,0,0,0,0,0
175522505,-0.372872,7.11091e-34,-0.252162,0.0,0.974871,-0.183887,0.0233082,-0.123568,1.0,1.0,1,0,0,0,0,0,0
175522505,-0.372872,7.11091e-34,-0.252162,0.0,0.974871,-0.183887,0.0233082,-0.123568,1.0,1.0,1,0,0,0,0,0,0
175522505,-0.372872,7.11091e-34,-0.252162,0.0,0.974871,-0.183887,0.0233082,-0.123568,1.0,1.0,1,0,0,0,0,0,0
175522505,-0.372872,7.11091e-34,-0.252162,0.0,0.974871,-0.183887,0.0233082,-0.123568,1.0,1.0,1,0,0,0,0,0,0
175522505,-0.372872,7.11091e-34,-0.252162,0.0,0.974871,-0.183887,0.0233082,-0.123568,1.0,1.0,1,0,0,0,0,0,0
175522505,-0.372872,7.11091e-34,-0.252162,0.0,0.974871,-0.183887,0.0233082,-0.123568,1.0,1.0,1,0,0,0,0,0,0
175522505,-0.372872,7.11091e-34,-0.252162,0.0,0.974871,-0.183887,0.0233082,-0.123568,1.0,1.0,1,0,0,0,0,0,0
175522505,-0.372872,7.11091e-34,-0.252162,0.0,0.974871,-0.183887,0.0233082,-0.123568,1.0,1.0,1,0,0,0,0,0,0
175522505,-0.372872,7.11091e-34,-0.252162,0.0,0.974871,-0.183887,0.0233082,-0.123568,1.0,1.0,1,0,0,0,0,0,0
175522505,-0.372872,7.11091e-34,-0.252162,0.0,0.974871,-0.183887,0.0233082,-0.123568,1.0,1.0,1,0,0,0,0,0,0
175522505,-0.372872,7.11091e-34,-0.252162,0.0,0.974871,-0.183887,0.0233082,-0.123568,1.0,1.0,1,0,0,0,0,0,0
175522505,-0.372872,7.11091e-34,-0.252162,0.0,0.974871,-0.183887,0.0233082,-0.123568,1.0,1.0,1,0,0,0,0,0,0
175522505,-0.372872,7.11091e-34,-0.252162,0.0,0.974871,-0.183887,0.0233082,-0.123568,1.0,1.0,1,0,0,0,0,0,0
175522505,-0.372872,7.11091e-34,-0.252162,0.0,0.974871,-0.183887,0.0233082,-0.123568,1.0,1.0,1,0,0,0,0,0,0
175522505,-0.372872,7.11091e-34,-0.252162,0.0,0.974871,-0.183887,0.0233082,-0.123568,1.0,1.0,1,0,0,0,0,0,0
175522505,-0.372872,7.11091e-34,-0.252162,0.0,0.974871,-0.183887,0.0233082,-0.123568,1.0,1.0,1,0,0,0,0,0,0
175522505,-0.372872,7.11091e-34,-0.252162,0.0,0.974871,-0.183887,0.0233082,-0.123568,1.0,1.0,1,0,0,0,0,0,0
175522505,-0.372872,7.11091e-34,-0.252162,0.0,0.974871,-0.183887,0.0233082,-0.123568,1.0,1.0,1,0,0,0,0,0,0
175522505,-0.372872,7.11091e-34,-0.252162,0.0,0.974871,-0.183887,0.0233082,-0.123568,1.0,1.0,1,0,0,0,0,0,0
175522505,-0.372872,7.11091e-34,-0.252162,0.0,0.974871,-0.183887,0.0233082,-0.123568,1.0,1.0,1,0,0,0,0,0,0
175522505,-0.372872,7.11091e-34,-0.252162,0.0,0.974871,-0.183887,0.0233082,-0.123568,1.0,1.0,1,0,0,0,0,0,0
175522505,-0.372872,7.11091e-34,-0.252162,0.0,0.974871,-0.183887,0.0233082,-0.123568,1.0,1.0,1,0,0,0,0,0,0
175522505,-0.372872,7.11091e-34,-0.252162,0.0,0.974871,-0.183887,0.0233082,-0.123568,1.0,1.0,1,0,0,0,0,0,0
182258454,0.0,-0.0,-0.213218,0.0,0.994323,0.0,-0.0,-0.106407,1.0,1.0,1,0,0,0,0,0,0
182361029,0.0,-0.0,-0.213218,0.0,0.994323,0.0,-0.0,-0.106407,1.0,1.0,1,0,0,0,0,0,0
182461844,0.0,-0.0,-0.213218,0.0,0.994323,0.0,-0.0,-0.106407,1.0,1.0,1,0,0,0,0,0,0
182564809,0.0,-0.0,-0.213218,0.0,0.994323,0.0,-0.0,-0.106407,1.0,1.0,1,0,0,0,0,0,0
182663088,0.0,-0.0,-0.213218,0.0,0.994323,0.0,-0.0,-0.106407,1.0,1.0,1,0,0,0,0,0,0
182766037,0.0,-0.0,-0.213218,0.0,0.994323,0.0,-0.0,-0.106407,1.0,1.0,1,0,0,0,0,0,0
182865428,0.0,-0.0,-0.213218,0.0,0.994323,0.0,-0.0,-0.106407,1.0,1.0,1,0,0,0,0,0,0
182969730,0.0,-0.0,-0.213218,0.0,0.994323,0.0,-0.0,-0.106407,1.0,1.0,1,0,0,0,0,0,0
183068063,0.0,-0.0,-0.213218,0.0,0.994323,0.0,-0.0,-0.106407,1.0,1.0,1,0,0,0,0,0,0
183171040,0.0,-0.0,-0.213218,0.0,0.994323,0.0,-0.0,-0.106407,1.0,1.0,1,0,0,0,0,0,0
183274071,0.0,-0.0,-0.213218,0.0,0.994323,0.0,-0.0,-0.106407,1.0,1.0,1,0,0,0,0,0,0
183374440,0.0,-0.0,-0.213218,0.0,0.994323,0.0,-0.0,-0.106407,1.0,1.0,1,0,0,0,0,0,0
183477451,0.0,-0.0,-0.213218,0.0,0.994323,0.0,-0.0,-0.106407,1.0,1.0,1,0,0,0,0,0,0
183576032,0.0,-0.0,-0.213218,0.0,0.994323,0.0,-0.0,-0.106407,1.0,1.0,1,0,0,0,0,0,0
183680462,0.0,-0.0,-0.213218,0.0,0.994323,0.0,-0.0,-0.106407,1.0,1.0,1,0,0,0,0,0,0
183779176,0.0,-0.0,-0.213218,0.0,0.994323,0.0,-0.0,-0.106407,1.0,1.0,1,0,0,0,0,0,0
183882288,0.0,-0.0,-0.213218,0.0,0.994323,0.0,-0.0,-0.106407,1.0,1.0,1,0,0,0,0,0,0
183980111,0.0,-0.0,-0.213218,0.0,0.994323,0.0,-0.0,-0.106407,1.0,1.0,1,0,0,0,0,0,0
184085173,0.0,-0.0,-0.213218,0.0,0.994323,0.0,-0.0,-0.106407,1.0,1.0,1,0,0,0,0,0,0
184187053,0.0,-0.0,-0.213218,0.0,0.994323,0.0,-0.0,-0.106407,1.0,1.0,1,0,0,0,0,0,0
184288706,0.0,-0.0,-0.213218,0.0,0.994323,0.0,-0.0,-0.106407,1.0,1.0,1,0,0,0,0,0,0
184391179,0.2263,-0.0,-0.213218,0.0,0.987964,0.112268,-0.0120143,-0.105727,1.0,1.0,1,0,0,0,0,0,0
184490213,0.552162,-0.0,-0.213218,0.0,0.956669,0.27104,-0.0290053,-0.102378,1.0,1.0,1,0,0,0,0,0,0
184594038,0.610865,-0.0,-0.213218,0.0,0.948302,0.298999,-0.0319973,-0.101483,1.0,1.0,1,0,0,0,0,0,0
184693438,0.343736,-0.0,-0.213218,0.0,0.979673,0.170052,-0.0181981,-0.10484,1.0,1.0,1,0,0,0,0,0,0
184796434,-0.0194357,-0.0,-0.213218,0.0,0.994276,-0.00966254,0.00103404,-0.106402,1.0,1.0,1,0,0,0,0,0,0
184896399,-0.0625989,-0.0,-0.213218,0.0,0.993836,-0.0311166,0.00332995,-0.106355,1.0,1.0,1,0,0,0,0,0,0
184999609,0.00107207,-0.0,-0.213218,0.0,0.994322,0.000532993,-5.70382e-05,-0.106407,1.0,1.0,1,0,0,0,0,0,0
185099372,3.63305e-05,-0.0,-0.213218,0.0,0.994323,1.80621e-05,-1.93292e-06,-0.106407,1.0,1.0,1,0,0,0,0,0,0
185203793,7.20675e-07,-0.0,-0.213218,0.0,0.994323,3.58292e-07,-3.83426e-08,-0.106407,1.0,1.0,1,0,0,0,0,0,0
185302044,-5.20339e-09,-0.0,-0.213218,0.0,0.994323,-2.58692e-09,2.7684e-10,-0.106407,1.0,1.0,1,0,0,0,0,0,0
185405721,-9.991e-10,-0.0,-0.213218,0.0,0.994323,-4.96714e-10,5.31558e-11,-0.106407,1.0,1.0,1,0,0,0,0,0,0
185504170,0.0,-0.0,-0.213218,0.0,0.994323,0.0,-0.0,-0.106407,1.0,1.0,1,0,0,0,0,0,0
185608034,0.0,-0.0,-0.213218,0.0,0.994323,0.0,-0.0,-0.106407,1.0,1.0,1,0,0,0,0,0,0
185707941,0.0,-0.0,-0.213218,0.0,0.994323,0.0,-0.0,-0.106407,1.0,1.0,1,0,0,0,0,0,0
185811649,0.0,-0.0,-0.213218,0.0,0.994323,0.0,-0.0,-0.106407,1.0,1.0,1,0,0,0,0,0,0
185911499,0.0,-0.0,-0.213218,0.0,0.994323,0.0,-0.0,-0.106407,1.0,1.0,1,0,0,0,0,0,0
186014428,0.0,-0.0,-0.213218,0.0,0.994323,0.0,-0.0,-0.106407,1.0,1.0,1,0,0,0,0,0,0
186113025,0.0,-0.0,-0.213218,0.0,0.994323,0.0,-0.0,-0.106407,1.0,1.0,1,0,0,0,0,0,0
