timestamp,roll_body,pitch_body,yaw_body,yaw_sp_move_rate,q_d[0],q_d[1],q_d[2],q_d[3],thrust,landing_gear,q_d_valid,roll_reset_integral,pitch_reset_integral,yaw_reset_integral,fw_control_yaw,disable_mc_yaw_control,apply_flaps
28186399,0.0,-0.0,-0.0413433,0.0,0.999786,0.0,-0.0,-0.0206702,0.0,-1.0,1,0,0,0,0,0,0
28287864,0.0,-0.0,-0.0405983,0.0,0.999794,0.0,-0.0,-0.0202978,5.95652e-28,-1.0,1,0,0,0,0,0,0
28389927,0.0,-0.0,-0.0401613,0.0,0.999798,0.0,-0.0,-0.0200793,3.92852e-29,-1.0,1,0,0,0,0,0,0
28489961,0.0,-0.0,-0.0395361,0.0,0.999805,0.0,-0.0,-0.0197668,2.84476e-31,-1.0,1,0,0,0,0,0,0
28593916,0.0,-0.0,-0.0395198,0.0,0.999805,0.0,-0.0,-0.0197586,0.0,-1.0,1,0,0,0,0,0,0
28693990,0.0,-0.0,-0.0390678,0.0,0.999809,0.0,-0.0,-0.0195326,0.0,-1.0,1,0,0,0,0,0,0
28793949,0.0,-0.0,-0.0390437,0.0,0.999809,0.0,-0.0,-0.0195206,0.0,-1.0,1,0,0,0,0,0,0
28894142,0.0,-0.0,-0.0380645,-0.0117705,0.999819,0.0,-0.0,-0.0190311,0.41127,-1.0,1,0,0,0,0,0,0
28999290,0.0,-0.0,-0.0397705,0.00194888,0.999802,0.0,-0.0,-0.0198839,0.615342,-1.0,1,0,0,0,0,0,0
29099316,0.0,-0.0,-0.0395059,0.00726108,0.999805,0.0,-0.0,-0.0197516,0.619179,-1.0,1,0,0,0,0,0,0
29202236,0.0,-0.0,-0.0393082,-0.00014152,0.999807,0.0,-0.0,-0.0196528,0.619329,-1.0,1,0,0,0,0,0,0
29300919,0.0,-0.0,-0.0393084,-7.26082e-06,0.999807,0.0,-0.0,-0.0196529,0.61933,-1.0,1,0,0,0,0,0,0
29404831,0.0,-0.0,-0.0393085,-4.11912e-08,0.999807,0.0,-0.0,-0.019653,0.619329,-1.0,1,0,0,0,0,0,0
29507736,0.0,-0.0,-0.0393085,9.23334e-10,0.999807,0.0,-0.0,-0.019653,0.619329,-1.0,1,0,0,0,0,0,0
29607005,0.0,-0.0,-0.0393085,9.58442e-11,0.999807,0.0,-0.0,-0.019653,0.619329,-1.0,1,0,0,0,0,0,0
29710142,0.0,-0.0,-0.0393085,8.86002e-13,0.999807,0.0,-0.0,-0.019653,0.619329,-1.0,1,0,0,0,0,0,0
29810183,0.0,-0.0,-0.0393085,-6.61936e-14,0.999807,0.0,-0.0,-0.019653,0.619329,-1.0,1,0,0,0,0,0,0
29914734,0.0,-0.0,-0.0393085,-1.16391e-15,0.999807,0.0,-0.0,-0.019653,0.619329,-1.0,1,0,0,0,0,0,0
30013958,0.0,-0.0,-0.0393085,-1.39192e-17,0.999807,0.0,-0.0,-0.019653,0.619329,-1.0,1,0,0,0,0,0,0
30113936,0.0,-0.0,-0.0393085,6.40545e-19,0.999807,0.0,-0.0,-0.019653,0.619329,-1.0,1,0,0,0,0,0,0
30218180,0.0,-0.0,-0.0393085,1.31996e-20,0.999807,0.0,-0.0,-0.019653,0.619812,-1.0,1,0,0,0,0,0,0
30317931,0.0,-0.0,-0.0393085,1.89561e-22,0.999807,0.0,-0.0,-0.019653,0.61933,-1.0,1,0,0,0,0,0,0
30418051,0.0,-0.0,-0.0393085,-5.62558e-24,0.999807,0.0,-0.0,-0.019653,0.619329,-1.0,1,0,0,0,0,0,0
30522946,0.0,-0.0,-0.0393085,-1.40312e-25,0.999807,0.0,-0.0,-0.019653,0.619329,-1.0,1,0,0,0,0,0,0
30621928,0.0,-0.0,-0.0393085,-6.78499e-28,0.999807,0.0,-0.0,-0.019653,0.619329,-1.0,1,0,0,0,0,0,0
30722048,-0.00377055,-0.0,-0.0393085,4.21923e-29,0.999805,-0.00188491,3.70512e-05,-0.0196529,0.619274,-1.0,1,0,0,0,0,0,0
30827224,0.00301391,-0.0,-0.0393085,1.39074e-30,0.999806,0.00150666,-2.96162e-05,-0.019653,0.619329,-1.0,1,0,0,0,0,0,0
30926991,-7.80478e-05,-0.0,-0.0393085,2.25764e-32,0.999807,-3.90164e-05,7.66936e-07,-0.019653,0.619329,-1.0,1,0,0,0,0,0,0
31030016,-0.0215364,-0.0,-0.0393085,-2.16344e-34,0.999749,-0.0107659,0.000211623,-0.0196518,0.619329,-1.0,1,0,0,0,0,0,0
31131281,0.00115472,-0.0,-0.0393085,-3.75583e-35,0.999807,0.000577247,-1.13468e-05,-0.019653,0.619329,-1.0,1,0,0,0,0,0,0
31134263,0.000128818,-0.0,-0.0393085,0.0,0.999807,6.43966e-05,-1.26583e-06,-0.019653,0.619329,-1.0,1,0,0,0,0,0,0
31134263,0.000128818,-0.0,-0.0393085,0.0,0.999807,6.43966e-05,-1.26583e-06,-0.019653,0.619329,-1.0,1,0,0,0,0,0,0
31134263,0.000128818,-0.0,-0.0393085,0.0,0.999807,6.43966e-05,-1.26583e-06,-0.019653,0.619329,-1.0,1,0,0,0,0,0,0
31134263,0.000128818,-0.0,-0.0393085,0.0,0.999807,6.43966e-05,-1.26583e-06,-0.019653,0.619329,-1.0,1,0,0,0,0,0,0
31134263,0.000128818,-0.0,-0.0393085,0.0,0.999807,6.43966e-05,-1.26583e-06,-0.019653,0.619329,-1.0,1,0,0,0,0,0,0
31134263,0.000128818,-0.0,-0.0393085,0.0,0.999807,6.43966e-05,-1.26583e-06,-0.019653,0.619329,-1.0,1,0,0,0,0,0,0
31134263,0.000128818,-0.0,-0.0393085,0.0,0.999807,6.43966e-05,-1.26583e-06,-0.019653,0.619329,-1.0,1,0,0,0,0,0,0
31134263,0.000128818,-0.0,-0.0393085,0.0,0.999807,6.43966e-05,-1.26583e-06,-0.019653,0.619329,-1.0,1,0,0,0,0,0,0
31134263,0.000128818,-0.0,-0.0393085,0.0,0.999807,6.43966e-05,-1.26583e-06,-0.019653,0.619329,-1.0,1,0,0,0,0,0,0
31134263,0.000128818,-0.0,-0.0393085,0.0,0.999807,6.43966e-05,-1.26583e-06,-0.019653,0.619329,-1.0,1,0,0,0,0,0,0
31134263,0.000128818,-0.0,-0.0393085,0.0,0.999807,6.43966e-05,-1.26583e-06,-0.019653,0.619329,-1.0,1,0,0,0,0,0,0
31134263,0.000128818,-0.0,-0.0393085,0.0,0.999807,6.43966e-05,-1.26583e-06,-0.019653,0.619329,-1.0,1,0,0,0,0,0,0
31134263,0.000128818,-0.0,-0.0393085,0.0,0.999807,6.43966e-05,-1.26583e-06,-0.019653,0.619329,-1.0,1,0,0,0,0,0,0
31134263,0.000128818,-0.0,-0.0393085,0.0,0.999807,6.43966e-05,-1.26583e-06,-0.019653,0.619329,-1.0,1,0,0,0,0,0,0
31134263,0.000128818,-0.0,-0.0393085,0.0,0.999807,6.43966e-05,-1.26583e-06,-0.019653,0.619329,-1.0,1,0,0,0,0,0,0
31134263,0.000128818,-0.0,-0.0393085,0.0,0.999807,6.43966e-05,-1.26583e-06,-0.019653,0.619329,-1.0,1,0,0,0,0,0,0
31134263,0.000128818,-0.0,-0.0393085,0.0,0.999807,6.43966e-05,-1.26583e-06,-0.019653,0.619329,-1.0,1,0,0,0,0,0,0
31134263,0.000128818,-0.0,-0.0393085,0.0,0.999807,6.43966e-05,-1.26583e-06,-0.019653,0.619329,-1.0,1,0,0,0,0,0,0
31134263,0.000128818,-0.0,-0.0393085,0.0,0.999807,6.43966e-05,-1.26583e-06,-0.019653,0.619329,-1.0,1,0,0,0,0,0,0
31134263,0.000128818,-0.0,-0.0393085,0.0,0.999807,6.43966e-05,-1.26583e-06,-0.019653,0.619329,-1.0,1,0,0,0,0,0,0
31134263,0.000128818,-0.0,-0.0393085,0.0,0.999807,6.43966e-05,-1.26583e-06,-0.019653,0.619329,-1.0,1,0,0,0,0,0,0
31134263,0.000128818,-0.0,-0.0393085,0.0,0.999807,6.43966e-05,-1.26583e-06,-0.019653,0.619329,-1.0,1,0,0,0,0,0,0
31134263,0.000128818,-0.0,-0.0393085,0.0,0.999807,6.43966e-05,-1.26583e-06,-0.019653,0.619329,-1.0,1,0,0,0,0,0,0
31134263,0.000128818,-0.0,-0.0393085,0.0,0.999807,6.43966e-05,-1.26583e-06,-0.019653,0.619329,-1.0,1,0,0,0,0,0,0
31134263,0.000128818,-0.0,-0.0393085,0.0,0.999807,6.43966e-05,-1.26583e-06,-0.019653,0.619329,-1.0,1,0,0,0,0,0,0
31134263,0.000128818,-0.0,-0.0393085,0.0,0.999807,6.43966e-05,-1.26583e-06,-0.019653,0.619329,-1.0,1,0,0,0,0,0,0
33871486,0.0,-0.0,-0.464546,0.0,0.973146,0.0,-0.0,-0.23019,0.619329,-1.0,1,0,0,0,0,0,0
33971726,0.0,-0.0,-0.464546,0.0,0.973146,0.0,-0.0,-0.23019,0.619329,-1.0,1,0,0,0,0,0,0
34074755,0.0,-0.0,-0.464546,0.0,0.973146,0.0,-0.0,-0.23019,0.619329,-1.0,1,0,0,0,0,0,0
34174076,0.0,-0.0,-0.464546,0.0,0.973146,0.0,-0.0,-0.23019,0.619329,-1.0,1,0,0,0,0,0,0
34278017,0.0,-0.0,-0.464546,0.0,0.973146,0.0,-0.0,-0.23019,0.619329,-1.0,1,0,0,0,0,0,0
34378719,0.0,-0.0,-0.464546,0.0,0.973146,0.0,-0.0,-0.23019,0.619329,-1.0,1,0,0,0,0,0,0
34478068,0.0,-0.0,-0.464546,0.0,0.973146,0.0,-0.0,-0.23019,0.619329,-1.0,1,0,0,0,0,0,0
34582060,0.0,-0.0,-0.464546,0.0,0.973146,0.0,-0.0,-0.23019,0.619329,-1.0,1,0,0,0,0,0,0
34682591,0.0,-0.0,-0.464546,0.0,0.973146,0.0,-0.0,-0.23019,0.763621,-1.0,1,0,0,0,0,0,0
34786038,0.0,-0.0,-0.463956,0.0300447,0.973214,0.0,-0.0,-0.229903,0.995075,-1.0,1,0,0,0,0,0,0
34886595,0.0,-0.0,-0.446952,0.153441,0.975133,0.0,-0.0,-0.22162,0.99985,-1.0,1,0,0,0,0,0,0
34987559,0.0,-0.0,-0.441391,-0.00103037,0.975745,0.0,-0.0,-0.218908,0.999998,-1.0,1,0,0,0,0,0,0
35090058,0.0,-0.0,-0.441367,-4.15927e-05,0.975748,0.0,-0.0,-0.218897,1.0,-1.0,1,0,0,0,0,0,0
35190660,0.0,-0.0,-0.441367,-9.45631e-07,0.975748,0.0,-0.0,-0.218897,1.0,-1.0,1,0,0,0,0,0,0
35290051,0.0,-0.0,-0.441367,3.02631e-09,0.975748,0.0,-0.0,-0.218897,1.0,-1.0,1,0,0,0,0,0,0
35394130,0.00245049,-0.0,-0.441367,1.26125e-09,0.975747,0.00119553,-0.000268202,-0.218896,1.0,-1.0,1,0,0,0,0,0,0
35494822,0.00747773,-0.00528926,-0.441387,1.49647e-11,0.975738,0.00306924,-0.00339892,-0.218894,1.0,-1.0,1,0,0,0,0,0,0
35592856,0.0109814,-0.0807685,-0.441811,-7.00237e-13,0.974938,-0.00349329,-0.0405937,-0.218715,1.0,-1.0,1,0,0,0,0,0,0
35699720,0.0158088,-0.214254,-0.443067,-1.43385e-14,0.970125,-0.0158259,-0.106033,-0.217635,1.0,-1.0,1,0,0,0,0,0,0
35799036,0.0386734,-0.348907,-0.448184,7.71319e-17,0.960764,-0.0199978,-0.17343,-0.215535,1.0,-1.0,1,0,0,0,0,0,0
35899459,0.0394094,-0.442621,-0.450235,6.17679e-18,0.951775,-0.0302515,-0.218219,-0.213519,1.0,-1.0,1,0,0,0,0,0,0
36003465,0.0278475,-0.457444,-0.44785,2.29095e-19,0.950249,-0.0371209,-0.224062,-0.213176,1.0,-1.0,1,0,0,0,0,0,0
36103104,-0.02302,-0.252114,-0.43845,6.79628e-22,0.967943,-0.0384847,-0.120223,-0.217146,1.0,-1.0,1,0,0,0,0,0,0
36206050,-0.0311461,-0.113071,-0.439604,-2.32546e-22,0.974071,-0.0274923,-0.0517495,-0.218521,1.0,-1.0,1,0,0,0,0,0,0
36306414,-0.0468704,0.00334006,-0.441445,-3.20752e-24,0.975479,-0.022499,0.00675937,-0.218836,1.0,-1.0,1,0,0,0,0,0,0
36410435,-0.0219175,-0.000121558,-0.441366,1.05937e-25,0.975689,-0.0107061,0.00233948,-0.218884,1.0,-1.0,1,0,0,0,0,0,0
36510024,-8.11258e-05,-2.75857e-06,-0.441367,2.51106e-27,0.975748,-3.98811e-05,7.53325e-06,-0.218897,1.0,-1.0,1,0,0,0,0,0,0
36610417,1.39161e-05,-5.24738e-10,-0.441367,5.99671e-30,0.975748,6.78922e-06,-1.52334e-06,-0.218897,1.0,-1.0,1,0,0,0,0,0,0
36710049,2.06602e-07,9.92697e-10,-0.441367,-8.33345e-31,0.975748,1.00904e-07,-2.21279e-08,-0.218897,1.0,-1.0,1,0,0,0,0,0,0
36814050,0.0554013,5.18887e-11,-0.441367,-5.00733e-32,0.975374,0.0270254,-0.0060628,-0.218813,1.0,-1.0,1,0,0,0,0,0,0
36914475,0.278456,2.97588e-13,-0.441367,-3.35743e-34,0.966306,0.135413,-0.0303782,-0.216778,1.0,-1.0,1,0,0,0,0,0,0
37018694,0.336626,-4.42301e-14,-0.441367,4.11533e-35,0.96196,0.163457,-0.0366694,-0.215803,1.0,-1.0,1,0,0,0,0,0,0
37118440,0.346199,-6.69669e-16,-0.441367,6.45692e-37,0.961166,0.168059,-0.037702,-0.215625,1.0,-1.0,1,0,0,0,0,0,0
37218496,0.343157,1.70183e-17,-0.441367,-1.47133e-38,0.961421,0.166597,-0.0373739,-0.215682,1.0,-1.0,1,0,0,0,0,0,0
37323008,0.31949,4.60622e-19,-0.441367,-4.21286e-40,0.963325,0.155209,-0.0348192,-0.21611,1.0,-1.0,1,0,0,0,0,0,0
37423026,0.260705,3.89075e-21,-0.441367,-4.58365e-42,0.96747,0.126831,-0.0284529,-0.21704,1.0,-1.0,1,0,0,0,0,0,0
37526159,0.138707,-1.19253e-22,-0.441367,9.24857e-44,0.973402,0.0676171,-0.015169,-0.21837,1.0,-1.0,1,0,0,0,0,0,0
37627059,0.0720862,-1.07712e-23,-0.441367,9.80909e-45,0.975114,0.0351613,-0.007888,-0.218755,1.0,-1.0,1,0,0,0,0,0,0
37724837,0.00492096,-9.39398e-26,-0.441367,0.0,0.975745,0.00240081,-0.00053859,-0.218896,1.0,-1.0,1,0,0,0,0,0,0
37829147,0.000135128,4.42149e-28,-0.441367,0.0,0.975748,6.59255e-05,-1.47896e-05,-0.218897,1.0,-1.0,1,0,0,0,0,0,0
37930469,1.23385e-06,1.32607e-28,-0.441367,0.0,0.975748,6.01961e-07,-1.35042e-07,-0.218897,1.0,-1.0,1,0,0,0,0,0,0
38034730,-3.32423e-08,1.52848e-30,-0.441367,0.0,0.975748,-1.6218e-08,3.63831e-09,-0.218897,1.0,-1.0,1,0,0,0,0,0,0
38134025,-3.15954e-09,-7.59437e-32,-0.441367,0.0,0.975748,-1.54146e-09,3.45806e-10,-0.218897,1.0,-1.0,1,0,0,0,0,0,0
38234067,0.0,-0.0,-0.441367,0.0,0.975748,0.0,-0.0,-0.218897,1.0,-1.0,1,0,0,0,0,0,0
38338074,0.0,-0.0,-0.441367,0.0,0.975748,0.0,-0.0,-0.218897,1.0,-1.0,1,0,0,0,0,0,0
38440485,0.0,-0.0,-0.441367,0.0,0.975748,0.0,-0.0,-0.218897,1.0,-1.0,1,0,0,0,0,0,0
38539757,0.0,-0.0,-0.441367,0.0,0.975748,0.0,-0.0,-0.218897,1.0,-1.0,1,0,0,0,0,0,0
38642415,0.0,-0.0,-0.441367,0.0,0.975748,0.0,-0.0,-0.218897,1.0,-1.0,1,0,0,0,0,0,0
38743014,0.0,-0.0,-0.441367,0.0,0.975748,0.0,-0.0,-0.218897,1.0,-1.0,1,0,0,0,0,0,0
38750064,0.0,-0.0,-0.441367,0.0,0.975748,0.0,-0.0,-0.218897,1.0,-1.0,1,0,0,0,0,0,0
38750064,0.0,-0.0,-0.441367,0.0,0.975748,0.0,-0.0,-0.218897,1.0,-1.0,1,0,0,0,0,0,0
38750064,0.0,-0.0,-0.441367,0.0,0.975748,0.0,-0.0,-0.218897,1.0,-1.0,1,0,0,0,0,0,0
38750064,0.0,-0.0,-0.441367,0.0,0.975748,0.0,-0.0,-0.218897,1.0,-1.0,1,0,0,0,0,0,0
38750064,0.0,-0.0,-0.441367,0.0,0.975748,0.0,-0.0,-0.218897,1.0,-1.0,1,0,0,0,0,0,0
38750064,0.0,-0.0,-0.441367,0.0,0.975748,0.0,-0.0,-0.218897,1.0,-1.0,1,0,0,0,0,0,0
38750064,0.0,-0.0,-0.441367,0.0,0.975748,0.0,-0.0,-0.218897,1.0,-1.0,1,0,0,0,0,0,0
38750064,0.0,-0.0,-0.441367,0.0,0.975748,0.0,-0.0,-0.218897,1.0,-1.0,1,0,0,0,0,0,0
38750064,0.0,-0.0,-0.441367,0.0,0.975748,0.0,-0.0,-0.218897,1.0,-1.0,1,0,0,0,0,0,0
38750064,0.0,-0.0,-0.441367,0.0,0.975748,0.0,-0.0,-0.218897,1.0,-1.0,1,0,0,0,0,0,0
38750064,0.0,-0.0,-0.441367,0.0,0.975748,0.0,-0.0,-0.218897,1.0,-1.0,1,0,0,0,0,0,0
38750064,0.0,-0.0,-0.441367,0.0,0.975748,0.0,-0.0,-0.218897,1.0,-1.0,1,0,0,0,0,0,0
38750064,0.0,-0.0,-0.441367,0.0,0.975748,0.0,-0.0,-0.218897,1.0,-1.0,1,0,0,0,0,0,0
38750064,0.0,-0.0,-0.441367,0.0,0.975748,0.0,-0.0,-0.218897,1.0,-1.0,1,0,0,0,0,0,0
38750064,0.0,-0.0,-0.441367,0.0,0.975748,0.0,-0.0,-0.218897,1.0,-1.0,1,0,0,0,0,0,0
38750064,0.0,-0.0,-0.441367,0.0,0.975748,0.0,-0.0,-0.218897,1.0,-1.0,1,0,0,0,0,0,0
38750064,0.0,-0.0,-0.441367,0.0,0.975748,0.0,-0.0,-0.218897,1.0,-1.0,1,0,0,0,0,0,0
38750064,0.0,-0.0,-0.441367,0.0,0.975748,0.0,-0.0,-0.218897,1.0,-1.0,1,0,0,0,0,0,0
38750064,0.0,-0.0,-0.441367,0.0,0.975748,0.0,-0.0,-0.218897,1.0,-1.0,1,0,0,0,0,0,0
38750064,0.0,-0.0,-0.441367,0.0,0.975748,0.0,-0.0,-0.218897,1.0,-1.0,1,0,0,0,0,0,0
40874459,0.0,-0.0,-0.503512,0.0,0.968477,0.0,-0.0,-0.249105,1.0,-1.0,1,0,0,0,0,0,0
40974582,0.0,-0.0,-0.503512,0.0,0.968477,0.0,-0.0,-0.249105,1.0,-1.0,1,0,0,0,0,0,0
41074123,0.0,-0.0,-0.503512,0.0,0.968477,0.0,-0.0,-0.249105,1.0,-1.0,1,0,0,0,0,0,0
41178034,0.0,-0.0,-0.503512,0.0,0.968477,0.0,-0.0,-0.249105,1.0,-1.0,1,0,0,0,0,0,0
41282509,0.0,-0.0,-0.503512,0.0,0.968477,0.0,-0.0,-0.249105,1.0,-1.0,1,0,0,0,0,0,0
41382119,0.0,-0.0,-0.503512,0.0,0.968477,0.0,-0.0,-0.249105,1.0,-1.0,1,0,0,0,0,0,0
41483047,0.0,-0.0,-0.503512,0.0,0.968477,0.0,-0.0,-0.249105,1.0,-1.0,1,0,0,0,0,0,0
41582121,0.0,-0.0,-0.503512,0.0,0.968477,0.0,-0.0,-0.249105,1.0,-1.0,1,0,0,0,0,0,0
41687075,0.0,-0.0,-0.503512,0.0,0.968477,0.0,-0.0,-0.249105,1.0,-1.0,1,0,0,0,0,0,0
41786260,0.0151896,-0.0,-0.503512,0.0,0.968449,0.00735529,-0.00189188,-0.249098,1.0,-1.0,1,0,0,0,0,0,0
41890208,0.212439,-0.0,-0.503512,0.0,0.963018,0.102678,-0.0264101,-0.247701,1.0,-1.0,1,0,0,0,0,0,0
41988969,0.292539,-0.0,-0.503512,0.0,0.958135,0.141154,-0.0363067,-0.246445,1.0,-1.0,1,0,0,0,0,0,0
42093321,0.338411,-0.0,-0.503512,0.0,0.954646,0.163091,-0.0419491,-0.245547,1.0,-1.0,1,0,0,0,0,0,0
42194493,0.36812,-0.0,-0.503512,0.0,0.952118,0.177253,-0.0455917,-0.244897,1.0,-1.0,1,0,0,0,0,0,0
42294464,0.297071,-0.0,-0.503512,0.0,0.957813,0.143325,-0.036865,-0.246362,1.0,-1.0,1,0,0,0,0,0,0
42394051,0.142089,-0.0,-0.503512,0.0,0.966033,0.0687471,-0.0176827,-0.248476,1.0,-1.0,1,0,0,0,0,0,0
42499464,0.00770304,-0.0,-0.503512,0.0,0.968469,0.0037301,-0.000959431,-0.249103,1.0,-1.0,1,0,0,0,0,0,0
42599505,0.000378287,-0.0,-0.503512,0.0,0.968477,0.000183181,-4.71166e-05,-0.249105,1.0,-1.0,1,0,0,0,0,0,0
42702571,2.02655e-06,-0.0,-0.503512,0.0,0.968477,9.81335e-07,-2.52412e-07,-0.249105,1.0,-1.0,1,0,0,0,0,0,0
42802414,-3.37249e-07,-0.0,-0.503512,0.0,0.968477,-1.63309e-07,4.20052e-08,-0.249105,1.0,-1.0,1,0,0,0,0,0,0
42906018,-5.02882e-09,-0.0,-0.503512,0.0,0.968477,-2.43515e-09,6.26352e-10,-0.249105,1.0,-1.0,1,0,0,0,0,0,0
43007725,0.0,-0.0,-0.503512,0.0,0.968477,0.0,-0.0,-0.249105,1.0,-1.0,1,0,0,0,0,0,0
43107260,0.0,-0.0,-0.503512,0.0,0.968477,0.0,-0.0,-0.249105,1.0,-1.0,1,0,0,0,0,0,0
43210021,0.0,-0.0,-0.503512,0.0,0.968477,0.0,-0.0,-0.249105,1.0,-1.0,1,0,0,0,0,0,0
43310042,0.0,-0.0,-0.503512,0.0,0.968477,0.0,-0.0,-0.249105,1.0,-1.0,1,0,0,0,0,0,0
43410023,0.0,-0.0,-0.503512,0.0,0.968477,0.0,-0.0,-0.249105,1.0,-1.0,1,0,0,0,0,0,0
43514783,0.0,-0.0,-0.503512,0.0,0.968477,0.0,-0.0,-0.249105,1.0,-1.0,1,0,0,0,0,0,0
43614037,0.0,-0.0,-0.503512,0.0,0.968477,0.0,-0.0,-0.249105,1.0,-1.0,1,0,0,0,0,0,0
43635395,0.0,-0.0,-0.503512,0.0,0.968477,0.0,-0.0,-0.249105,1.0,-1.0,1,0,0,0,0,0,0
43635395,0.0,-0.0,-0.503512,0.0,0.968477,0.0,-0.0,-0.249105,1.0,-1.0,1,0,0,0,0,0,0
43635395,0.0,-0.0,-0.503512,0.0,0.968477,0.0,-0.0,-0.249105,1.0,-1.0,1,0,0,0,0,0,0
43635395,0.0,-0.0,-0.503512,0.0,0.968477,0.0,-0.0,-0.249105,1.0,-1.0,1,0,0,0,0,0,0
43635395,0.0,-0.0,-0.503512,0.0,0.968477,0.0,-0.0,-0.249105,1.0,-1.0,1,0,0,0,0,0,0
43635395,0.0,-0.0,-0.503512,0.0,0.968477,0.0,-0.0,-0.249105,1.0,-1.0,1,0,0,0,0,0,0
43635395,0.0,-0.0,-0.503512,0.0,0.968477,0.0,-0.0,-0.249105,1.0,-1.0,1,0,0,0,0,0,0
43635395,0.0,-0.0,-0.503512,0.0,0.968477,0.0,-0.0,-0.249105,1.0,-1.0,1,0,0,0,0,0,0
43635395,0.0,-0.0,-0.503512,0.0,0.968477,0.0,-0.0,-0.249105,1.0,-1.0,1,0,0,0,0,0,0
43635395,0.0,-0.0,-0.503512,0.0,0.968477,0.0,-0.0,-0.249105,1.0,-1.0,1,0,0,0,0,0,0
43635395,0.0,-0.0,-0.503512,0.0,0.968477,0.0,-0.0,-0.249105,1.0,-1.0,1,0,0,0,0,0,0
43635395,0.0,-0.0,-0.503512,0.0,0.968477,0.0,-0.0,-0.249105,1.0,-1.0,1,0,0,0,0,0,0
43635395,0.0,-0.0,-0.503512,0.0,0.968477,0.0,-0.0,-0.249105,1.0,-1.0,1,0,0,0,0,0,0
43635395,0.0,-0.0,-0.503512,0.0,0.968477,0.0,-0.0,-0.249105,1.0,-1.0,1,0,0,0,0,0,0
43635395,0.0,-0.0,-0.503512,0.0,0.968477,0.0,-0.0,-0.249105,1.0,-1.0,1,0,0,0,0,0,0
43635395,0.0,-0.0,-0.503512,0.0,0.968477,0.0,-0.0,-0.249105,1.0,-1.0,1,0,0,0,0,0,0
43635395,0.0,-0.0,-0.503512,0.0,0.968477,0.0,-0.0,-0.249105,1.0,-1.0,1,0,0,0,0,0,0
43635395,0.0,-0.0,-0.503512,0.0,0.968477,0.0,-0.0,-0.249105,1.0,-1.0,1,0,0,0,0,0,0
43635395,0.0,-0.0,-0.503512,0.0,0.968477,0.0,-0.0,-0.249105,1.0,-1.0,1,0,0,0,0,0,0
43635395,0.0,-0.0,-0.503512,0.0,0.968477,0.0,-0.0,-0.249105,1.0,-1.0,1,0,0,0,0,0,0
43635395,0.0,-0.0,-0.503512,0.0,0.968477,0.0,-0.0,-0.249105,1.0,-1.0,1,0,0,0,0,0,0
45846015,0.0,-0.0,-0.568508,0.0,0.959871,0.0,-0.0,-0.280441,1.0,-1.0,1,0,0,0,0,0,0
45950058,0.0,-0.0,-0.568508,0.0,0.959871,0.0,-0.0,-0.280441,1.0,-1.0,1,0,0,0,0,0,0
46050908,0.0,-0.0,-0.568508,0.0,0.959871,0.0,-0.0,-0.280441,1.0,-1.0,1,0,0,0,0,0,0
46148982,0.0,-0.0,-0.568508,0.0,0.959871,0.0,-0.0,-0.280441,1.0,-1.0,1,0,0,0,0,0,0
46253690,0.0,-0.0,-0.568508,0.0,0.959871,0.0,-0.0,-0.280441,1.0,-1.0,1,0,0,0,0,0,0
46357049,0.0,-0.0,-0.568508,0.0,0.959871,0.0,-0.0,-0.280441,1.0,-1.0,1,0,0,0,0,0,0
46455172,0.0,-0.0,-0.568508,0.0,0.959871,0.0,-0.0,-0.280441,1.0,-1.0,1,0,0,0,0,0,0
46559613,0.0,-0.0,-0.568508,0.0,0.959871,0.0,-0.0,-0.280441,1.0,-1.0,1,0,0,0,0,0,0
46658158,0.0,-0.0280624,-0.568508,0.0,0.959777,-0.0039348,-0.0134677,-0.280414,1.0,-1.0,1,0,0,0,0,0,0
46762033,0.0,-0.168328,-0.568508,0.0,0.956473,-0.0235752,-0.0806911,-0.279449,1.0,-1.0,1,0,0,0,0,0,0
46862681,0.0,-0.365331,-0.568508,0.0,0.943902,-0.0509426,-0.174362,-0.275776,1.0,-1.0,1,0,0,0,0,0,0
46963066,0.0,-0.411118,-0.568508,0.0,0.939663,-0.0572421,-0.195923,-0.274537,1.0,-1.0,1,0,0,0,0,0,0
47067048,-0.0036875,-0.247222,-0.56805,0.0,0.952546,-0.0363066,-0.117844,-0.278301,1.0,-1.0,1,0,0,0,0,0,0
47166128,0.000939269,0.00800914,-0.568504,0.0,0.959863,0.00157382,0.00371216,-0.280439,1.0,-1.0,1,0,0,0,0,0,0
47267050,-0.000168016,-0.000291221,-0.568508,0.0,0.959871,-0.000121472,-0.000116208,-0.280441,1.0,-1.0,1,0,0,0,0,0,0
47371200,-2.47983e-06,-6.61006e-06,-0.568508,0.0,0.959871,-2.11703e-06,-2.82468e-06,-0.280441,1.0,-1.0,1,0,0,0,0,0,0
47471377,6.81482e-08,-1.3503e-09,-0.568508,0.0,0.959871,3.25174e-08,-1.02038e-08,-0.280441,1.0,-1.0,1,0,0,0,0,0,0
47574661,1.76622e-09,2.37751e-09,-0.568508,0.0,0.959871,1.18105e-09,8.9339e-10,-0.280441,1.0,-1.0,1,0,0,0,0,0,0
47630417,-1.33362e-10,-1.11137e-10,-0.568508,0.0,0.959871,-7.95888e-11,-3.46386e-11,-0.280441,1.0,-1.0,1,0,0,0,0,0,0
47630417,-1.33362e-10,-1.11137e-10,-0.568508,0.0,0.959871,-7.95888e-11,-3.46386e-11,-0.280441,1.0,-1.0,1,0,0,0,0,0,0
47630417,-1.33362e-10,-1.11137e-10,-0.568508,0.0,0.959871,-7.95888e-11,-3.46386e-11,-0.280441,1.0,-1.0,1,0,0,0,0,0,0
47630417,-1.33362e-10,-1.11137e-10,-0.568508,0.0,0.959871,-7.95888e-11,-3.46386e-11,-0.280441,1.0,-1.0,1,0,0,0,0,0,0
47630417,-1.33362e-10,-1.11137e-10,-0.568508,0.0,0.959871,-7.95888e-11,-3.46386e-11,-0.280441,1.0,-1.0,1,0,0,0,0,0,0
47630417,-1.33362e-10,-1.11137e-10,-0.568508,0.0,0.959871,-7.95888e-11,-3.46386e-11,-0.280441,1.0,-1.0,1,0,0,0,0,0,0
47630417,-1.33362e-10,-1.11137e-10,-0.568508,0.0,0.959871,-7.95888e-11,-3.46386e-11,-0.280441,1.0,-1.0,1,0,0,0,0,0,0
47630417,-1.33362e-10,-1.11137e-10,-0.568508,0.0,0.959871,-7.95888e-11,-3.46386e-11,-0.280441,1.0,-1.0,1,0,0,0,0,0,0
47630417,-1.33362e-10,-1.11137e-10,-0.568508,0.0,0.959871,-7.95888e-11,-3.46386e-11,-0.280441,1.0,-1.0,1,0,0,0,0,0,0
47630417,-1.33362e-10,-1.11137e-10,-0.568508,0.0,0.959871,-7.95888e-11,-3.46386e-11,-0.280441,1.0,-1.0,1,0,0,0,0,0,0
47630417,-1.33362e-10,-1.11137e-10,-0.568508,0.0,0.959871,-7.95888e-11,-3.46386e-11,-0.280441,1.0,-1.0,1,0,0,0,0,0,0
47630417,-1.33362e-10,-1.11137e-10,-0.568508,0.0,0.959871,-7.95888e-11,-3.46386e-11,-0.280441,1.0,-1.0,1,0,0,0,0,0,0
47630417,-1.33362e-10,-1.11137e-10,-0.568508,0.0,0.959871,-7.95888e-11,-3.46386e-11,-0.280441,1.0,-1.0,1,0,0,0,0,0,0
47630417,-1.33362e-10,-1.11137e-10,-0.568508,0.0,0.959871,-7.95888e-11,-3.46386e-11,-0.280441,1.0,-1.0,1,0,0,0,0,0,0
47630417,-1.33362e-10,-1.11137e-10,-0.568508,0.0,0.959871,-7.95888e-11,-3.46386e-11,-0.280441,1.0,-1.0,1,0,0,0,0,0,0
47630417,-1.33362e-10,-1.11137e-10,-0.568508,0.0,0.959871,-7.95888e-11,-3.46386e-11,-0.280441,1.0,-1.0,1,0,0,0,0,0,0
47630417,-1.33362e-10,-1.11137e-10,-0.568508,0.0,0.959871,-7.95888e-11,-3.46386e-11,-0.280441,1.0,-1.0,1,0,0,0,0,0,0
49399101,0.0,-0.0,-0.614879,0.0,0.953112,0.0,-0.0,-0.302619,1.0,-1.0,1,0,0,0,0,0,0
49503034,0.0,-0.0,-0.614879,0.0,0.953112,0.0,-0.0,-0.302619,1.0,-1.0,1,0,0,0,0,0,0
49604036,0.0,-0.0,-0.614879,0.0,0.953112,0.0,-0.0,-0.302619,1.0,-1.0,1,0,0,0,0,0,0
49703028,0.0,-0.0,-0.614879,0.0,0.953112,0.0,-0.0,-0.302619,1.0,-1.0,1,0,0,0,0,0,0
49807026,0.0,-0.0,-0.614879,0.0,0.953112,0.0,-0.0,-0.302619,1.0,-1.0,1,0,0,0,0,0,0
49907754,0.0,-0.0,-0.614879,0.0,0.953112,0.0,-0.0,-0.302619,1.0,-1.0,1,0,0,0,0,0,0
50010401,0.0,-0.0,-0.614879,0.0,0.953112,0.0,-0.0,-0.302619,1.0,-1.0,1,0,0,0,0,0,0
50111016,0.0,-0.0,-0.614879,0.0,0.953112,0.0,-0.0,-0.302619,1.0,-1.0,1,0,0,0,0,0,0
50211110,0.0,-0.0,-0.614879,0.0,0.953112,0.0,-0.0,-0.302619,1.0,-1.0,1,0,0,0,0,0,0
50315982,0.0,0.0221855,-0.614879,0.0,0.953053,0.00335682,0.0105724,-0.3026,1.0,-1.0,1,0,0,0,0,0,0
50413752,0.0,0.306595,-0.614879,0.0,0.941934,0.0462092,0.145538,-0.29907,1.0,-1.0,1,0,0,0,0,0,0
50517555,0.0,0.468627,-0.614879,0.0,0.927067,0.0702607,0.221289,-0.29435,1.0,-1.0,1,0,0,0,0,0,0
50619022,0.0292503,0.36704,-0.609449,0.0,0.93701,0.0684638,0.169751,-0.297507,1.0,-1.0,1,0,0,0,0,0,0
50719692,0.0209023,0.126988,-0.61355,0.0,0.951139,0.0291034,0.0573361,-0.301993,1.0,-1.0,1,0,0,0,0,0,0
50823370,-0.00075172,-0.0335731,-0.614866,0.0,0.952977,-0.00543778,-0.015885,-0.302576,1.0,-1.0,1,0,0,0,0,0,0
50923451,2.61689e-05,-4.75871e-05,-0.614879,0.0,0.953112,5.27058e-06,-2.66375e-05,-0.302619,1.0,-1.0,1,0,0,0,0,0,0
51023093,2.23036e-06,2.77496e-05,-0.614879,0.0,0.953112,5.26167e-06,1.28868e-05,-0.302619,1.0,-1.0,1,0,0,0,0,0,0
51126021,1.89216e-08,3.70612e-07,-0.614879,0.0,0.953112,6.50943e-08,1.73754e-07,-0.302619,1.0,-1.0,1,0,0,0,0,0,0
51226359,-1.62804e-09,-1.32688e-08,-0.614879,0.0,0.953112,-2.78355e-09,-6.07701e-09,-0.302619,1.0,-1.0,1,0,0,0,0,0,0
51330375,-2.75868e-11,-3.03235e-10,-0.614879,0.0,0.953112,-5.90291e-11,-1.40334e-10,-0.302619,1.0,-1.0,1,0,0,0,0,0,0
51387392,0.0,-0.0,-0.614879,0.0,0.953112,0.0,-0.0,-0.302619,1.0,-1.0,1,0,0,0,0,0,0
51387392,0.0,-0.0,-0.614879,0.0,0.953112,0.0,-0.0,-0.302619,1.0,-1.0,1,0,0,0,0,0,0
51387392,0.0,-0.0,-0.614879,0.0,0.953112,0.0,-0.0,-0.302619,1.0,-1.0,1,0,0,0,0,0,0
51387392,0.0,-0.0,-0.614879,0.0,0.953112,0.0,-0.0,-0.302619,1.0,-1.0,1,0,0,0,0,0,0
51387392,0.0,-0.0,-0.614879,0.0,0.953112,0.0,-0.0,-0.302619,1.0,-1.0,1,0,0,0,0,0,0
51387392,0.0,-0.0,-0.614879,0.0,0.953112,0.0,-0.0,-0.302619,1.0,-1.0,1,0,0,0,0,0,0
51387392,0.0,-0.0,-0.614879,0.0,0.953112,0.0,-0.0,-0.302619,1.0,-1.0,1,0,0,0,0,0,0
51387392,0.0,-0.0,-0.614879,0.0,0.953112,0.0,-0.0,-0.302619,1.0,-1.0,1,0,0,0,0,0,0
51387392,0.0,-0.0,-0.614879,0.0,0.953112,0.0,-0.0,-0.302619,1.0,-1.0,1,0,0,0,0,0,0
51387392,0.0,-0.0,-0.614879,0.0,0.953112,0.0,-0.0,-0.302619,1.0,-1.0,1,0,0,0,0,0,0
51387392,0.0,-0.0,-0.614879,0.0,0.953112,0.0,-0.0,-0.302619,1.0,-1.0,1,0,0,0,0,0,0
51387392,0.0,-0.0,-0.614879,0.0,0.953112,0.0,-0.0,-0.302619,1.0,-1.0,1,0,0,0,0,0,0
51387392,0.0,-0.0,-0.614879,0.0,0.953112,0.0,-0.0,-0.302619,1.0,-1.0,1,0,0,0,0,0,0
51387392,0.0,-0.0,-0.614879,0.0,0.953112,0.0,-0.0,-0.302619,1.0,-1.0,1,0,0,0,0,0,0
51387392,0.0,-0.0,-0.614879,0.0,0.953112,0.0,-0.0,-0.302619,1.0,-1.0,1,0,0,0,0,0,0
52951034,0.0,-0.0,-0.791079,0.0,0.922789,0.0,-0.0,-0.385306,1.0,-1.0,1,0,0,0,0,0,0
53055017,0.0,-0.0,-0.791079,0.0,0.922789,0.0,-0.0,-0.385306,1.0,-1.0,1,0,0,0,0,0,0
53155444,0.0,-0.0,-0.791079,0.0,0.922789,0.0,-0.0,-0.385306,1.0,-1.0,1,0,0,0,0,0,0
53255021,0.0,-0.0,-0.791079,0.0,0.922789,0.0,-0.0,-0.385306,1.0,-1.0,1,0,0,0,0,0,0
53359157,0.0,-0.0,-0.791079,0.0,0.922789,0.0,-0.0,-0.385306,1.0,-1.0,1,0,0,0,0,0,0
53459393,0.0,-0.0,-0.791079,0.0,0.922789,0.0,-0.0,-0.385306,1.0,-1.0,1,0,0,0,0,0,0
53563494,0.0,-0.0,-0.791079,0.0,0.922789,0.0,-0.0,-0.385306,1.0,-1.0,1,0,0,0,0,0,0
53663024,0.0,-0.0,-0.791079,0.0,0.922789,0.0,-0.0,-0.385306,1.0,-1.0,1,0,0,0,0,0,0
53763392,0.0,-0.0,-0.791079,0.0,0.922789,0.0,-0.0,-0.385306,1.0,-1.0,1,0,0,0,0,0,0
53867377,0.0,-0.0,-0.791079,0.0,0.922789,0.0,-0.0,-0.385306,1.0,-1.0,1,0,0,0,0,0,0
53967022,0.0,-0.0,-0.791079,0.0,0.922789,0.0,-0.0,-0.385306,1.0,-1.0,1,0,0,0,0,0,0
54071048,0.0,-0.0,-0.791079,0.0,0.922789,0.0,-0.0,-0.385306,1.0,-1.0,1,0,0,0,0,0,0
54171385,0.0,-0.0,-0.791079,0.0,0.922789,0.0,-0.0,-0.385306,1.0,-1.0,1,0,0,0,0,0,0
54271019,0.0,-0.0,-0.791079,0.0,0.922789,0.0,-0.0,-0.385306,1.0,-1.0,1,0,0,0,0,0,0
54374888,0.0,-0.0,-0.791079,0.0,0.922789,0.0,-0.0,-0.385306,1.0,-1.0,1,0,0,0,0,0,0
54475138,0.0,-0.0,-0.791079,0.0,0.922789,0.0,-0.0,-0.385306,1.0,-1.0,1,0,0,0,0,0,0
54573648,0.0,-0.0,-0.791079,0.0,0.922789,0.0,-0.0,-0.385306,1.0,-1.0,1,0,0,0,0,0,0
54677734,0.0,-0.0,-0.791079,0.0,0.922789,0.0,-0.0,-0.385306,1.0,-1.0,1,0,0,0,0,0,0
54781688,0.0,-0.0,-0.791079,0.0,0.922789,0.0,-0.0,-0.385306,1.0,-1.0,1,0,0,0,0,0,0
54883061,0.0,-0.0,-0.791079,0.0,0.922789,0.0,-0.0,-0.385306,1.0,-1.0,1,0,0,0,0,0,0
54983428,0.0,-0.0,-0.791079,0.0,0.922789,0.0,-0.0,-0.385306,1.0,-1.0,1,0,0,0,0,0,0
55083016,0.0,-0.0,-0.791079,0.0,0.922789,0.0,-0.0,-0.385306,1.0,-1.0,1,0,0,0,0,0,0
55187018,0.0,-0.0,-0.791079,0.0,0.922789,0.0,-0.0,-0.385306,1.0,-1.0,1,0,0,0,0,0,0
55287383,0.0,-0.0,-0.791079,0.0,0.922789,0.0,-0.0,-0.385306,1.0,-1.0,1,0,0,0,0,0,0
55387041,0.0,-0.0,-0.791079,0.0,0.922789,0.0,-0.0,-0.385306,1.0,-1.0,1,0,0,0,0,0,0
55491025,0.0,-0.0,-0.791079,0.0,0.922789,0.0,-0.0,-0.385306,1.0,-1.0,1,0,0,0,0,0,0
55591395,0.0,-0.0,-0.791079,0.0,0.922789,0.0,-0.0,-0.385306,1.0,-1.0,1,0,0,0,0,0,0
55695383,0.0,-0.0,-0.791079,0.0,0.922789,0.0,-0.0,-0.385306,1.0,-1.0,1,0,0,0,0,0,0
55795026,0.0,-0.0,-0.791079,0.0,0.922789,0.0,-0.0,-0.385306,1.0,-1.0,1,0,0,0,0,0,0
55895364,0.0,-0.0,-0.791079,0.0,0.922789,0.0,-0.0,-0.385306,1.0,-1.0,1,0,0,0,0,0,0
55999015,0.0,-0.0,-0.791079,0.0,0.922789,0.0,-0.0,-0.385306,1.0,-1.0,1,0,0,0,0,0,0
56099705,0.0,-0.0,-0.791079,0.0,0.922789,0.0,-0.0,-0.385306,1.0,-1.0,1,0,0,0,0,0,0
56199029,0.0,-0.0,-0.791079,0.0,0.922789,0.0,-0.0,-0.385306,1.0,-1.0,1,0,0,0,0,0,0
56304105,0.0,-0.0,-0.791079,0.0,0.922789,0.0,-0.0,-0.385306,1.0,-1.0,1,0,0,0,0,0,0
56363022,0.0,-0.0,-0.791079,0.0,0.922789,0.0,-0.0,-0.385306,1.0,-1.0,1,0,0,0,0,0,0
56363022,0.0,-0.0,-0.791079,0.0,0.922789,0.0,-0.0,-0.385306,1.0,-1.0,1,0,0,0,0,0,0
56363022,0.0,-0.0,-0.791079,0.0,0.922789,0.0,-0.0,-0.385306,1.0,-1.0,1,0,0,0,0,0,0
56363022,0.0,-0.0,-0.791079,0.0,0.922789,0.0,-0.0,-0.385306,1.0,-1.0,1,0,0,0,0,0,0
56363022,0.0,-0.0,-0.791079,0.0,0.922789,0.0,-0.0,-0.385306,1.0,-1.0,1,0,0,0,0,0,0
56363022,0.0,-0.0,-0.791079,0.0,0.922789,0.0,-0.0,-0.385306,1.0,-1.0,1,0,0,0,0,0,0
56363022,0.0,-0.0,-0.791079,0.0,0.922789,0.0,-0.0,-0.385306,1.0,-1.0,1,0,0,0,0,0,0
56363022,0.0,-0.0,-0.791079,0.0,0.922789,0.0,-0.0,-0.385306,1.0,-1.0,1,0,0,0,0,0,0
56363022,0.0,-0.0,-0.791079,0.0,0.922789,0.0,-0.0,-0.385306,1.0,-1.0,1,0,0,0,0,0,0
56363022,0.0,-0.0,-0.791079,0.0,0.922789,0.0,-0.0,-0.385306,1.0,-1.0,1,0,0,0,0,0,0
56363022,0.0,-0.0,-0.791079,0.0,0.922789,0.0,-0.0,-0.385306,1.0,-1.0,1,0,0,0,0,0,0
56363022,0.0,-0.0,-0.791079,0.0,0.922789,0.0,-0.0,-0.385306,1.0,-1.0,1,0,0,0,0,0,0
56363022,0.0,-0.0,-0.791079,0.0,0.922789,0.0,-0.0,-0.385306,1.0,-1.0,1,0,0,0,0,0,0
56363022,0.0,-0.0,-0.791079,0.0,0.922789,0.0,-0.0,-0.385306,1.0,-1.0,1,0,0,0,0,0,0
56363022,0.0,-0.0,-0.791079,0.0,0.922789,0.0,-0.0,-0.385306,1.0,-1.0,1,0,0,0,0,0,0
56363022,0.0,-0.0,-0.791079,0.0,0.922789,0.0,-0.0,-0.385306,1.0,-1.0,1,0,0,0,0,0,0
56363022,0.0,-0.0,-0.791079,0.0,0.922789,0.0,-0.0,-0.385306,1.0,-1.0,1,0,0,0,0,0,0
56363022,0.0,-0.0,-0.791079,0.0,0.922789,0.0,-0.0,-0.385306,1.0,-1.0,1,0,0,0,0,0,0
56363022,0.0,-0.0,-0.791079,0.0,0.922789,0.0,-0.0,-0.385306,1.0,-1.0,1,0,0,0,0,0,0
56363022,0.0,-0.0,-0.791079,0.0,0.922789,0.0,-0.0,-0.385306,1.0,-1.0,1,0,0,0,0,0,0
56363022,0.0,-0.0,-0.791079,0.0,0.922789,0.0,-0.0,-0.385306,1.0,-1.0,1,0,0,0,0,0,0
56363022,0.0,-0.0,-0.791079,0.0,0.922789,0.0,-0.0,-0.385306,1.0,-1.0,1,0,0,0,0,0,0
56363022,0.0,-0.0,-0.791079,0.0,0.922789,0.0,-0.0,-0.385306,1.0,-1.0,1,0,0,0,0,0,0
58741104,0.0,-0.0,-0.852506,0.0,0.910521,0.0,-0.0,-0.413462,1.0,-1.0,1,0,0,0,0,0,0
58844415,0.0,-0.0,-0.852506,0.0,0.910521,0.0,-0.0,-0.413462,1.0,-1.0,1,0,0,0,0,0,0
58941324,0.0,-0.0,-0.852506,0.0,0.910521,0.0,-0.0,-0.413462,1.0,-1.0,1,0,0,0,0,0,0
59045068,0.0,-0.0,-0.852506,0.0,0.910521,0.0,-0.0,-0.413462,1.0,-1.0,1,0,0,0,0,0,0
59149450,0.0,-0.0,-0.852506,0.0,0.910521,0.0,-0.0,-0.413462,1.0,-1.0,1,0,0,0,0,0,0
59251409,0.0,-0.0,-0.852506,0.0,0.910521,0.0,-0.0,-0.413462,1.0,-1.0,1,0,0,0,0,0,0
59351034,0.0,-0.0,-0.852506,0.0,0.910521,0.0,-0.0,-0.413462,1.0,-1.0,1,0,0,0,0,0,0
59451695,0.0,-0.0,-0.852506,0.0,0.910521,0.0,-0.0,-0.413462,1.0,-1.0,1,0,0,0,0,0,0
59555393,0.0,-0.0,-0.852506,0.0,0.910521,0.0,-0.0,-0.413462,1.0,-1.0,1,0,0,0,0,0,0
59655091,0.0,-0.0,-0.852506,0.0,0.910521,0.0,-0.0,-0.413462,1.0,-1.0,1,0,0,0,0,0,0
59755688,0.0,-0.0,-0.852506,0.0,0.910521,0.0,-0.0,-0.413462,1.0,-1.0,1,0,0,0,0,0,0
59859617,0.0,-0.0,-0.852506,0.0,0.910521,0.0,-0.0,-0.413462,1.0,-1.0,1,0,0,0,0,0,0
59959037,0.0,-0.0,-0.852506,0.0,0.910521,0.0,-0.0,-0.413462,1.0,-1.0,1,0,0,0,0,0,0
60063026,0.0,-0.0,-0.852506,0.0,0.910521,0.0,-0.0,-0.413462,1.0,-1.0,1,0,0,0,0,0,0
60163685,0.0,-0.0,-0.852506,0.0,0.910521,0.0,-0.0,-0.413462,1.0,-1.0,1,0,0,0,0,0,0
60263036,0.0,-0.0,-0.852506,0.0,0.910521,0.0,-0.0,-0.413462,1.0,-1.0,1,0,0,0,0,0,0
60367068,0.0,-0.0,-0.852506,0.0,0.910521,0.0,-0.0,-0.413462,1.0,-1.0,1,0,0,0,0,0,0
60467662,0.0,-0.0,-0.852506,0.0,0.910521,0.0,-0.0,-0.413462,1.0,-1.0,1,0,0,0,0,0,0
60567171,0.0,-0.0,-0.852506,0.0,0.910521,0.0,-0.0,-0.413462,1.0,-1.0,1,0,0,0,0,0,0
60671028,0.0,-0.0,-0.852506,0.0,0.910521,0.0,-0.0,-0.413462,1.0,-1.0,1,0,0,0,0,0,0
60772005,0.0,-0.0,-0.852506,0.0,0.910521,0.0,-0.0,-0.413462,1.0,-1.0,1,0,0,0,0,0,0
60875868,0.0,-0.0,-0.852506,0.0,0.910521,0.0,-0.0,-0.413462,1.0,-1.0,1,0,0,0,0,0,0
60975272,0.0,-0.0,-0.852506,0.0,0.910521,0.0,-0.0,-0.413462,1.0,-1.0,1,0,0,0,0,0,0
61073928,0.0,-0.0,-0.852506,0.0,0.910521,0.0,-0.0,-0.413462,1.0,-1.0,1,0,0,0,0,0,0
61177260,0.0,-0.0,-0.852506,0.0,0.910521,0.0,-0.0,-0.413462,1.0,-1.0,1,0,0,0,0,0,0
61279434,0.0,-0.0,-0.844813,0.217982,0.912105,0.0,-0.0,-0.409957,0.966046,-1.0,1,0,0,0,0,0,0
61379043,0.0,-0.0,-0.827503,0.140227,0.915619,0.0,-0.0,-0.402047,0.726675,-1.0,1,0,0,0,0,0,0
61483047,0.0,-0.0,-0.817327,-0.00610838,0.917653,0.0,-0.0,-0.397383,0.380801,-1.0,1,0,0,0,0,0,0
61583451,0.0,-0.0,-0.817641,0.000151854,0.91759,0.0,-0.0,-0.397527,0.25925,-1.0,1,0,0,0,0,0,0
61687462,0.0,-0.0,-0.817643,6.06093e-06,0.91759,0.0,-0.0,-0.397528,0.251524,-1.0,1,0,0,0,0,0,0
61787017,0.0,-0.0,-0.817643,1.35805e-07,0.91759,0.0,-0.0,-0.397528,0.253618,-1.0,1,0,0,0,0,0,0
61887362,0.0,-0.0,-0.817643,-4.66385e-10,0.91759,0.0,-0.0,-0.397528,0.255259,-1.0,1,0,0,0,0,0,0
61991371,0.0,-0.0,-0.817643,-1.82773e-10,0.91759,0.0,-0.0,-0.397528,0.255107,-1.0,1,0,0,0,0,0,0
62091016,0.0,-0.0,-0.817643,-2.15852e-12,0.91759,0.0,-0.0,-0.397528,0.255417,-1.0,1,0,0,0,0,0,0
62191640,0.0,-0.0,-0.817643,-8.53581e-15,0.91759,0.0,-0.0,-0.397528,0.254737,-1.0,1,0,0,0,0,0,0
62295688,0.0,-0.0,-0.817643,3.79595e-16,0.91759,0.0,-0.0,-0.397528,0.255729,-1.0,1,0,0,0,0,0,0
62395032,0.0,-0.0,-0.817643,2.95903e-17,0.91759,0.0,-0.0,-0.397528,0.257339,-1.0,1,0,0,0,0,0,0
62496642,0.0,-0.0,-0.817643,2.39292e-19,0.91759,0.0,-0.0,-0.397528,0.256408,-1.0,1,0,0,0,0,0,0
62599802,0.0,-0.0,-0.817643,-1.73932e-21,0.91759,0.0,-0.0,-0.397528,0.257059,-1.0,1,0,0,0,0,0,0
62699020,0.0,-0.0,-0.817643,-3.6947e-22,0.91759,0.0,-0.0,-0.397528,0.255857,-1.0,1,0,0,0,0,0,0
62803404,0.0,-0.0,-0.817643,-4.07482e-24,0.91759,0.0,-0.0,-0.397528,0.223351,-1.0,1,0,0,0,0,0,0
62903923,0.0,-0.0,-0.817643,-2.84727e-24,0.91759,0.0,-0.0,-0.397528,0.08,-1.0,1,0,0,0,0,0,0
63003156,0.0,-0.0,-0.817643,-2.84727e-24,0.91759,0.0,-0.0,-0.397528,0.08,-1.0,1,0,0,0,0,0,0
63107725,0.0,-0.0,-0.817643,-2.84727e-24,0.91759,0.0,-0.0,-0.397528,0.08,-1.0,1,0,0,0,0,0,0
63205538,0.0,-0.0,-0.817643,-2.84727e-24,0.91759,0.0,-0.0,-0.397528,0.08,-1.0,1,0,0,0,0,0,0
63309451,0.0,-0.0,-0.817643,-2.84727e-24,0.91759,0.0,-0.0,-0.397528,0.08,-1.0,1,0,0,0,0,0,0
63411364,0.0,-0.0,-0.817643,-2.84727e-24,0.91759,0.0,-0.0,-0.397528,0.08,-1.0,1,0,0,0,0,0,0
63511078,0.0,-0.0,-0.817643,-2.84727e-24,0.91759,0.0,-0.0,-0.397528,0.08,-1.0,1,0,0,0,0,0,0
63615028,0.0,-0.0,-0.817643,-2.84727e-24,0.91759,0.0,-0.0,-0.397528,0.08,-1.0,1,0,0,0,0,0,0
63715410,0.0,-0.0,-0.817643,-2.84727e-24,0.91759,0.0,-0.0,-0.397528,0.08,-1.0,1,0,0,0,0,0,0
63815039,0.0,-0.0,-0.817643,-2.84727e-24,0.91759,0.0,-0.0,-0.397528,0.08,-1.0,1,0,0,0,0,0,0
63915354,0.0,-0.0,-0.817643,-2.84727e-24,0.91759,0.0,-0.0,-0.397528,0.08,-1.0,1,0,0,0,0,0,0
64019767,0.0,-0.0,-0.817643,-2.84727e-24,0.91759,0.0,-0.0,-0.397528,0.08,-1.0,1,0,0,0,0,0,0
64123021,0.0,-0.0,-0.817643,-2.84727e-24,0.91759,0.0,-0.0,-0.397528,0.08,-1.0,1,0,0,0,0,0,0
64224415,0.0,-0.0,-0.817643,-2.84727e-24,0.91759,0.0,-0.0,-0.397528,0.08,-1.0,1,0,0,0,0,0,0
64323015,0.0,-0.0,-0.817643,-2.84727e-24,0.91759,0.0,-0.0,-0.397528,0.08,-1.0,1,0,0,0,0,0,0
64427148,0.0,-0.0,-0.817643,-2.84727e-24,0.91759,0.0,-0.0,-0.397528,0.08,-1.0,1,0,0,0,0,0,0
64527379,0.0,-0.0,-0.817643,-2.84727e-24,0.91759,0.0,-0.0,-0.397528,0.08,-1.0,1,0,0,0,0,0,0
64627032,0.0,-0.0,-0.817643,-2.84727e-24,0.91759,0.0,-0.0,-0.397528,0.08,-1.0,1,0,0,0,0,0,0
64731014,0.0,-0.0,-0.817643,-2.84727e-24,0.91759,0.0,-0.0,-0.397528,0.08,-1.0,1,0,0,0,0,0,0
64831085,0.0,-0.0,-0.817643,-2.84727e-24,0.91759,0.0,-0.0,-0.397528,0.08,-1.0,1,0,0,0,0,0,0
64935012,0.0,-0.0,-0.817643,-2.84727e-24,0.91759,0.0,-0.0,-0.397528,0.08,-1.0,1,0,0,0,0,0,0
65036196,0.0,-0.0,-0.817643,-2.84727e-24,0.91759,0.0,-0.0,-0.397528,0.08,-1.0,1,0,0,0,0,0,0
65135282,0.0,-0.0,-0.817643,-2.84727e-24,0.91759,0.0,-0.0,-0.397528,0.08,-1.0,1,0,0,0,0,0,0
65239151,0.0,-0.0,-0.817643,-2.84727e-24,0.91759,0.0,-0.0,-0.397528,0.08,-1.0,1,0,0,0,0,0,0
65338282,0.0,-0.0,-0.817643,-2.84727e-24,0.91759,0.0,-0.0,-0.397528,0.08,-1.0,1,0,0,0,0,0,0
65441747,0.0,-0.0,-0.817643,-2.84727e-24,0.91759,0.0,-0.0,-0.397528,0.08,-1.0,1,0,0,0,0,0,0
65543034,0.0,-0.0,-0.817643,-2.84727e-24,0.91759,0.0,-0.0,-0.397528,0.08,-1.0,1,0,0,0,0,0,0
65643615,0.0,-0.0,-0.817643,-2.84727e-24,0.91759,0.0,-0.0,-0.397528,0.08,-1.0,1,0,0,0,0,0,0
65747404,0.0,-0.0,-0.817643,-2.84727e-24,0.91759,0.0,-0.0,-0.397528,0.08,-1.0,1,0,0,0,0,0,0
65847057,0.0,-0.0,-0.817643,-2.84727e-24,0.91759,0.0,-0.0,-0.397528,0.08,-1.0,1,0,0,0,0,0,0
65947816,0.0,-0.0,-0.817643,-2.84727e-24,0.91759,0.0,-0.0,-0.397528,0.08,-1.0,1,0,0,0,0,0,0
66051370,0.0,-0.0,-0.817643,-2.84727e-24,0.91759,0.0,-0.0,-0.397528,0.08,-1.0,1,0,0,0,0,0,0
66151433,0.0,-0.0,-0.817643,-2.84727e-24,0.91759,0.0,-0.0,-0.397528,0.08,-1.0,1,0,0,0,0,0,0
66251046,0.0,-0.0,-0.817643,-2.84727e-24,0.91759,0.0,-0.0,-0.397528,0.08,-1.0,1,0,0,0,0,0,0
66355178,0.0,-0.0,-0.817643,-2.84727e-24,0.91759,0.0,-0.0,-0.397528,0.08,-1.0,1,0,0,0,0,0,0
66455688,0.0,-0.0,-0.817643,-2.84727e-24,0.91759,0.0,-0.0,-0.397528,0.08,-1.0,1,0,0,0,0,0,0
66559748,0.0,-0.0,-0.817643,-2.84727e-24,0.91759,0.0,-0.0,-0.397528,0.08,-1.0,1,0,0,0,0,0,0
66659021,0.0,-0.0,-0.817643,-2.84727e-24,0.91759,0.0,-0.0,-0.397528,0.08,-1.0,1,0,0,0,0,0,0
66759290,0.0,-0.0,-0.817643,-2.84727e-24,0.91759,0.0,-0.0,-0.397528,0.08,-1.0,1,0,0,0,0,0,0
66863013,0.0,-0.0,-0.817643,-2.84727e-24,0.91759,0.0,-0.0,-0.397528,0.08,-1.0,1,0,0,0,0,0,0
66963379,0.0,-0.0,-0.817643,-2.84727e-24,0.91759,0.0,-0.0,-0.397528,0.08,-1.0,1,0,0,0,0,0,0
67063016,0.0,-0.0,-0.817643,-2.84727e-24,0.91759,0.0,-0.0,-0.397528,0.08,-1.0,1,0,0,0,0,0,0
67167357,0.0,-0.0,-0.817643,-2.84727e-24,0.91759,0.0,-0.0,-0.397528,0.08,-1.0,1,0,0,0,0,0,0
67267183,0.0,-0.0,-0.817643,-2.84727e-24,0.91759,0.0,-0.0,-0.397528,0.08,-1.0,1,0,0,0,0,0,0
67371180,0.0,-0.0,-0.817643,-2.84727e-24,0.91759,0.0,-0.0,-0.397528,0.08,-1.0,1,0,0,0,0,0,0
67469912,0.0,-0.0,-0.817643,-2.84727e-24,0.91759,0.0,-0.0,-0.397528,0.08,-1.0,1,0,0,0,0,0,0
67573676,0.0,-0.0,-0.817643,-2.84727e-24,0.91759,0.0,-0.0,-0.397528,0.08,-1.0,1,0,0,0,0,0,0
67675031,0.0,-0.0,-0.817643,-2.84727e-24,0.91759,0.0,-0.0,-0.397528,0.08,-1.0,1,0,0,0,0,0,0
67775397,0.0,-0.0,-0.817643,-2.84727e-24,0.91759,0.0,-0.0,-0.397528,0.08,-1.0,1,0,0,0,0,0,0
67875030,0.0,-0.0,-0.817643,-2.84727e-24,0.91759,0.0,-0.0,-0.397528,0.08,-1.0,1,0,0,0,0,0,0
67979022,0.0,-0.0,-0.817643,-2.84727e-24,0.91759,0.0,-0.0,-0.397528,0.08,-1.0,1,0,0,0,0,0,0
68081490,0.0,-0.0,-0.817643,-2.84727e-24,0.91759,0.0,-0.0,-0.397528,0.08,-1.0,1,0,0,0,0,0,0
68183414,0.0,-0.0,-0.817643,-2.84727e-24,0.91759,0.0,-0.0,-0.397528,0.08,-1.0,1,0,0,0,0,0,0
68283037,0.0,-0.0,-0.817643,-2.84727e-24,0.91759,0.0,-0.0,-0.397528,0.08,-1.0,1,0,0,0,0,0,0
68383425,0.0,-0.0,-0.817643,-2.84727e-24,0.91759,0.0,-0.0,-0.397528,0.08,-1.0,1,0,0,0,0,0,0
68487429,0.0,-0.0,-0.817643,-2.84727e-24,0.91759,0.0,-0.0,-0.397528,0.08,-1.0,1,0,0,0,0,0,0
68587022,0.0,-0.0,-0.817643,-2.84727e-24,0.91759,0.0,-0.0,-0.397528,0.08,-1.0,1,0,0,0,0,0,0
68687383,0.0,-0.0,-0.817643,-2.84727e-24,0.91759,0.0,-0.0,-0.397528,0.08,-1.0,1,0,0,0,0,0,0
68791165,0.0,-0.0,-0.817643,-2.84727e-24,0.91759,0.0,-0.0,-0.397528,0.08,-1.0,1,0,0,0,0,0,0
68891711,0.0,-0.0,-0.817643,-2.84727e-24,0.91759,0.0,-0.0,-0.397528,0.08,-1.0,1,0,0,0,0,0,0
68995743,0.0,-0.0,-0.817643,-2.84727e-24,0.91759,0.0,-0.0,-0.397528,0.08,-1.0,1,0,0,0,0,0,0
69095014,0.0,-0.0,-0.817643,-2.84727e-24,0.91759,0.0,-0.0,-0.397528,0.08,-1.0,1,0,0,0,0,0,0
69196203,0.0,-0.0,-0.817643,-2.84727e-24,0.91759,0.0,-0.0,-0.397528,0.08,-1.0,1,0,0,0,0,0,0
69299870,0.0,-0.0,-0.817643,-2.84727e-24,0.91759,0.0,-0.0,-0.397528,0.08,-1.0,1,0,0,0,0,0,0
69399145,0.0,-0.0,-0.817643,-2.84727e-24,0.91759,0.0,-0.0,-0.397528,0.08,-1.0,1,0,0,0,0,0,0
69498562,0.0,-0.0,-0.817643,-2.84727e-24,0.91759,0.0,-0.0,-0.397528,0.08,-1.0,1,0,0,0,0,0,0
69602230,0.0,-0.0,-0.817643,-2.84727e-24,0.91759,0.0,-0.0,-0.397528,0.08,-1.0,1,0,0,0,0,0,0
69705694,0.0,-0.0,-0.817643,-2.84727e-24,0.91759,0.0,-0.0,-0.397528,0.08,-1.0,1,0,0,0,0,0,0
69807025,0.0,-0.0,-0.817643,-2.84727e-24,0.91759,0.0,-0.0,-0.397528,0.08,-1.0,1,0,0,0,0,0,0
69907743,0.0,-0.0,-0.817643,-2.84727e-24,0.91759,0.0,-0.0,-0.397528,0.08,-1.0,1,0,0,0,0,0,0
70007022,0.0,-0.0,-0.817643,-2.84727e-24,0.91759,0.0,-0.0,-0.397528,0.08,-1.0,1,0,0,0,0,0,0
70111016,0.0,-0.0,-0.817643,-2.84727e-24,0.91759,0.0,-0.0,-0.397528,0.08,-1.0,1,0,0,0,0,0,0
70211703,0.0,-0.0,-0.817643,-2.84727e-24,0.91759,0.0,-0.0,-0.397528,0.08,-1.0,1,0,0,0,0,0,0
70311217,0.0,-0.0,-0.817643,-2.84727e-24,0.91759,0.0,-0.0,-0.397528,0.08,-1.0,1,0,0,0,0,0,0
70415010,0.0,-0.0,-0.817643,-2.84727e-24,0.91759,0.0,-0.0,-0.397528,0.08,-1.0,1,0,0,0,0,0,0
70515695,0.0,-0.0,-0.817643,-2.84727e-24,0.91759,0.0,-0.0,-0.397528,0.08,-1.0,1,0,0,0,0,0,0
70619380,0.0,-0.0,-0.817643,-2.84727e-24,0.91759,0.0,-0.0,-0.397528,0.08,-1.0,1,0,0,0,0,0,0
70719809,0.0,-0.0,-0.817643,-2.84727e-24,0.91759,0.0,-0.0,-0.397528,0.08,-1.0,1,0,0,0,0,0,0
70819074,0.0,-0.0,-0.817643,-2.84727e-24,0.91759,0.0,-0.0,-0.397528,0.08,-1.0,1,0,0,0,0,0,0
70923020,0.0,-0.0,-0.817643,-2.84727e-24,0.91759,0.0,-0.0,-0.397528,0.08,-1.0,1,0,0,0,0,0,0
71023736,0.0,-0.0,-0.817643,-2.84727e-24,0.91759,0.0,-0.0,-0.397528,0.08,-1.0,1,0,0,0,0,0,0
71123014,0.0,-0.0,-0.817643,-2.84727e-24,0.91759,0.0,-0.0,-0.397528,0.08,-1.0,1,0,0,0,0,0,0
71227013,0.0,-0.0,-0.817643,-2.84727e-24,0.91759,0.0,-0.0,-0.397528,0.08,-1.0,1,0,0,0,0,0,0
71328311,0.0,-0.0,-0.817643,-2.84727e-24,0.91759,0.0,-0.0,-0.397528,0.08,-1.0,1,0,0,0,0,0,0
71423443,0.0,-0.0,-0.817643,-2.84727e-24,0.91759,0.0,-0.0,-0.397528,0.08,-1.0,1,0,0,0,0,0,0
71529735,0.0,-0.0,-0.817643,-2.84727e-24,0.91759,0.0,-0.0,-0.397528,0.08,-1.0,1,0,0,0,0,0,0
71633819,0.0,-0.0,-0.817643,-2.84727e-24,0.91759,0.0,-0.0,-0.397528,0.08,-1.0,1,0,0,0,0,0,0
71735115,0.0,-0.0,-0.817643,-2.84727e-24,0.91759,0.0,-0.0,-0.397528,0.08,-1.0,1,0,0,0,0,0,0
71835469,0.0,-0.0,-0.817643,-2.84727e-24,0.91759,0.0,-0.0,-0.397528,0.08,-1.0,1,0,0,0,0,0,0
71935097,0.0,-0.0,-0.817643,-2.84727e-24,0.91759,0.0,-0.0,-0.397528,0.08,-1.0,1,0,0,0,0,0,0
72039027,0.0,-0.0,-0.817643,-2.84727e-24,0.91759,0.0,-0.0,-0.397528,0.08,-1.0,1,0,0,0,0,0,0
72139007,0.0,-0.0,-0.817643,-2.84727e-24,0.91759,0.0,-0.0,-0.397528,0.08,-1.0,1,0,0,0,0,0,0
72243702,0.0,-0.0,-0.817643,-2.84727e-24,0.91759,0.0,-0.0,-0.397528,0.08,-1.0,1,0,0,0,0,0,0
72343048,0.0,-0.0,-0.817643,-2.84727e-24,0.91759,0.0,-0.0,-0.397528,0.08,-1.0,1,0,0,0,0,0,0
72443412,0.0,-0.0,-0.817643,-2.84727e-24,0.91759,0.0,-0.0,-0.397528,0.08,-1.0,1,0,0,0,0,0,0
72547748,0.0,-0.0,-0.817643,-2.84727e-24,0.91759,0.0,-0.0,-0.397528,0.08,-1.0,1,0,0,0,0,0,0
72647017,0.0,-0.0,-0.817643,-2.84727e-24,0.91759,0.0,-0.0,-0.397528,0.08,-1.0,1,0,0,0,0,0,0
72747531,0.0,-0.0,-0.817643,-2.84727e-24,0.91759,0.0,-0.0,-0.397528,0.08,-1.0,1,0,0,0,0,0,0
72851593,0.0,-0.0,-0.817643,-2.84727e-24,0.91759,0.0,-0.0,-0.397528,0.08,-1.0,1,0,0,0,0,0,0
72951013,0.0,-0.0,-0.817643,-2.84727e-24,0.91759,0.0,-0.0,-0.397528,0.08,-1.0,1,0,0,0,0,0,0
73055055,0.0,-0.0,-0.817643,-2.84727e-24,0.91759,0.0,-0.0,-0.397528,0.08,-1.0,1,0,0,0,0,0,0
73155117,0.0,-0.0,-0.817643,-2.84727e-24,0.91759,0.0,-0.0,-0.397528,0.08,-1.0,1,0,0,0,0,0,0
73255433,0.0,-0.0,-0.817643,-2.84727e-24,0.91759,0.0,-0.0,-0.397528,0.08,-1.0,1,0,0,0,0,0,0
73359887,0.0,-0.0,-0.817643,-2.84727e-24,0.91759,0.0,-0.0,-0.397528,0.08,-1.0,1,0,0,0,0,0,0
73459484,0.0,-0.0,-0.817643,-2.84727e-24,0.91759,0.0,-0.0,-0.397528,0.08,-1.0,1,0,0,0,0,0,0
73557888,0.0,-0.0,-0.817643,-2.84727e-24,0.91759,0.0,-0.0,-0.397528,0.08,-1.0,1,0,0,0,0,0,0
73661756,0.0,-0.0,-0.817643,-2.84727e-24,0.91759,0.0,-0.0,-0.397528,0.08,-1.0,1,0,0,0,0,0,0
73766145,0.0,-0.0,-0.817643,-2.84727e-24,0.91759,0.0,-0.0,-0.397528,0.08,-1.0,1,0,0,0,0,0,0
73867040,0.0,-0.0,-0.817643,-2.84727e-24,0.91759,0.0,-0.0,-0.397528,0.08,-1.0,1,0,0,0,0,0,0
73967410,0.0,-0.0,-0.817643,-2.84727e-24,0.91759,0.0,-0.0,-0.397528,0.08,-1.0,1,0,0,0,0,0,0
74067031,0.0,-0.0,-0.817643,-2.84727e-24,0.91759,0.0,-0.0,-0.397528,0.08,-1.0,1,0,0,0,0,0,0
74171035,0.0,-0.0,-0.817643,-2.84727e-24,0.91759,0.0,-0.0,-0.397528,0.08,-1.0,1,0,0,0,0,0,0
74271465,0.0,-0.0,-0.817643,-2.84727e-24,0.91759,0.0,-0.0,-0.397528,0.08,-1.0,1,0,0,0,0,0,0
74371044,0.0,-0.0,-0.817643,-2.84727e-24,0.91759,0.0,-0.0,-0.397528,0.08,-1.0,1,0,0,0,0,0,0
74475117,0.0,-0.0,-0.817643,-2.84727e-24,0.91759,0.0,-0.0,-0.397528,0.08,-1.0,1,0,0,0,0,0,0
74575453,0.0,-0.0,-0.817643,-2.84727e-24,0.91759,0.0,-0.0,-0.397528,0.08,-1.0,1,0,0,0,0,0,0
74679725,0.0,-0.0,-0.817643,-2.84727e-24,0.91759,0.0,-0.0,-0.397528,0.08,-1.0,1,0,0,0,0,0,0
74779029,0.0,-0.0,-0.817643,-2.84727e-24,0.91759,0.0,-0.0,-0.397528,0.08,-1.0,1,0,0,0,0,0,0
74879403,0.0,-0.0,-0.817643,-2.84727e-24,0.91759,0.0,-0.0,-0.397528,0.08,-1.0,1,0,0,0,0,0,0
74983449,0.0,-0.0,-0.817643,-2.84727e-24,0.91759,0.0,-0.0,-0.397528,0.08,-1.0,1,0,0,0,0,0,0
75084109,0.0,-0.0,-0.817643,-2.84727e-24,0.91759,0.0,-0.0,-0.397528,0.08,-1.0,1,0,0,0,0,0,0
75183051,0.0,-0.0,-0.817643,-2.84727e-24,0.91759,0.0,-0.0,-0.397528,0.08,-1.0,1,0,0,0,0,0,0
75287048,0.0,-0.0,-0.817643,-2.84727e-24,0.91759,0.0,-0.0,-0.397528,0.08,-1.0,1,0,0,0,0,0,0
75387909,0.0,-0.0,-0.817643,-2.84727e-24,0.91759,0.0,-0.0,-0.397528,0.08,-1.0,1,0,0,0,0,0,0
75491880,0.0,-0.0,-0.817643,-2.84727e-24,0.91759,0.0,-0.0,-0.397528,0.08,-1.0,1,0,0,0,0,0,0
75591207,0.0,-0.0,-0.817643,-2.84727e-24,0.91759,0.0,-0.0,-0.397528,0.08,-1.0,1,0,0,0,0,0,0
75690048,0.0,-0.0,-0.817643,-2.84727e-24,0.91759,0.0,-0.0,-0.397528,0.08,-1.0,1,0,0,0,0,0,0
75793750,0.0,-0.0,-0.817643,-2.84727e-24,0.91759,0.0,-0.0,-0.397528,0.08,-1.0,1,0,0,0,0,0,0
75895019,0.0,-0.0,-0.817643,-2.84727e-24,0.91759,0.0,-0.0,-0.397528,0.08,-1.0,1,0,0,0,0,0,0
75995694,0.0,-0.0,-0.817643,-2.84727e-24,0.91759,0.0,-0.0,-0.397528,0.08,-1.0,1,0,0,0,0,0,0
76099013,0.0,-0.0,-0.817643,-2.84727e-24,0.91759,0.0,-0.0,-0.397528,0.08,-1.0,1,0,0,0,0,0,0
76199367,0.0,-0.0,-0.817643,-2.84727e-24,0.91759,0.0,-0.0,-0.397528,0.08,-1.0,1,0,0,0,0,0,0
76303744,0.0,-0.0,-0.817643,-2.84727e-24,0.91759,0.0,-0.0,-0.397528,0.08,-1.0,1,0,0,0,0,0,0
76403031,0.0,-0.0,-0.817643,-2.84727e-24,0.91759,0.0,-0.0,-0.397528,0.08,-1.0,1,0,0,0,0,0,0
76503392,0.0,-0.0,-0.817643,-2.84727e-24,0.91759,0.0,-0.0,-0.397528,0.08,-1.0,1,0,0,0,0,0,0
76607452,0.0,-0.0,-0.817643,-2.84727e-24,0.91759,0.0,-0.0,-0.397528,0.08,-1.0,1,0,0,0,0,0,0
76707016,0.0,-0.0,-0.817643,-2.84727e-24,0.91759,0.0,-0.0,-0.397528,0.08,-1.0,1,0,0,0,0,0,0
76807033,0.0,-0.0,-0.817643,-2.84727e-24,0.91759,0.0,-0.0,-0.397528,0.08,-1.0,1,0,0,0,0,0,0
76911053,0.0,-0.0,-0.817643,-2.84727e-24,0.91759,0.0,-0.0,-0.397528,0.08,-1.0,1,0,0,0,0,0,0
77011433,0.0,-0.0,-0.817643,-2.84727e-24,0.91759,0.0,-0.0,-0.397528,0.08,-1.0,1,0,0,0,0,0,0
77115030,0.0,-0.0,-0.817643,-2.84727e-24,0.91759,0.0,-0.0,-0.397528,0.08,-1.0,1,0,0,0,0,0,0
77215739,0.0,-0.0,-0.817643,-2.84727e-24,0.91759,0.0,-0.0,-0.397528,0.08,-1.0,1,0,0,0,0,0,0
77315102,0.0,-0.0,-0.817643,-2.84727e-24,0.91759,0.0,-0.0,-0.397528,0.08,-1.0,1,0,0,0,0,0,0
77419050,0.0,-0.0,-0.817643,-2.84727e-24,0.91759,0.0,-0.0,-0.397528,0.08,-1.0,1,0,0,0,0,0,0
77519877,0.0,-0.0,-0.817643,-2.84727e-24,0.91759,0.0,-0.0,-0.397528,0.08,-1.0,1,0,0,0,0,0,0
77619499,0.0,-0.0,-0.817643,-2.84727e-24,0.91759,0.0,-0.0,-0.397528,0.08,-1.0,1,0,0,0,0,0,0
77723864,0.0,-0.0,-0.817643,-2.84727e-24,0.91759,0.0,-0.0,-0.397528,0.08,-1.0,1,0,0,0,0,0,0
77821568,0.0,-0.0,-0.817643,-2.84727e-24,0.91759,0.0,-0.0,-0.397528,0.08,-1.0,1,0,0,0,0,0,0
77925431,0.0,-0.0,-0.817643,-2.84727e-24,0.91759,0.0,-0.0,-0.397528,0.08,-1.0,1,0,0,0,0,0,0
78027693,0.0,-0.0,-0.817643,-2.84727e-24,0.91759,0.0,-0.0,-0.397528,0.08,-1.0,1,0,0,0,0,0,0
78127416,0.0,-0.0,-0.817643,-2.84727e-24,0.91759,0.0,-0.0,-0.397528,0.08,-1.0,1,0,0,0,0,0,0
78231424,0.0,-0.0,-0.817643,-2.84727e-24,0.91759,0.0,-0.0,-0.397528,0.08,-1.0,1,0,0,0,0,0,0
78331013,0.0,-0.0,-0.817643,-2.84727e-24,0.91759,0.0,-0.0,-0.397528,0.08,-1.0,1,0,0,0,0,0,0
78431376,0.0,-0.0,-0.817643,-2.84727e-24,0.91759,0.0,-0.0,-0.397528,0.08,-1.0,1,0,0,0,0,0,0
78535026,0.0,-0.0,-0.817643,-2.84727e-24,0.91759,0.0,-0.0,-0.397528,0.08,-1.0,1,0,0,0,0,0,0
78635701,0.0,-0.0,-0.817643,-2.84727e-24,0.91759,0.0,-0.0,-0.397528,0.08,-1.0,1,0,0,0,0,0,0
78735065,0.0,-0.0,-0.928566,-1.71645,0.894143,0.0,-0.0,-0.447782,0.887214,-1.0,1,0,0,0,0,0,0
78840385,0.0,-0.0,-0.987257,0.157111,0.880619,0.0,-0.0,-0.473824,0.998413,-1.0,1,0,0,0,0,0,0
78939020,0.0,-0.0,-0.985284,0.000536114,0.881086,0.0,-0.0,-0.472955,1.0,-1.0,1,0,0,0,0,0,0
79043052,0.0,-0.0,-0.985207,-5.00915e-05,0.881105,0.0,-0.0,-0.472921,1.0,-1.0,1,0,0,0,0,0,0
79143438,0.0,-0.0,-0.985207,-3.21509e-06,0.881105,0.0,-0.0,-0.472921,1.0,-1.0,1,0,0,0,0,0,0
79243029,0.0,-0.0,-0.985207,-2.27947e-08,0.881105,0.0,-0.0,-0.472921,0.991497,-1.0,1,0,0,0,0,0,0
79347689,0.0,-0.0,-0.985043,0.000224247,0.881143,0.0,-0.0,-0.472849,0.830278,-1.0,1,0,0,0,0,0,0
79447029,0.0,-0.0,-0.982839,0.0717393,0.881664,0.0,-0.0,-0.471878,0.224171,-1.0,1,0,0,0,0,0,0
79551013,0.0,-0.0,-0.980489,0.0870633,0.882218,0.0,-0.0,-0.470841,0.08,-1.0,1,0,0,0,0,0,0
79651873,0.0,-0.0,-0.980489,0.0870633,0.882218,0.0,-0.0,-0.470841,0.08,-1.0,1,0,0,0,0,0,0
79751486,0.0,-0.0,-0.980489,0.0870633,0.882218,0.0,-0.0,-0.470841,0.08,-1.0,1,0,0,0,0,0,0
79855884,0.0,-0.0,-1.01198,-1.20375,0.874695,0.0,-0.0,-0.484674,0.850687,-1.0,1,0,0,0,0,0,0
79954017,0.0,-0.0,-1.08812,0.150082,0.855615,0.0,-0.0,-0.517613,0.997349,-1.0,1,0,0,0,0,0,0
80057524,0.0,-0.0,-1.07885,0.0564621,0.858004,0.0,-0.0,-0.513644,1.0,-1.0,1,0,0,0,0,0,0
80159427,0.0,-0.0,-1.07841,-0.000264776,0.858118,0.0,-0.0,-0.513452,1.0,-1.0,1,0,0,0,0,0,0
80259019,0.0,-0.0,-1.07839,-1.8533e-05,0.858122,0.0,-0.0,-0.513447,1.0,-1.0,1,0,0,0,0,0,0
80363040,0.0,-0.0,-1.07839,-4.48852e-07,0.858122,0.0,-0.0,-0.513447,1.0,-1.0,1,0,0,0,0,0,0
80463464,0.0,-0.0,-1.07839,-1.54302e-09,0.858122,0.0,-0.0,-0.513447,1.0,-1.0,1,0,0,0,0,0,0
80563041,0.0,-0.0,-1.07839,1.42961e-10,0.858122,0.0,-0.0,-0.513447,1.0,-1.0,1,0,0,0,0,0,0
80667048,0.0,-0.0,-1.07839,9.19101e-12,0.858122,0.0,-0.0,-0.513447,1.0,-1.0,1,0,0,0,0,0,0
80767592,0.0,-0.0,-1.07839,6.52489e-14,0.858122,0.0,-0.0,-0.513447,0.987369,-1.0,1,0,0,0,0,0,0
80867049,0.0,-0.0,-1.07839,-7.3665e-15,0.858122,0.0,-0.0,-0.513447,0.791826,-1.0,1,0,0,0,0,0,0
80967448,0.0,-0.0,-1.07697,0.0785632,0.858486,0.0,-0.0,-0.512837,0.401954,-1.0,1,0,0,0,0,0,0
81071446,0.0,-0.0,-1.07061,0.124966,0.860112,0.0,-0.0,-0.510104,0.08,-1.0,1,0,0,0,0,0,0
81175440,0.0,-0.0,-1.07061,0.124966,0.860112,0.0,-0.0,-0.510104,0.08,-1.0,1,0,0,0,0,0,0
81275060,0.0,-0.0,-1.07061,0.124966,0.860112,0.0,-0.0,-0.510104,0.08,-1.0,1,0,0,0,0,0,0
81375377,0.0,-0.0,-1.07061,0.124966,0.860112,0.0,-0.0,-0.510104,0.08,-1.0,1,0,0,0,0,0,0
81479692,0.0,-0.0,-1.07061,0.124966,0.860112,0.0,-0.0,-0.510104,0.08,-1.0,1,0,0,0,0,0,0
81579034,0.0,-0.0,-1.07061,0.124966,0.860112,0.0,-0.0,-0.510104,0.08,-1.0,1,0,0,0,0,0,0
81680189,0.0,-0.0,-1.07061,0.124966,0.860112,0.0,-0.0,-0.510104,0.08,-1.0,1,0,0,0,0,0,0
81783888,0.0,-0.0,-1.07061,0.124966,0.860112,0.0,-0.0,-0.510104,0.08,-1.0,1,0,0,0,0,0,0
81883740,0.0,-0.0,-1.07061,0.124966,0.860112,0.0,-0.0,-0.510104,0.08,-1.0,1,0,0,0,0,0,0
81987796,0.0,-0.0,-1.07061,0.124966,0.860112,0.0,-0.0,-0.510104,0.08,-1.0,1,0,0,0,0,0,0
82085902,0.0,-0.0,-1.07061,0.124966,0.860112,0.0,-0.0,-0.510104,0.08,-1.0,1,0,0,0,0,0,0
82189471,0.0,-0.0,-1.07061,0.124966,0.860112,0.0,-0.0,-0.510104,0.08,-1.0,1,0,0,0,0,0,0
82291247,0.0,-0.0,-1.07061,0.124966,0.860112,0.0,-0.0,-0.510104,0.08,-1.0,1,0,0,0,0,0,0
82391143,0.0,-0.0,-1.07061,0.124966,0.860112,0.0,-0.0,-0.510104,0.08,-1.0,1,0,0,0,0,0,0
82491393,0.0,-0.0,-1.07061,0.124966,0.860112,0.0,-0.0,-0.510104,0.08,-1.0,1,0,0,0,0,0,0
82595266,0.0,-0.0,-1.07061,0.124966,0.860112,0.0,-0.0,-0.510104,0.08,-1.0,1,0,0,0,0,0,0
82695019,0.0,-0.0,-1.07061,0.124966,0.860112,0.0,-0.0,-0.510104,0.08,-1.0,1,0,0,0,0,0,0
82799072,0.0,-0.0,-1.07061,0.124966,0.860112,0.0,-0.0,-0.510104,0.08,-1.0,1,0,0,0,0,0,0
82899016,0.0,-0.0,-1.07061,0.124966,0.860112,0.0,-0.0,-0.510104,0.08,-1.0,1,0,0,0,0,0,0
82999589,0.0,-0.0,-1.07061,0.124966,0.860112,0.0,-0.0,-0.510104,0.08,-1.0,1,0,0,0,0,0,0
83103789,0.0,-0.0,-1.07061,0.124966,0.860112,0.0,-0.0,-0.510104,0.08,-1.0,1,0,0,0,0,0,0
83203041,0.0,-0.0,-1.07061,0.124966,0.860112,0.0,-0.0,-0.510104,0.08,-1.0,1,0,0,0,0,0,0
83303878,0.0,-0.0,-1.07061,0.124966,0.860112,0.0,-0.0,-0.510104,0.08,-1.0,1,0,0,0,0,0,0
83407888,0.0,-0.0,-1.07061,0.124966,0.860112,0.0,-0.0,-0.510104,0.08,-1.0,1,0,0,0,0,0,0
83507013,0.0,-0.0,-1.07061,0.124966,0.860112,0.0,-0.0,-0.510104,0.08,-1.0,1,0,0,0,0,0,0
83611023,0.0,-0.0,-1.07061,0.124966,0.860112,0.0,-0.0,-0.510104,0.08,-1.0,1,0,0,0,0,0,0
83711752,0.0,-0.0,-1.07061,0.124966,0.860112,0.0,-0.0,-0.510104,0.08,-1.0,1,0,0,0,0,0,0
83811006,0.0,-0.0,-1.07061,0.124966,0.860112,0.0,-0.0,-0.510104,0.08,-1.0,1,0,0,0,0,0,0
83915067,0.0,-0.0,-1.07061,0.124966,0.860112,0.0,-0.0,-0.510104,0.08,-1.0,1,0,0,0,0,0,0
84016052,0.0,-0.0,-1.07061,0.124966,0.860112,0.0,-0.0,-0.510104,0.08,-1.0,1,0,0,0,0,0,0
84113569,0.0,-0.0,-1.07061,0.124966,0.860112,0.0,-0.0,-0.510104,0.08,-1.0,1,0,0,0,0,0,0
84218707,0.0,-0.0,-1.07061,0.124966,0.860112,0.0,-0.0,-0.510104,0.08,-1.0,1,0,0,0,0,0,0
84322722,0.0,-0.0,-1.07061,0.124966,0.860112,0.0,-0.0,-0.510104,0.08,-1.0,1,0,0,0,0,0,0
84423016,0.0,-0.0,-1.07061,0.124966,0.860112,0.0,-0.0,-0.510104,0.08,-1.0,1,0,0,0,0,0,0
84523816,0.0,-0.0,-1.04815,0.124966,0.865788,0.0,-0.0,-0.500411,0.0,-1.0,1,0,0,0,0,0,0
84623031,0.0,-0.0,-1.04843,0.124966,0.865718,0.0,-0.0,-0.500532,0.0,-1.0,1,0,0,0,0,0,0
84727088,0.0,-0.0,-1.04873,0.124966,0.865643,0.0,-0.0,-0.500662,0.0,-1.0,1,0,0,0,0,0,0
84827813,0.0,-0.0,-1.04871,0.124966,0.865647,0.0,-0.0,-0.500655,0.0,-1.0,1,0,0,0,0,0,0
