timestamp,roll,pitch,yaw,thrust
73094515,-0.0190776,0.0059396,-3.74982e-06,0.0
73217473,-0.0177285,0.00821264,-4.80964e-06,0.0
73317634,-0.0174994,0.00822156,-4.76584e-06,0.0
73418514,-0.0172365,0.00864518,-4.92776e-06,0.0
73521472,-0.0176958,0.0044801,-2.63019e-06,0.0
73621529,-0.0152291,0.00330221,-1.65708e-06,0.0
73721493,-0.0150436,-0.00110319,5.39411e-07,0.0
73825489,-0.0145924,-0.00219244,1.04925e-06,0.0
73925488,-0.0128626,-0.00448098,1.91246e-06,0.0
74025482,-0.0126838,-0.00538297,2.25309e-06,0.0
74130529,-0.0100446,-0.00640999,2.12719e-06,0.0
74230531,-0.00950769,-0.00634051,2.00242e-06,0.0
74333471,-0.00794129,-0.010226,2.68436e-06,0.0
74434611,-0.00464424,-0.0110633,1.70211e-06,0.0
74534508,-0.00217413,-0.0135426,9.73969e-07,0.0
74637501,-0.00273129,-0.0133356,1.2012e-06,0.0661598
74736460,-0.00105265,-0.0137836,-9.68075e-05,0.550147
74840573,-0.00223809,-0.007381,0.0160154,0.652655
74941615,-0.000960998,-0.00186058,0.0410655,0.650778
75041490,-0.00222886,-0.0014831,0.0222168,0.650886
75141487,-0.00230558,-0.000517966,0.0153126,0.650888
75246483,-0.00122201,-0.000314448,0.0104577,0.650887
75345487,-0.000784769,-0.000631092,0.00623455,0.650888
75450486,-3.96462e-05,-0.000479183,0.00318687,0.650888
75551526,-0.000865073,-0.00205484,0.00083501,0.650888
75649619,-0.000249382,-0.00314625,-0.00198245,0.650888
75754538,-0.000157322,0.00161115,-0.00410567,0.650888
75854511,-0.000922985,-0.00400744,-0.00344926,0.65137
75957476,0.00190725,-0.00112179,-0.0029194,0.650889
76058523,-0.00642923,-0.000536946,-0.00149209,0.650887
76157488,-0.0036094,-0.0030783,-0.000252055,0.650888
76262508,0.000353174,0.000926614,0.000807918,0.650887
76361475,0.000779463,0.00425643,0.00142705,0.650888
76462486,-0.000230675,0.00351719,0.00174625,0.650888
76566473,0.000968977,0.00280107,0.00179346,0.650888
76666476,0.00228967,0.000772276,0.00153988,0.650888
76769488,0.00127913,-0.00162327,0.00174045,0.650888
76868540,-0.0042909,0.00385874,0.00229975,0.650887
76972820,-0.00419009,0.00710397,0.0023422,0.65137
77073486,-0.00025766,0.00484861,0.00133957,0.650889
77174601,-0.000149984,0.00380966,0.000766231,0.650887
77277570,0.00462153,0.00830484,-0.000143561,0.650832
77377471,0.00537587,0.00635777,3.26081e-05,0.650887
77478525,0.00302589,0.00208549,0.000632076,0.650888
77578546,-0.000277743,0.000587541,-0.000145498,0.650888
77682482,-0.00371077,-1.0202e-05,0.0011288,0.650888
77782482,-0.0039075,0.00393706,0.00202543,0.650888
77886471,-0.00350914,0.0029765,0.00124301,0.650887
77985547,-0.00135367,0.000623091,0.00226725,0.650888
78089477,0.00213568,-0.00157337,0.0030102,0.650888
78189480,0.00211218,0.00024568,0.00266358,0.650888
78290613,-0.000192734,0.00121068,0.00278631,0.650888
78389563,0.000629727,-0.00320297,0.00264432,0.650888
78494510,6.07309e-05,-0.000761121,0.00263259,0.650888
78594559,0.00194312,0.00128286,0.00248774,0.650888
78698508,0.00139901,0.00295031,0.00151755,0.650888
78798528,0.000512662,0.00475168,0.000908909,0.650888
78901487,-0.000855348,0.00184195,-0.000139301,0.650888
79000566,0.00184907,0.00138052,0.000422872,0.650888
79104607,-0.00016212,-0.00137643,-0.000260456,0.650888
79202512,-0.000641315,-0.00232507,0.000559884,0.650888
79306489,0.00375542,-0.00429339,0.00135988,0.650888
79406509,0.0020286,-0.000567051,0.0011705,0.650888
79509472,0.00579382,0.0036696,0.000720463,0.650888
79609472,0.000486117,0.00268982,-0.000139083,0.650888
79713475,-0.00038004,0.000247152,0.000273718,0.650888
79814523,0.00100233,-0.000145804,0.000899442,0.650888
79914483,0.00323532,-0.00137801,0.00139671,0.650888
80017490,0.00228851,0.000236,0.00161847,0.650888
80117528,0.000219552,-0.00020092,0.00197964,0.650888
80218499,-0.000905267,-0.00164675,0.00061433,0.650888
80321484,-0.00904249,0.00210568,0.00042096,0.650888
80422488,-0.00860787,0.00134137,-4.61079e-05,0.650888
80525476,-0.00361249,0.00108803,-0.0010534,0.650888
80626494,-0.000252223,-0.000385308,-0.000835613,0.650888
80726558,0.00329637,0.00126209,-0.000798065,0.650888
80829623,0.00286569,0.00280134,0.000794181,0.650888
80928555,0.003308,0.000316561,0.00178537,0.650888
81032498,0.00345,-0.00221587,0.00255788,0.650888
81133516,0.00473736,0.00315251,0.00275352,0.650888
81234495,0.00222547,0.00150506,0.00333121,0.650888
81333486,0.000248607,-0.000632388,0.0025361,0.650888
81437544,-0.0014724,0.00022025,0.00209312,0.650888
81537487,-0.00241901,-0.00211453,0.00267991,0.650888
81641489,-0.000916362,0.000803916,0.00120034,0.650888
81741490,-0.00161663,0.00683916,0.000477016,0.650888
81842606,-0.00394175,0.00623923,0.00116949,0.650888
81946491,-0.00255988,0.00304522,0.00159029,0.650888
82046514,-0.00674666,0.000351955,0.00144698,0.650888
82146471,-0.00373808,-0.00185532,-0.000136407,0.650888
82250514,0.00397547,0.000469279,-0.000782074,0.650888
82349486,0.00321933,0.00224779,-0.000961015,0.650888
82453483,0.00603297,0.00131905,0.000209516,0.650888
82553529,0.00908477,0.00351442,0.00102421,0.650888
82653541,-8.59031e-05,0.00276619,0.00101107,0.650888
82758489,-0.000986336,0.00460242,0.00118459,0.650888
82857487,0.001949,-0.0112905,0.000229778,0.650888
82956661,0.000148142,-0.0100054,0.00022978,0.650888
83060694,-0.0026158,-0.00198239,9.25494e-05,0.650888
83162508,0.000230771,0.000851037,0.000875233,0.650888
83262557,0.00239581,0.00031778,0.000939558,0.650888
83366595,1.14738,-0.345516,-0.0679339,0.12
83466486,0.874046,-0.285248,-0.0616358,0.121357
83569486,0.307592,-0.139837,-0.0520969,0.122378
83670487,0.0389881,-0.0426782,-0.0414635,0.122339
83773487,-0.0750502,-0.0204386,-0.0293441,0.122126
83873538,-0.0449723,-0.026734,-0.0178422,0.122162
83974490,-0.0664071,-0.0105041,-0.00919415,0.122003
84073539,-0.0344812,-0.0333931,-0.000439812,0.122019
84178487,0.0152301,-0.00557213,0.00299347,0.122008
84278648,-0.039212,-0.00946001,0.00718625,0.121822
84378485,-0.0589759,0.00672152,0.00636553,0.121734
84482522,-0.054393,0.0289408,0.00472234,0.121592
84582473,-0.0707451,0.0345166,0.00367627,0.121409
84686525,-0.0815788,0.038873,0.00140115,0.121241
84786477,-0.0622098,0.0228717,0.0015665,0.121193
84886614,-0.135675,0.0361771,-0.00153892,0.120883
84990473,-0.138956,0.0270006,-0.00244618,0.120735
85088605,-0.292355,0.142697,-0.00676701,0.171338
85194492,-0.354006,0.195642,-0.00857713,0.28462
85294487,-0.225615,0.117538,-0.00743365,0.355357
85394656,-0.112043,0.0539337,-0.00584507,0.400899
85495578,-0.0592086,0.0256078,-0.0036081,0.430843
85600599,-0.0447462,0.0143628,-0.0025428,0.451591
85698476,-0.0448042,0.0102844,-0.00161322,0.464745
85801517,-0.033916,0.0106169,-1.3715e-05,0.474465
85902610,-0.0298139,0.0152494,0.000938576,0.481063
86006507,-0.0214591,0.00173375,0.0010507,0.485457
86106485,-0.023916,0.0104609,0.00182385,0.48836
86206488,-0.0137714,0.0057599,0.00161216,0.490595
86310487,-0.00945011,0.000602295,0.000133472,0.492343
86409527,-0.0135048,0.00641276,0.000122449,0.493741
86510703,-0.00299486,0.0151142,0.000638516,0.494019
86614487,0.0140076,0.0100096,0.000837361,0.494128
86714508,0.0177117,0.0131056,0.00161619,0.494405
86818499,0.01717,0.00488684,0.00193569,0.494555
86918504,0.0132352,-0.00528745,0.000986648,0.494367
87016686,0.00916062,-0.0040774,0.000664836,0.494119
87120745,0.0113618,-0.000909516,-0.0002113,0.494284
87222474,0.00553215,-0.00477487,-0.000679492,0.493862
87322476,0.0116285,0.00477354,-0.000919021,0.493862
87426488,0.010519,9.7212e-05,0.000228887,0.493567
87526616,0.00662389,-0.00322469,-0.000210643,0.493534
87630489,0.00429479,0.0029,0.00107625,0.493129
87730482,0.0072904,0.00375992,0.00158024,0.492901
87830539,0.0142074,-0.00961444,0.00244881,0.492968
87934473,0.0149794,-0.0120839,0.00191125,0.492918
88034568,0.0173422,-0.00466087,0.000720409,0.492706
88137498,0.0118343,-0.00779626,0.00100654,0.4927
88238528,0.0114706,-0.000645618,0.000395649,0.492149
88338482,0.0114275,-0.00166186,0.000660336,0.491937
88441627,0.0164327,-0.00995925,0.00038321,0.491955
88542500,0.0215253,-0.00620011,0.000745533,0.491773
88642489,0.0228997,-0.00831043,0.0013511,0.491854
88746525,0.0254716,-0.00522372,0.000572818,0.492156
88846602,0.0193763,-0.00812313,-0.000308949,0.491637
88946512,-0.000511368,-0.00346931,-0.000345252,0.491722
89050553,-0.00825497,-0.00616301,0.000383541,0.491605
89148826,0.000752257,-0.0211089,0.000204439,0.491663
89252677,-0.0021932,-0.0297381,0.000367482,0.491603
89354521,-0.00273575,-0.010676,0.000882439,0.491598
89454490,-0.00153927,-0.00272379,0.00137783,0.491708
89558526,-0.00413276,-0.00836147,0.000890506,0.491808
89658473,0.000878882,-0.0121351,0.000703725,0.491914
89758487,-0.00593207,0.00631772,0.00063224,0.491689
89862484,-0.0121732,0.00907907,0.000355718,0.491645
89962504,-0.00917528,0.00801443,0.000725557,0.49168
90066478,-0.00806019,0.0058676,1.49101e-05,0.49169
90166486,-0.0105986,0.00613497,-0.000261278,0.491216
90266510,-0.00536941,0.00876256,0.000639859,0.491056
90369471,-0.00270083,0.000223574,0.00104373,0.491147
90470537,-0.00388029,0.00254176,0.00183779,0.491226
90573703,-0.00620716,-0.000842367,0.00254178,0.491043
90674526,0.00146138,-3.63119e-05,0.00262567,0.490585
90774488,0.0170636,-0.0014097,0.00265472,0.49044
90878511,0.00416616,0.00380339,0.00308045,0.490318
90979484,-0.00837707,0.00604201,0.00323869,0.490692
91078485,-0.0224892,0.00728913,0.00311763,0.490602
91182490,-0.0172961,0.00912087,0.00268289,0.490351
91284588,-0.00868405,0.0181071,0.00294975,0.490045
91381019,-0.00263759,0.00887285,0.00358286,0.490088
91484762,0.00733716,0.0024103,0.00342506,0.489759
91588722,0.01015,0.00559038,0.00353364,0.489723
91690488,0.00112294,0.0120137,0.00346481,0.489852
91790518,-0.0051864,0.0133453,0.00283576,0.489712
91890507,0.000409821,0.0069182,0.00231123,0.489751
91994526,-0.00358979,0.00273206,0.00227064,0.490018
92094487,-0.003708,0.00261977,0.0015733,0.489704
92194487,-0.00206436,0.00895529,0.000363961,0.489673
92298487,-0.00428881,-0.00124086,-0.000473099,0.490081
92398490,-0.0044899,-0.00114208,0.000319844,0.490528
92502484,-0.0046338,-0.00241678,-0.000161405,0.490546
92602489,-0.00233246,0.00301834,0.000710528,0.490407
92702524,0.00137004,0.00238914,0.00101236,0.489829
92806501,0.00267993,-0.00457734,0.00063678,0.4899
92906506,0.0028415,0.000334098,0.00133196,0.490058
93006486,0.00106866,-0.00261422,0.00117713,0.489828
93110518,-0.00134913,-0.0047524,0.00114826,0.489962
93210508,-0.00507917,0.00202,0.000593449,0.489956
93314514,-0.00962499,0.00442278,0.000544496,0.489771
93414488,0.000943204,0.000293857,0.00110064,0.489985
93514482,0.0033068,-0.00138711,0.000897689,0.489935
93618484,-0.00356155,0.00174577,0.000943858,0.489534
93716761,0.00481892,0.00154407,0.0016399,0.489555
93820788,-0.00305331,-0.00483165,0.00148306,0.489649
93922485,-0.00208116,-0.00765824,0.00107329,0.489784
94022533,-0.00182487,0.00385695,0.00129843,0.489568
94126557,0.0074456,0.0071565,0.00136845,0.489326
94226560,0.00265563,0.0118542,0.00144758,0.489489
94326536,0.00726178,-0.00348349,0.00118399,0.489539
94430521,0.0090039,0.00437098,0.000780906,0.489375
94530486,0.00716269,-0.00133323,0.00213908,0.48951
94630483,0.00459134,0.0051872,0.00151379,0.48944
94734500,0.000920358,0.0105746,0.00262828,0.489372
94834487,-0.00182598,0.00549965,0.00194607,0.488924
94938553,0.00276201,-0.0079155,0.00159542,0.488941
95038484,-0.00167403,-0.0154116,0.000586573,0.48888
95138507,0.00470058,6.09278e-05,1.50759e-05,0.488751
95242489,0.00582231,0.0050745,-0.000150209,0.488796
95342520,0.00537591,-0.0189048,0.00112219,0.489254
95442600,0.00177524,-0.0182946,0.00151649,0.489231
95546516,0.00189919,-0.0304187,0.00221235,0.537463
95646529,0.00140818,-0.00426997,0.00121149,0.519939
95750505,0.00120096,0.0186586,0.00119733,0.508597
95849045,0.00219901,0.0162554,0.00102275,0.502053
95952556,0.000742986,0.00884192,0.000112607,0.498053
96054487,-0.0101982,0.00168318,1.01114e-06,0.495389
96154541,-0.00999051,0.00572316,0.000442909,0.493611
96254523,-0.00939814,0.0118514,-0.000235633,0.492425
96358486,-0.0101934,0.0104399,-0.000244006,0.491579
96458513,-0.00021078,0.00571696,-0.00129644,0.490427
96562484,-0.00349191,-0.00137559,-0.00126213,0.48999
96662507,-0.000121382,-0.0140857,8.11996e-05,0.489638
96762554,0.00126419,-0.00990868,0.000444227,0.489393
96866559,0.00556365,0.000348034,0.00127206,0.489146
96966514,0.00633499,0.00317998,0.00235297,0.489102
97066487,0.00261711,-0.00180174,0.00292114,0.489107
97170490,-0.00509019,-0.00237586,0.00246197,0.489362
97270483,-0.00658647,-0.00302015,0.00150656,0.48983
97374474,-0.00168172,-0.00438626,-0.000159223,0.489643
97474490,0.00424673,0.00366433,-0.000550509,0.489186
97574581,-0.00463122,-0.00244822,-0.000994771,0.48923
97678526,-0.0136559,-0.011264,-0.000587333,0.48928
97778519,-0.00907083,-0.00919614,7.141e-06,0.489363
97876726,0.00174991,-0.00469558,0.00126288,0.48899
97980944,0.00145967,0.00116508,0.00178833,0.489104
98084812,-0.00399083,0.00353522,0.000940427,0.489348
98186507,-0.00167824,-0.00216584,0.0012929,0.489755
98284589,-0.00646661,-0.00799384,0.0011142,0.489665
98386565,0.00258071,-0.00103588,0.00103211,0.489865
98490486,0.00565052,0.0029972,0.0010465,0.490165
98590486,0.00326436,0.0011336,0.000592937,0.489548
98690598,-0.0025515,-0.00270762,0.000232108,0.489061
98794490,-0.00534787,0.00108174,0.000679496,0.489024
98894567,-0.0101329,0.000273712,0.00085644,0.489005
98998487,-0.00817908,0.000170618,0.00113229,0.489408
99098513,0.00183635,-0.00153766,0.00122343,0.489783
99198514,0.000702003,0.000600007,0.00117005,0.490204
99302520,-0.000591306,0.00370974,0.000575495,0.490424
99402491,0.00952236,0.00427493,3.07079e-05,0.490294
99502518,0.00517667,0.00384272,0.000625088,0.490248
99606527,-0.00548171,0.000135582,0.00204654,0.490052
99706494,-0.00809267,-0.00847127,0.00213681,0.489931
99810522,-0.00143992,-0.00767566,0.00114884,0.490089
99910485,0.00272463,0.00553144,0.00104066,0.489866
100008741,0.00445337,0.00856544,0.00175849,0.490095
100113333,0.00613107,0.00756647,0.00227409,0.490463
100214606,0.0114224,0.00475843,0.00216534,0.490228
100315532,0.00572188,0.00676751,0.0020122,0.490437
100418523,-0.00416063,0.00248879,0.00175015,0.49023
100518513,1.74813e-05,0.00159557,0.00298549,0.490543
100622521,0.00191285,-8.53669e-05,0.00203652,0.490013
100722486,-0.00631479,0.00768791,0.00125322,0.490002
100822605,-0.0046572,0.000197117,-0.000206421,0.489929
100926487,0.00085426,-3.0328e-05,-0.00112999,0.49014
101026489,-1.73806e-05,0.00242564,-0.000666729,0.490153
101126519,0.00108003,-0.0019031,-0.000645541,0.48977
101230487,-0.00650035,-0.00250391,-0.000279656,0.489531
101330660,-0.00408362,-0.000540699,-4.52641e-05,0.489743
101434489,-0.00185455,-0.000857833,-0.0006863,0.489824
101534529,-0.0042359,-0.00839502,-0.000708958,0.489794
101634471,-0.00371163,0.000929782,0.000279956,0.489481
101738664,-0.00238001,-0.00297125,-0.000344768,0.489379
101838471,-0.00329439,-0.00304442,-0.000100049,0.489391
101938483,-0.00279298,0.00233387,-4.75313e-05,0.48945
102042489,0.00211288,0.00203464,0.00068485,0.49
102140809,0.000851327,-0.00258958,0.00123742,0.489932
102245010,0.00466816,0.00299765,0.000847041,0.489788
102346638,0.00366379,0.00219406,0.00124718,0.489724
102446648,-0.00206279,-0.00415983,0.000725611,0.489324
102550553,-0.00845309,-0.000959906,0.000928462,0.489596
102650526,-0.0118676,0.00756199,0.00170888,0.489764
102750492,-0.00301429,0.000484584,0.0015808,0.489761
102854511,0.000963307,-0.00371294,0.000966323,0.489839
102954545,-0.00728372,0.00556214,0.000734211,0.489954
103058543,-0.00288861,0.00655755,0.00113848,0.489975
103158492,-0.0011936,-0.00439124,0.00162375,0.490011
103259505,0.00275661,-0.00449722,0.00144548,0.490162
103362561,0.00533239,-0.0033216,0.000582213,0.490353
103462483,-0.000883581,0.00188515,0.000803923,0.490351
103562586,-0.00428,0.00365257,0.000576263,0.490042
103666502,0.0024872,-0.000137255,-0.000360671,0.490019
103766518,0.00755081,0.00623775,-0.000780759,0.489978
103870549,0.00642914,0.00932246,-0.000575323,0.490078
103970506,-0.00108355,0.00669652,-0.000898919,0.489929
104070522,0.00596914,0.00205375,0.000839247,0.48982
104174515,0.0112509,-0.00224541,-0.000105997,0.489612
104272766,-0.00453373,-0.00130911,-0.000111056,0.489417
104374489,-0.0126178,0.00129982,0.000197457,0.489567
104478596,-0.000813554,0.00257107,0.00045284,0.489374
104578484,-0.00103343,0.000854643,0.000955234,0.489712
104682488,0.00166665,-0.00214152,0.00231366,0.489709
104782483,-0.000643699,-0.00427811,0.0016935,0.48981
104882530,-0.00248803,0.000903862,0.00145557,0.489514
104986566,-0.00142553,-0.00363023,0.000653138,0.489781
105086675,0.0105673,-0.00582186,0.000601118,0.489632
105186486,0.0143739,-9.09759e-05,0.000595279,0.489549
105290511,0.0130477,0.00197753,0.000836878,0.489457
105390525,0.00376146,-0.000526017,0.0012866,0.489912
105494513,-0.000443271,0.000149569,0.00143318,0.490052
105594494,0.00187646,-0.00208803,0.00220089,0.490357
105694487,0.00329382,-0.00507537,0.00183759,0.490244
105794512,0.00304809,0.000114878,0.00151698,0.490504
105898475,-0.000259353,-0.0025086,0.00187599,0.490283
105998513,-0.00249219,-0.0190298,0.00137015,0.490081
106103473,0.00170925,-0.012274,-0.000201536,0.4903
106202544,-0.000398549,-0.00569089,-0.0007827,0.490476
106304995,0.0127569,-0.00920719,-0.000201956,0.490488
106406581,0.00550429,0.00368867,-0.000231887,0.490122
106506487,0.000389325,0.00162644,0.000282168,0.489738
106610523,0.00317693,0.00720748,-0.000942153,0.489842
106710489,0.00416867,0.003776,-6.19867e-05,0.489918
106810489,0.00023628,0.00401769,-0.000753002,0.489817
106914486,-0.000660295,0.000140936,-0.000139274,0.489946
107014484,-0.00155527,-0.000830453,0.000553669,0.489865
107118484,-0.00228445,0.00196295,0.000913376,0.489554
107218485,-0.00220584,0.00361736,0.00147547,0.489866
107318558,-0.00132032,0.000194201,0.00161728,0.489915
107422486,-6.5097e-05,0.000400011,0.00234546,0.490124
107522517,0.00434679,0.00727622,0.00147343,0.490333
107622492,0.00216319,0.00111378,0.00129665,0.489815
107726523,0.00175013,-0.00182487,0.0011179,0.489742
107826523,0.00352465,-0.00469196,1.34413e-05,0.489595
107930505,0.00313312,-0.00423589,-0.000650418,0.489206
108030487,0.00112992,-0.00446467,-0.000679152,0.489456
108130484,-0.000166098,0.00192382,0.000125979,0.489298
108234516,0.00619219,0.00153902,0.000163576,0.48916
108333004,0.00499256,-0.00376649,0.000283511,0.489572
108436815,0.0017973,-0.00533729,0.00017009,0.489955
108538473,0.00471862,-0.0043083,0.000167519,0.489685
108638509,-0.000950607,-0.00749775,-0.000686554,0.489479
108742485,0.000879223,-0.00430895,0.000797464,0.489723
108842591,0.000680412,7.2546e-05,0.0004103,0.490047
108942496,-0.00242312,0.00164289,0.000666218,0.49035
109046529,-0.000626227,0.00403153,0.00231581,0.490198
109146562,-0.000933685,0.00472345,0.00185686,0.490226
109246571,0.0015161,0.00562293,0.0021912,0.490009
109350487,-0.000342964,0.00952955,0.00193579,0.489905
109450536,-0.00306904,-0.000140419,0.000424403,0.48966
109554471,-0.000763797,-0.00182108,0.000682742,0.489475
109654634,-0.00058528,-0.0031933,0.000504297,0.489512
109754507,-0.00666831,0.000265233,0.000406693,0.489518
109858485,-0.00520833,0.000212285,0.000593038,0.489699
109958511,-0.00077203,0.00258362,-2.5332e-06,0.489841
110058514,0.000731777,-0.000589624,0.000957643,0.489909
110162759,0.000523164,0.00197302,0.00116577,0.489894
110262559,0.00420198,0.00490881,0.00109587,0.489987
110366518,0.00016279,-0.00120236,0.000408066,0.489712
110464797,-0.0079289,-0.00457976,0.000851853,0.489971
110569040,-0.0109045,-0.0009945,0.00136704,0.490017
110670484,5.39513e-05,3.29431e-05,0.00133626,0.490205
110770484,-0.000610998,0.00230374,0.00118462,0.490645
110870549,0.00309566,0.00191617,0.00186732,0.490775
110974494,0.00852565,-0.00286755,0.00205471,0.490977
111074537,0.00023684,-0.00597794,0.002756,0.490633
111174489,-0.000970625,-0.00283926,0.0031569,0.490395
111278509,0.0036605,-0.000255474,0.00276888,0.49009
111378511,0.000765955,-0.00814768,0.00294939,0.490079
111482523,0.000770229,-0.00717514,0.00273947,0.48969
111582487,0.0023537,-0.00777131,0.00260465,0.489701
111682576,0.00416256,0.0029197,0.00153988,0.489701
111786478,0.0038342,0.00450009,0.000892619,0.489701
111886471,-0.0142478,0.0212334,0.000457777,0.677525
111990576,-0.00273949,0.00834369,0.000519776,0.676359
112090546,0.000664813,0.00309904,-0.000488001,0.675494
112190513,-0.000285913,0.00297664,-0.00164252,0.675747
112294456,0.00211425,0.00307697,-0.0028337,0.675493
112394605,0.003254,0.00315022,-0.00269186,0.67555
112493166,0.00269741,0.00546683,-0.0013862,0.675885
112598524,-0.00248526,0.00198202,-0.000376947,0.676572
112698492,-0.00222292,-0.000767223,0.000399583,0.675522
112802507,0.000806495,0.000595728,0.0010461,0.675542
112902541,0.00370476,0.0044885,0.000689539,0.676571
113002490,-0.000329898,0.00270738,0.00144644,0.675522
113106489,-0.00120758,0.000196186,0.000780701,0.675542
113206488,0.00113633,-0.000780422,0.000112696,0.676399
113306549,-0.000736109,-0.00243144,-0.000520102,0.675551
113410580,-0.000542543,-0.00260122,-0.000474643,0.675542
113510521,-0.00149719,-0.00534262,0.000677913,0.676399
113614561,-0.00264723,-0.0042319,0.00122492,0.675551
113714516,-0.00189638,-0.00452869,0.000623689,0.675542
113814487,-0.00264157,-0.00431019,0.000578811,0.676399
113918570,-0.000674146,0.00316471,0.000669886,0.675522
114018489,0.00179316,-0.000594955,0.000719224,0.677576
114118486,-0.00207118,2.7187e-05,0.00150515,0.676481
114222549,-0.000896341,0.00116728,0.00145179,0.67759
114322527,-0.00113846,-0.00224438,0.00230522,0.67545
114426479,0.00323703,-0.00118081,0.00162417,0.673655
114525012,0.000713349,-0.00242313,0.00228759,0.671057
114629119,-0.000437358,0.00010131,0.00123574,0.585058
114730495,-0.00159537,0.00327315,0.00165411,0.588131
114830626,-0.00184059,0.000660076,0.00131097,0.588669
114930490,-0.00155672,0.000442704,0.00170852,0.588759
115034524,-0.00246771,-0.00400937,0.000167684,0.589786
115134485,-0.000737714,-4.99413e-05,5.07681e-05,0.588737
115238573,0.00504497,0.00621794,0.000207226,0.588756
115338605,0.00371518,0.00255414,0.000949544,0.589786
115438540,0.000884004,0.0025986,0.00140961,0.588737
115542541,-0.00511373,0.00439932,0.00166856,0.588756
115642488,-0.00570657,0.00236982,0.00180612,0.589614
115742516,-0.00318887,0.00251112,0.00105844,0.588737
115846483,-0.00370293,-0.000296278,0.00145261,0.588757
115946523,-0.000203033,0.00271769,0.00246717,0.589076
116046473,0.000703382,0.00293674,0.00231629,0.588079
116151485,0.00233624,0.00207016,0.00270367,0.586943
116250491,0.00276254,0.00163296,0.00224095,0.564613
116351613,0.000692231,0.000951287,0.000939884,0.561855
116454486,0.000713621,-0.00230032,0.00134973,0.56115
116552987,-0.00132191,0.00106436,0.000607214,0.561144
116656838,-0.000487425,0.00277315,0.000370585,0.561463
116758607,0.000864315,0.000851035,0.000352883,0.561151
116862493,0.00169611,0.00118409,0.000668874,0.561144
116963486,0.00428228,-0.00727608,-0.000268343,0.561463
117062523,-0.00150004,-0.011616,-0.000871407,0.561152
117166486,-0.00372403,-0.00669327,-0.000780523,0.561348
117266517,-0.00675334,-0.00942558,-0.000521795,0.561094
117367537,0.000381021,0.000779297,-0.000493139,0.561151
117470522,0.0038309,0.00561662,-0.000527322,0.561831
117570486,0.00572033,0.00324571,-8.15588e-05,0.561063
117674509,0.00625045,0.00204786,0.000242875,0.561145
117774484,0.0067464,0.00044275,0.00012249,0.562173
117874471,0.00742327,0.00177627,1.44704e-05,0.561124
117978479,0.000240313,-0.000186287,0.000741512,0.561143
118074471,-0.000868817,-0.000811839,0.000248199,0.555503
118178707,-0.000791686,-0.000508557,0.000299808,0.48674
118282489,-0.00348139,-0.00108565,0.000217838,0.450625
118383495,-0.00305605,-0.0014963,0.00104817,0.449652
118486490,-0.00320202,-0.00140994,-3.3999e-05,0.450733
118586653,0.000369459,-3.73614e-05,5.02129e-05,0.449623
118686491,0.00141981,-0.0027341,0.000179267,0.45145
118790587,0.00156284,-0.00261913,0.000413492,0.451668
118889037,-0.000887733,-0.00242101,0.00147087,0.451708
118993672,-0.000136618,-0.00240876,0.000378815,0.451678
119094502,-0.002837,0.000447073,0.000401,0.451677
119194508,-0.0049847,0.0012534,0.000983675,0.45188
119297313,-0.000883049,0.000571802,0.00197321,0.451743
119398544,0.00182837,-0.000140483,0.00181688,0.452794
119500504,0.00425629,0.000351067,0.0015691,0.451947
119602607,0.00424756,0.00148503,0.000765478,0.451981
119702511,0.00446217,0.00259783,-3.11508e-05,0.45157
119802492,0.00521486,0.00365655,-0.000126212,0.451708
119906509,0.00278913,0.00268278,0.0010609,0.452224
120006535,0.00648078,0.000135672,0.000774636,0.451965
120106493,0.00692853,-0.00443531,0.00085719,0.451682
120210490,0.00245447,-0.0024286,0.00117477,0.452488
120310491,-0.000324637,-0.00286843,0.00177465,0.451613
120414487,0.00108832,-0.0075562,0.000614983,0.451624
120514486,0.000993293,-0.00500725,0.00141078,0.452361
120615486,-0.00135882,-0.000423781,0.00168683,0.451678
120718570,-0.00762761,0.00153569,0.00151849,0.452018
120818512,-0.00472834,0.00120172,0.000337606,0.451677
120922484,-0.00220928,-0.00134529,0.00114512,0.451676
121022506,-0.00189667,-0.00103563,0.00220867,0.452844
121120927,-0.000333126,0.00345262,0.00199127,0.452166
121225023,0.00179016,-0.000821388,0.00242499,0.452708
121326484,-0.000231559,0.0013437,0.00261414,0.452796
121426489,-0.00043374,0.00201505,0.00111506,0.451569
121530488,-0.00225727,0.000933088,0.00116198,0.452304
121630488,-0.00571358,-0.00458578,0.000512815,0.452661
121734488,-0.0015289,-0.00163941,0.000687344,0.452665
121834487,-0.000901576,-0.0041755,0.000444685,0.45335
121934583,-0.000397732,-0.00458736,0.000175378,0.45276
122038484,-1.33761e-05,-0.00287222,0.000100277,0.453199
122138507,-0.00205479,0.000625307,0.000128967,0.452812
122238577,0.000464703,-0.000281015,0.00102949,0.451917
122342512,0.00191537,0.00103612,0.00196383,0.453064
122442521,0.00066683,0.000662283,0.00232986,0.453408
122546622,0.00259877,-0.00142676,0.00232552,0.453409
122646486,-0.0014116,-0.00223133,0.00209107,0.451553
122746527,-0.00267873,-0.00180374,0.00164849,0.452083
122850473,-0.00108591,0.00140303,0.000790624,0.452027
122951489,0.000896644,0.00267088,0.000426571,0.45317
123050510,0.00410752,0.00296211,-0.000340002,0.451657
123154535,0.000465626,0.00096966,-0.000305911,0.451676
123254580,-0.00345289,0.00257218,-0.000165666,0.452363
123356856,-0.00101696,0.00603469,0.000136612,0.451715
123458529,0.000359205,0.00539607,0.00107776,0.451687
123558489,0.00454007,-0.000230179,0.00143929,0.451677
123662530,0.00661865,-0.00405179,0.00140427,0.449555
123762476,0.00737246,-0.00684129,0.00111238,0.450735
123862485,0.00478159,-0.00458936,0.000636045,0.450347
123966603,0.00148298,0.00010493,-1.24369e-05,0.450225
124066519,0.00172027,-0.00109461,0.00100672,0.428146
124170487,0.000436842,-0.00250468,0.0010349,0.424268
124270519,-6.11596e-05,0.00204456,0.000686977,0.42407
124370511,-0.00107743,0.00547247,0.000164266,0.424063
124474485,-0.00732363,-0.00428112,0.000392782,0.424063
124574629,-0.00766821,-0.00533536,0.00068463,0.424063
124674489,-0.00685816,-0.0034301,0.001236,0.424063
124778521,-0.0020546,-0.000821833,0.00126577,0.424063
124878554,-0.00377458,-0.000482286,0.000999697,0.424405
124978489,-0.003945,-0.00271048,0.00164572,0.424069
125082488,-0.00711939,-0.00535094,0.000835109,0.424063
125182688,-0.00540131,-0.00320453,0.000997598,0.424063
125284930,-0.00040467,0.000560527,0.000678117,0.424063
125385095,0.00253569,0.00227963,-0.000209976,0.424063
125486509,0.00398189,0.00283703,-0.0008962,0.424063
125590562,0.00562671,0.00240531,2.92845e-05,0.424063
125690509,0.00342256,0.0019959,0.000286141,0.424063
125794493,0.00206605,-0.00286129,0.000179149,0.424546
125894599,0.00224584,-0.00708173,-0.000445185,0.424036
125994525,0.000791888,-0.0045133,5.88904e-05,0.424063
126098571,-0.000817759,-0.00707898,-0.00068006,0.424063
126198528,-0.0016872,-0.000909297,-0.000230357,0.424063
126298494,-0.00225259,0.00156865,-0.00046018,0.424063
126402492,-0.00421835,0.00394395,-0.000381524,0.424063
126502540,-2.67189e-05,0.00386115,-0.00106183,0.424063
126606489,-0.00136218,0.00494766,3.23457e-06,0.424063
126706490,-0.00139274,0.000989218,0.000478528,0.424063
126806517,-0.000235157,0.000481405,0.00143966,0.424095
126910489,0.00422614,0.00672893,0.00151159,0.424065
127010512,0.000973429,0.00353055,0.00091106,0.424063
127110558,0.00356843,0.00918846,0.00120641,0.424063
127214506,-0.000588578,0.00465599,0.00126489,0.424063
127314485,-0.00316077,0.00430527,3.52242e-05,0.424095
127418510,-0.0016645,0.00254169,-0.000426741,0.424269
127517122,0.000615236,0.000497237,-0.00086991,0.443275
127621026,-0.00196612,0.0014779,0.000147289,0.457281
127722518,-0.0044716,0.00239424,0.000105429,0.459992
127822538,-0.00259089,0.00339548,7.1708e-05,0.462241
127922522,0.000390473,0.00423632,0.000818938,0.461832
128026486,0.00503711,0.00914142,0.000810616,0.462231
128126569,0.00287909,0.0105089,0.000787247,0.461489
128230485,0.00300192,0.00591501,0.00156536,0.462568
128330507,-0.000684459,0.00702581,0.000689123,0.461518
128430553,-0.000582481,0.00480936,-0.000494201,0.462394
128534563,0.00206108,0.00176564,-0.000250471,0.461751
128634516,-0.000450408,-0.00053379,0.000615917,0.461489
128734484,-0.00195147,-0.000720997,2.92705e-05,0.462232
128837027,-0.00174746,-0.00149389,0.000149763,0.461458
128938486,-0.00259175,-0.000216185,0.000464963,0.462598
129042490,-0.0050927,-0.00411256,0.000754156,0.461463
129142484,-0.00254002,-0.00464212,0.00144143,0.462339
129242562,-0.0002984,0.000387988,0.00189641,0.462233
129346524,-0.000164106,0.00254571,0.00246254,0.46183
129447487,-0.00119603,0.00203278,0.000639593,0.462231
129545176,-0.00143501,0.00365103,-0.000534378,0.461458
129649133,0.00136429,-0.00144015,-0.00014342,0.462568
129753068,0.00083451,-0.00334675,0.000695665,0.461518
129854522,0.00158962,-0.000972695,0.000795648,0.461857
129954488,0.00231909,-0.00298976,0.000764294,0.461751
130054516,0.00151822,-0.00399622,0.000416886,0.462313
130158473,0.00266942,-0.00363389,-0.000286156,0.46175
130258544,-0.000444225,-0.000562903,2.10224e-05,0.461857
130358600,-0.000623693,-0.00136494,-3.32787e-05,0.461749
130462552,-0.00219619,-0.000697803,0.00020652,0.462517
130562529,-0.00410267,-0.00272367,0.00053893,0.461465
130666488,-0.00533946,-0.00269104,0.00105675,0.462566
130767490,-0.00567041,-0.00419241,0.00195684,0.462348
130867484,-0.00396877,-0.00332557,0.00171659,0.461837
130970509,0.00057865,-0.000827508,0.00584703,0.463573
131070494,0.00208244,-0.00162075,0.0126601,0.463128
131170608,0.00294063,-7.41669e-05,0.0146038,0.462475
131274482,0.00240663,-0.000938879,0.016146,0.463127
131374484,-0.000901863,0.000353602,0.0154621,0.463326
131474520,-0.000816551,0.0019686,0.0155772,0.463561
131579490,-0.00169566,3.35607e-05,0.0140573,0.462481
131677671,-0.00496392,0.000475128,0.0134938,0.463592
131781161,-0.00266659,-0.000948154,0.0143809,0.462451
131882511,-0.000639,-0.00145564,0.0132724,0.463586
131982572,0.000694778,0.000264945,0.0143943,0.462655
132086514,0.00311798,0.000488407,0.0116181,0.463299
132186489,0.00244602,0.00108743,0.0116993,0.463192
132285186,0.00242862,0.00347293,0.0130092,0.462817
132390505,0.00637123,0.00333528,0.0218446,0.463249
132490489,0.00556597,-6.33765e-05,0.0249682,0.463135
132594495,0.00734426,0.00312483,0.0204791,0.469715
132694494,0.00424625,0.00290459,0.0187731,0.491997
132794521,-0.000231371,0.00184092,0.0140897,0.502405
132898589,0.00204535,-0.000391303,0.0102236,0.501983
132999490,0.00122401,-0.000938983,0.00763655,0.501972
133102505,0.000164695,-0.00170617,0.00344284,0.502487
133202520,0.000506519,-0.00109857,0.00388388,0.502466
133302564,0.000330404,-0.0030282,0.00491343,0.50192
133406510,-0.000598573,-0.000495361,0.00530961,0.501972
133506487,-0.00186619,-0.00160177,0.00457977,0.502455
133606538,0.000135534,-0.00267259,0.00352351,0.50246
133710592,0.00189547,-0.00332433,0.00622097,0.502262
133809190,0.000796658,-0.00403376,0.0103371,0.50246
133913077,-0.000239193,-0.00124584,0.0128907,0.502428
134014485,-0.000429375,-0.00439533,0.0137301,0.502005
134114511,-0.00188196,0.000996096,0.0140562,0.502009
134218485,-0.00139111,0.000160061,0.0156966,0.502457
134318507,0.00159364,0.00107844,0.0179117,0.503642
134418556,0.00291158,-0.000121113,0.0209518,0.503945
134522512,0.000963746,8.36594e-06,0.0175401,0.503709
134622503,-0.0012562,0.000515976,0.0119336,0.503766
134726551,0.000240571,0.00227007,0.00842531,0.503968
134826519,0.00363705,0.00283567,0.0123054,0.503601
134926490,0.00297948,-0.000447775,0.0112976,0.503512
135030500,0.00165157,0.00446315,0.0110254,0.50397
135130625,0.00148851,0.00352228,0.0107852,0.503945
135230574,-0.000542764,0.000445953,0.0113989,0.503945
135335485,-0.000298099,0.000154209,0.0126579,0.503741
135434507,-0.00205856,0.00669854,0.0124279,0.503629
135538518,-0.000898991,0.00442097,0.0133994,0.503512
135638564,0.00200615,0.00592701,0.0133276,0.503627
135738490,0.00227508,0.00582976,0.0127078,0.503995
135842511,-0.000352342,0.00314033,0.0130705,0.503943
135942491,-0.000545334,-0.00181475,0.013788,0.503945
136045370,-8.58283e-05,-0.00119078,0.0235226,0.506323
136146604,-0.000802189,-0.000246036,0.025693,0.508154
136246486,-0.0022049,-0.00231029,0.0187816,0.510871
136350485,-0.000758871,0.000600899,0.018028,0.51105
136450486,-0.00223893,-0.0026453,0.0160769,0.510793
136550517,-0.00039356,-0.000359859,0.0140755,0.510848
136654485,-0.00047803,0.00193199,0.013085,0.510848
136754577,-0.00172686,0.00163173,0.0116963,0.510848
136854473,0.000189832,-0.00281449,0.0108524,0.51119
136958516,-0.000706311,-0.0024937,0.0109868,0.510849
137058592,-0.000299264,-0.00251612,0.0131431,0.510848
137162523,0.00213485,-0.00127865,0.0138397,0.510848
137262488,0.000907881,-0.00104989,0.0138397,0.510848
137362538,0.000791204,-0.000132562,0.0143801,0.510793
137466587,0.00164431,0.00085325,0.0142169,0.510848
137566487,0.000289028,-3.44008e-05,0.013847,0.524664
137666508,-0.000652735,-7.59896e-05,0.0102217,0.529665
137770486,0.0014148,-0.000478424,0.00680343,0.530333
137869044,0.00296725,-0.00223151,0.00744111,0.530333
137973182,0.00455941,-0.00397766,0.0068604,0.530084
138074574,0.0036479,-0.000809432,0.00587713,0.531418
138174486,-6.51239e-05,-0.00105573,0.00638088,0.530953
138274473,-0.00223081,-0.000769822,0.00694985,0.531211
138378491,-0.00266156,0.000621158,0.00853267,0.530975
138479482,0.00122471,-0.000511326,0.00625186,0.530711
138582526,0.00405154,-0.00187893,0.00736032,0.531235
138682548,0.00340323,-0.000429894,0.00799844,0.530975
138786491,0.000914658,0.000856995,0.00686244,0.530946
138887607,0.000388372,0.00122462,0.00701593,0.530728
138986613,0.00015193,0.000505681,0.00646332,0.531205
139090488,-1.21302e-05,0.00141676,0.00673224,0.530888
139190521,-0.00343443,-0.000472312,0.00548496,0.531176
139290550,-0.00432842,-0.00180889,0.00650717,0.531173
139390477,-0.00278325,-0.00261794,0.00590633,0.530888
139494699,-0.00998496,-0.00692204,0.00604359,0.530946
139598524,-0.00254933,-0.00300512,0.00661586,0.531211
139699487,0.000643726,-0.00125931,0.00394761,0.531167
139798490,0.00375721,0.00132018,0.0059221,0.530804
139901239,0.00253706,-0.00179527,0.00457111,0.53137
140002536,0.00131717,-0.00233006,0.00595323,0.530952
140105361,0.000123192,0.000864854,0.00704968,0.530814
140206489,0.00230957,-0.00165266,0.00614763,0.531178
140306510,-0.00134733,-0.0015283,0.00537617,0.530974
140409482,-0.00340537,-0.000986312,0.00572834,0.530946
140510564,-0.000854339,-0.0012323,0.00665635,0.531211
140610559,0.00309149,-0.000416923,0.00629388,0.531178
140714519,0.00234597,0.00196959,0.00774035,0.530888
140814486,0.000992975,0.000669797,0.00586833,0.531263
140914485,-0.00195054,-0.000460442,0.00650082,0.530973
141018484,-0.000500628,0.000545861,0.00582981,0.530946
141118486,-0.00160603,0.00349804,0.00510848,0.530214
141222547,-0.00281829,0.0015901,0.00687413,0.530921
141322518,-0.00327645,-0.000150993,0.00579382,0.530813
141422524,-0.00227033,0.00111617,0.0015064,0.531205
141526473,0.827555,-1.07479,-0.260195,0.3087
141626517,0.188536,-0.267235,-0.253612,0.362274
141726505,-0.109201,0.116948,-0.220941,0.398235
141830562,-0.1723,0.202263,-0.17231,0.426199
141930630,-0.150799,0.169729,-0.12207,0.445591
142034590,-0.0971315,0.0953769,-0.0725981,0.459794
142133413,-0.0469544,0.0434376,-0.0319106,0.469459
142234487,-0.040826,0.0326609,-0.00366364,0.476685
142338610,-0.0681628,0.0601455,0.0154735,0.481746
142438562,-0.0792568,0.0661334,0.0257323,0.485993
142538594,-0.0684051,0.0744442,0.0294804,0.489319
142642484,-0.0619689,0.0754871,0.0294082,0.491561
142742536,-0.0703576,0.0776074,0.0257424,0.493474
142846574,-0.0578878,0.067601,0.0191504,0.494783
142946510,-0.0556027,0.0580011,0.0122862,0.495501
143046490,-0.046827,0.0536687,0.00599679,0.496335
143150533,-0.0297016,0.0509066,0.00169816,0.496706
143250517,-0.00928725,0.0445034,-0.00212471,0.496497
143350484,-0.0179507,0.0401564,-0.0062861,0.496239
143454488,-0.024438,0.0367943,-0.00734199,0.495746
143554584,-0.0333076,0.0444394,-0.00726983,0.415474
143658521,-0.0434926,0.0504033,-0.00639102,0.361056
143758518,-0.0155147,0.0208965,-0.00561059,0.406596
143858529,-0.00771058,0.0157469,-0.00396475,0.435925
143962489,-0.006645,0.0105491,-0.00269963,0.455235
144062529,-0.0109912,0.0103725,-0.000907008,0.467181
144162489,-0.0127739,0.00563471,-0.000280063,0.474565
144265610,-0.0124871,-0.00379109,0.000114477,0.479395
144369062,-0.00628095,-0.00463392,-0.00068717,0.482645
144470616,0.00114196,-0.00928147,-0.000928717,0.484949
144570526,0.00132394,-0.00504699,-0.000665404,0.486608
144670483,0.00296457,-0.0027989,-0.00128428,0.487688
144774479,-0.000324789,-0.00564915,-0.00176234,0.488252
144874500,0.0101885,-0.0080913,-0.00146285,0.488714
144974521,0.017252,-0.0076822,-0.000902079,0.489191
145079488,0.0167801,-0.00329267,-0.00135225,0.489392
145179475,0.0122206,-0.0103089,-0.00161547,0.489659
145282550,0.0212382,-0.00746615,-0.000868276,0.489797
145383562,0.0192638,-0.0025075,-2.99649e-05,0.489923
145482489,0.0151362,-0.00904829,-0.000524498,0.490173
145583487,0.0122751,-0.0135041,-0.000559291,0.490128
145686479,0.00660142,-0.0185589,-0.000910681,0.490138
145786557,0.00534656,-0.020465,-8.27045e-05,0.490197
145890484,0.00433084,-0.0181925,0.000485096,0.49022
145990489,0.00949182,-0.0144468,-0.000310947,0.490035
146090610,0.0154339,-0.026961,-0.000101492,0.490175
146195475,0.0103882,-0.0223396,-0.000108075,0.490069
146297154,0.00365582,-0.0141702,-0.000591774,0.489888
146402519,0.00807957,-0.0104061,-0.000152275,0.490034
146501303,0.00775341,-0.00427929,0.000649805,0.490156
146605388,0.000105959,-0.00451673,0.00019388,0.490251
146706492,0.0122602,-0.0108827,0.000796289,0.490401
146807482,0.00780614,-0.00183607,0.000427046,0.490169
146906510,0.00663092,-0.00697065,-0.000267226,0.490178
147010486,0.008097,-0.0103549,-0.000794682,0.490011
147110564,0.00921304,-0.00862735,-0.00119573,0.489983
147214485,0.0112411,-0.0122665,-0.00218863,0.49018
147315563,0.00604808,-0.00629009,-0.00188612,0.489892
147414567,0.00221707,-0.00574106,-0.00129324,0.48979
147518527,-0.00246312,-0.00170317,-0.000646916,0.489767
147619518,-0.00732902,0.00589667,-0.000576961,0.489909
147718520,-0.00119443,-0.00301991,2.97587e-05,0.489844
147822487,-1.92355e-06,-0.000753028,0.000969268,0.489852
147922484,0.00977768,-0.00402748,0.000844445,0.489813
148026494,0.00778016,0.00554241,0.000371375,0.48982
148126518,0.00192288,0.00662791,5.88925e-05,0.489913
148226506,0.000146718,0.00495771,-0.00031238,0.489908
148330474,-0.00933203,0.00513407,-0.000467559,0.489849
148430509,-0.00674167,0.00582223,-0.000385542,0.489405
148529318,-0.00295495,0.0093965,0.00108117,0.489602
148633528,-0.00173414,0.0045986,0.000240864,0.48949
148734487,-0.00220462,0.00827446,-0.000390044,0.489703
148837252,-0.00198015,0.00856564,-0.000752916,0.489562
148938569,-0.00764384,0.00758382,-0.000922249,0.489718
149038484,-0.000181966,-0.00104058,-0.00070222,0.489514
149142526,-0.00179746,0.00662561,0.000496005,0.489337
149242486,-0.0135031,0.00241204,-0.000238334,0.489273
149342513,-0.00792916,0.0015742,-0.000444091,0.489636
149446483,-0.00627627,0.00688744,-0.00116008,0.489712
149546521,-0.00857476,-0.00161675,-0.000471492,0.489279
149650488,-0.00750784,0.000358902,-0.000605159,0.489229
149750514,-0.0105255,0.000551883,8.37164e-05,0.489121
149850484,-0.00883944,0.00515855,0.000153603,0.489411
149954537,0.000603898,0.00447905,0.00105732,0.489787
150054526,9.94729e-05,0.00462345,0.00055808,0.489621
150154487,-0.00393302,-0.000781152,0.000366249,0.489379
150258491,-0.00500227,-0.000980713,-0.000132502,0.489272
150358484,-0.00460286,-0.000152927,-0.000427853,0.489524
150462483,0.00134947,-0.000906531,0.000905938,0.489295
150562501,-3.32672e-05,0.00517048,0.000896565,0.489605
150661443,0.000376128,-0.00286459,0.00151449,0.489279
150765811,-0.00352412,-0.000596782,0.00137981,0.489533
150867485,-0.00588219,-0.00173685,0.00159201,0.489411
150967489,-0.00147694,4.11813e-05,0.00113048,0.489447
151070516,-0.00483729,0.00121373,0.000786696,0.489021
151170499,-0.00230838,0.000814388,-4.82884e-05,0.488922
151274516,-0.00362652,-0.000210079,-3.69305e-05,0.489262
151374489,8.36209e-05,-0.000130817,0.00041513,0.489298
151474485,-0.00754891,0.000689939,0.00196489,0.489271
151578546,-0.00427368,-0.000321383,0.00160278,0.489648
151679483,-0.00547552,-0.00476933,0.00171582,0.489583
151779544,-0.00690096,-0.0050034,0.00100713,0.489795
151883492,0.00110999,-0.00419613,0.000286652,0.489506
151983484,-0.000453115,-0.0023015,0.00110162,0.489574
152086485,0.000627838,-0.00044662,0.000358698,0.489596
152186519,-0.00118598,0.00120821,-0.000636325,0.489681
152286537,-2.07505e-05,0.000881843,-0.00118291,0.489656
152390518,0.00861478,-0.00960079,-0.000698038,0.489739
152491518,0.00718242,-0.00243848,-0.00019189,0.489381
152590577,0.00470891,-0.0166497,-0.00145718,0.489196
152695492,0.00609982,-0.00592146,-0.000463392,0.489544
152795052,0.00156586,0.000482084,7.37422e-05,0.489839
152897298,-0.00466398,-0.00548848,-0.000114875,0.489981
152999524,-0.00287907,0.0022296,0.000937285,0.490118
153099578,0.00209445,0.0027569,0.000549051,0.48984
153202484,0.00142138,0.00198911,0.00189024,0.489705
153302514,0.000865304,-0.00172371,0.000751444,0.489682
153402483,0.0012047,0.000562004,0.000506297,0.490077
153507487,0.00520129,-0.0016265,1.74655e-05,0.490176
153607486,0.0126938,-0.00988239,-0.000356586,0.538257
153710568,0.00193827,-8.8362e-05,0.000294472,0.520333
153810483,-0.00632879,0.0145204,0.000712157,0.509489
153910475,-0.00818531,0.0022333,0.00130781,0.502615
154014484,-0.00923243,0.00754016,0.000945943,0.498518
154115521,-0.000520721,-0.00346894,0.00106207,0.495794
154214577,0.00240564,-0.010281,0.00128005,0.494255
154318473,0.00185671,0.0027305,0.000195489,0.492733
154418504,0.00190674,0.00700699,-0.000567571,0.492072
154522486,-0.00946706,0.0021936,-0.000562919,0.491025
154622544,-0.00574862,-0.00160094,-0.00132734,0.490498
154721205,-0.00315656,0.00116897,-0.00129453,0.490209
154825410,0.00157415,0.00171244,-0.000341576,0.489831
154926561,0.00133951,0.00683867,0.000389223,0.489822
155026484,7.01611e-05,-0.00376881,0.000953585,0.489583
155130487,0.00378237,-0.00176947,0.00133475,0.48943
155230489,0.00512422,-0.00200973,0.00167606,0.489566
155334485,0.00146427,0.000300202,0.00175696,0.489716
155434485,0.00345069,-0.00709018,0.000131214,0.489522
155534552,0.00168163,-0.00592147,-8.08888e-05,0.489531
155638473,-0.00334303,-0.000269581,0.000572942,0.48978
155738510,0.00471372,0.00449917,0.00043895,0.489693
155838520,0.00175466,-0.00181679,-0.000184201,0.489749
155942512,0.00422298,-0.000345529,0.00055967,0.489362
156042488,0.00265278,0.00106896,-0.000140639,0.489562
156146519,0.00362416,0.0059828,-0.00036139,0.489667
156246528,-0.000900434,-0.00028139,-0.000225703,0.48948
156347521,-0.000749941,0.00257271,-5.04927e-05,0.489818
156446521,0.00240563,0.00179815,0.00104656,0.489759
156551485,-0.000736462,-1.9723e-05,0.00232091,0.489688
156651488,0.000245644,0.0048409,0.0014268,0.489543
156754646,-0.00676445,-0.000931946,-0.00020398,0.489533
156853259,-0.00155584,-0.00404226,-0.00059344,0.489458
156957425,0.000496286,-0.00204323,-0.00158877,0.489949
157058507,-0.00108304,-0.00448408,-0.00124077,0.489519
157158473,0.00310727,-0.00893289,-0.000889273,0.48977
157262555,0.000548983,-0.00246401,-0.000153597,0.490022
157363484,-0.00416671,0.00537266,-0.000776513,0.48993
157463486,-0.000367075,0.00640186,-0.000419355,0.489989
157566496,-0.00956202,0.00823685,0.000419952,0.490309
157667542,-0.00882922,0.00189779,-2.75635e-06,0.489934
157770489,-3.36846e-05,0.00403414,-0.000522366,0.489811
157870473,-0.00345937,0.00650979,-0.00106273,0.489962
157970504,0.00301865,0.00178743,-0.00105361,0.48957
158074471,0.00369012,0.00369961,-0.000687989,0.48983
158174537,-0.000749179,0.00161005,-0.00013942,0.489739
158274488,-0.000367956,0.00773769,0.000981369,0.489557
158374485,0.000968589,0.0031503,0.0013162,0.48987
158479488,0.00045147,0.00437852,0.00137181,0.489972
158579562,0.00245657,-0.0027482,0.00161678,0.489984
158683488,-0.00340691,-0.0035912,0.000654898,0.490326
158783475,0.00148486,0.00338493,0.000377067,0.490187
158881578,0.00372036,-0.00130071,0.00107833,0.490211
158985359,0.00609541,0.00362455,0.000693647,0.49023
159089494,0.00329294,0.00429724,0.000977954,0.49026
159190505,0.00382479,-0.00179134,0.000348537,0.490017
159290513,-0.0015805,0.00441375,0.000807101,0.489895
159390570,-0.00567973,0.00293592,0.00039069,0.490083
159495506,-0.0055308,0.000227438,0.000477794,0.489896
159595487,-0.00584492,1.91352e-05,0.000144402,0.489933
159695493,-0.00335471,0.0022355,3.82305e-05,0.489821
159798534,0.00929516,-0.00133319,0.00157312,0.489528
159899516,0.00576181,-0.00622915,0.00135524,0.489438
160002670,0.00222856,0.00498425,0.00152127,0.489253
160102486,0.00732408,0.00201248,0.000436452,0.489202
160202509,0.00434794,0.000159316,0.000626787,0.488878
160307473,-0.00146761,-0.0020454,0.00103298,0.489094
160407484,-0.00481133,-0.00223734,0.000146509,0.489205
160510497,-0.00294446,0.00610241,0.000524311,0.489192
160610505,-0.0124144,-0.000487329,-0.000295412,0.48932
160711493,-0.00782918,-0.00490452,-0.000383641,0.489443
160815487,-0.00179484,-0.00550313,-0.000214395,0.489789
160915492,0.00324733,-0.00307463,-0.000216878,0.489986
161018516,0.000252859,-0.00456854,0.000352148,0.490333
161117609,-0.00140746,-0.00366716,0.000227558,0.490159
161218694,0.00281478,-0.00118551,0.000745291,0.489749
161322484,0.0092046,-0.00836437,0.000822644,0.489847
161422486,0.00747845,-0.000309662,0.000400017,0.490079
161522516,-0.00480876,0.0114736,0.000429202,0.490147
161626564,-0.00291505,0.0094753,0.000866976,0.489898
161726609,0.00431682,-0.00247352,0.000964997,0.489613
161830487,0.0109241,-0.00844384,-0.000282729,0.489542
161930507,0.00405093,-0.00619964,-7.74163e-05,0.489641
162030485,-0.00373447,-0.00402982,3.35934e-05,0.489739
162134601,-0.00375415,-0.00525745,-0.000733963,0.48999
162234485,-0.00388103,-9.63805e-05,-0.0011138,0.490053
162335544,0.0045985,0.00283608,-0.000230673,0.489955
162438484,-0.00418416,0.00449576,0.000133001,0.489881
162539539,-0.00659816,0.000849301,0.000558463,0.490095
162642477,-0.0014937,0.00385858,0.000765,0.489975
162742517,0.000352196,0.00645414,0.000707087,0.489879
162842508,0.00108083,0.00144635,0.000544913,0.490363
162946488,0.000768033,0.00809596,0.00101755,0.490034
163047520,0.00122331,0.0005278,0.000942198,0.489792
163145556,-0.00305281,-0.007572,0.000259134,0.489878
163249623,0.00408382,-0.00384051,0.000146746,0.489817
163351487,0.00141857,-0.000207375,-0.000218359,0.490006
163454577,0.0016727,-0.00880914,-0.000424925,0.489979
163554520,-0.000698968,-0.00435367,-0.000308517,0.489512
163654647,-0.00612844,0.00120817,0.000556628,0.48967
163754582,-0.00384621,0.000151049,8.24579e-06,0.48969
163858486,-0.0042522,0.0013684,-1.1574e-07,0.489789
163958508,-0.00463318,-0.00121931,-0.00104195,0.489564
164063483,0.00164791,-0.00128577,-0.00121189,0.489404
164163587,-0.000287904,-0.00277329,-0.00118476,0.489586
164263490,-0.0063419,-0.00577731,-0.00107697,0.489784
164367490,-0.000186194,-0.00409568,-0.000321217,0.489959
164467490,-0.00206896,0.00294444,0.000678922,0.490147
164570574,-0.00191557,-0.00509572,0.000272494,0.490327
164670497,-0.0017874,-0.00758541,0.000446571,0.490614
164770471,-0.00119472,0.00151537,0.00139961,0.490998
164874474,-0.00554469,-0.00176387,0.0015003,0.49077
164974485,-0.00134402,-0.00394781,0.00125301,0.490426
165074517,0.00814389,-0.00814666,0.0003678,0.489986
165179486,0.0054133,-0.0121166,-0.00015325,0.489919
165279537,0.00322118,-0.00835953,-0.0004279,0.489826
165381750,-0.00114349,0.00178798,-0.000414608,0.490061
165483485,-0.00453218,-0.00488028,-0.000505932,0.490121
165583485,-0.00246599,-0.00647474,-0.000590858,0.490244
165686565,-0.000908869,0.00158171,-0.000581715,0.490263
165786535,0.00155283,0.00723272,4.38434e-05,0.49033
165887473,0.00011595,0.00327562,-0.000224036,0.490537
165990670,0.00224419,0.00131415,-0.000687517,0.490088
166090489,0.00329413,0.00306602,-0.000468671,0.489813
166190509,0.00527387,-0.00356617,-0.000341513,0.489441
166295489,0.00217166,0.000627382,0.000507422,0.489781
166395545,0.0046433,0.00903207,0.00100464,0.48967
166499483,0.00425921,0.00295143,0.00224379,0.489238
166599493,0.0040467,-0.00230304,0.00195763,0.488791
166699471,0.00172895,0.00216591,0.00183662,0.488861
166802516,-0.000558184,0.00346328,0.00102798,0.488871
166903486,-0.00453398,0.00717115,-0.000193804,0.489606
167003540,-0.00566271,0.00217062,0.000254584,0.489869
167107471,-0.000358311,0.00477566,0.000258467,0.490084
167207485,-0.000808618,0.00487084,0.000247471,0.489761
167310542,-0.00113723,0.00708674,-0.00031116,0.489595
167410473,-0.00192467,0.00696466,-0.00109029,0.489826
167514132,0.00312172,-0.00194296,-0.00102946,0.48966
167614484,0.00352811,0.00320109,-0.000575577,0.489692
167715550,-0.000985257,-0.00521559,0.000565933,0.490131
167815564,0.000540902,-0.00892524,0.000920923,0.489878
167918515,-0.00334376,-0.00323051,0.000446577,0.489848
168018556,0.000556655,0.00663463,0.000438146,0.489988
168122523,0.00486806,0.00142984,3.39308e-06,0.489947
168222473,0.00645503,-0.00263212,-0.000388712,0.490145
168326511,0.00350871,-0.00646879,0.00100113,0.48998
168427563,-0.00302977,-0.00234963,0.000715237,0.48991
168527487,0.00773948,0.000732904,0.00149434,0.489798
168626644,0.000667274,-0.00117637,0.00185438,0.48954
168730477,-0.00231764,-0.000831327,0.00123866,0.48938
168831471,-0.000332825,-0.00439343,0.00111058,0.489747
168935482,-0.000155758,-0.00247193,0.00135081,0.489854
169035487,0.00168307,0.00283409,0.00127382,0.489692
169138548,0.0031447,0.00553671,0.000125276,0.48966
169237558,-0.00507069,0.00153616,-0.000385471,0.489827
169338487,0.000415137,0.0114776,-0.0015535,0.4899
169441625,-0.000102328,5.97607e-05,-0.000700268,0.48984
169542483,-0.00109008,0.00346361,-0.000316122,0.490151
169642487,-0.00213324,0.00493255,-0.000167374,0.490012
169747559,-0.00443924,-0.00192593,-0.000610802,0.48976
169847521,0.00146913,-0.00384164,3.47179e-05,0.490049
169950560,-0.00129327,-0.000574726,0.000919267,0.489921
170051471,0.00348989,0.00529281,-0.000173586,0.489763
170150596,0.00739837,0.00223418,0.000843893,0.489864
170254515,0.00243077,-0.0015045,-0.000680692,0.490029
170355518,-0.00197541,-0.00748729,-0.00170842,0.48988
170454540,0.00184282,-0.00530684,-0.00215055,0.489991
170559488,-0.00969861,-0.0177666,-0.00224482,0.490311
170659563,-0.00732484,-0.0167498,-0.00271891,0.490352
170758559,-0.00824571,-0.0110125,-0.00126302,0.49069
170863490,0.00398559,0.00607046,-0.0010921,0.491039
170963538,-0.00380834,0.00457443,-0.000317384,0.491124
171063516,-0.00589182,-0.00440533,-0.000203883,0.491023
171167534,0.0026799,-0.00236881,0.000315038,0.490823
171267527,-0.00138742,-0.00315226,-6.41411e-05,0.490397
171370482,-0.00139775,0.00843194,-0.000229623,0.490363
171469616,0.00864482,0.00640458,0.000709026,0.490394
171573576,0.00537016,0.00308786,0.000428474,0.490572
171675483,0.00919221,-0.00155297,-0.000646339,0.489967
171775521,0.00189458,-0.00329774,-0.00179205,0.489835
171875516,0.00143753,-0.00359487,-0.00120188,0.489747
171979486,0.00515141,0.0018429,-0.000427037,0.489908
172079491,-0.00479036,-0.00142212,-0.00118873,0.489389
172183486,-0.00420009,-0.00401502,-0.00116318,0.48946
172283479,0.00582357,0.00135605,-0.0011625,0.489351
172383491,0.00899674,0.00626185,-0.000533876,0.489555
172487489,0.00183652,-0.00430548,-0.000565497,0.489793
172586611,-0.00486336,0.00134835,-0.000516741,0.489541
172687476,-0.00342394,-0.00194543,-0.000126419,0.489718
172791487,-0.00229796,0.00467011,0.00087169,0.490094
172890522,-0.000438816,-0.00436818,0.00116902,0.490143
172995493,0.00885617,-0.00274156,0.00125889,0.489697
173095489,0.00400573,-0.00168604,0.00167697,0.489586
173195504,-0.00507663,-0.00196516,0.00223313,0.489681
173299493,-0.00331139,-0.00594758,0.00162828,0.489593
173399533,-0.0091022,-0.00113429,0.0010204,0.489742
173497761,0.00383564,0.00417884,0.000170428,0.490303
173601863,0.000865761,0.0118643,0.000781029,0.490308
173705786,0.00106936,0.0109493,0.000365901,0.490105
173807488,-0.000858367,0.00505809,0.000253689,0.489717
173907504,0.00106739,0.00219603,0.000193218,0.489558
174010473,6.07545e-05,0.00247194,0.000562891,0.489666
174110578,0.00198341,-0.00201067,-0.000954075,0.489581
174211485,-0.00248243,-0.000232687,-0.000783943,0.489779
174310535,-0.00615948,-0.00496302,-0.00120716,0.489968
174415484,-0.0102992,-0.00147695,-0.000689983,0.490112
174515489,-0.00588874,0.00595821,-0.000752095,0.490185
174619485,0.0081247,0.00552318,-0.000602409,0.490082
174719500,0.00683062,0.00789064,-0.00122314,0.48991
174822539,0.00302109,0.000466377,-0.000696794,0.490032
174922502,0.00343139,0.00127694,-0.000612271,0.490404
175023484,0.00377127,0.000512516,-0.000569234,0.49051
175122531,0.000664685,-0.00160651,8.89913e-05,0.490656
175227471,0.00383611,5.67169e-05,0.00127809,0.490269
175327484,-0.00296117,-0.000440803,0.0014784,0.490184
175431475,-0.00213002,-0.00211954,0.000568027,0.490014
175531603,-0.0081874,-0.00674955,-0.000781867,0.489654
175629778,-0.00785805,-0.00409995,0.000616414,0.489505
175733585,-0.00693203,0.00273227,0.000787747,0.489412
175837512,0.00425396,0.000484275,0.000237556,0.489227
175935561,0.00353686,-0.0037441,-0.000574871,0.489482
176039484,-0.00153343,-0.00274408,-1.2102e-05,0.489524
176138517,0.00455147,-0.00539567,-0.000404442,0.489571
176243487,-0.00406321,-0.0018975,-0.000874179,0.490305
176342557,-0.00380776,-0.000421982,-0.00111,0.49062
176442539,0.00318276,-0.00170357,-0.00093136,0.490476
176547483,0.00206691,-0.00654618,-7.71999e-05,0.490489
176647485,-0.00483611,0.00365676,-0.000368888,0.489942
176747482,0.00200579,0.00356433,-0.000703855,0.489676
176851485,0.00678887,-0.00559576,-2.72566e-05,0.489431
176951472,0.00446097,-0.00803956,0.000111164,0.489594
177051490,-7.53935e-05,0.000781608,-9.52828e-05,0.489538
177155631,-0.00448637,-0.00260113,-0.000200442,0.489811
177255538,0.00445093,0.00760729,-0.000947379,0.489785
177359485,-0.00180426,0.00623742,-0.000108032,0.489827
177459486,-0.00491892,-0.00552424,-0.000299445,0.489855
177559471,-0.000305102,-0.00363734,-0.000284423,0.489469
177663482,0.000558762,-0.00474189,-0.000684999,0.489469
177761919,0.0019695,-0.00138994,-0.000171029,0.489925
177866020,0.00153615,-0.00091569,0.000630509,0.490055
177967491,-0.00437469,-0.00168298,0.000384673,0.490369
178067503,-0.00362991,0.00162444,0.00104244,0.490276
178170607,0.0108875,0.00437088,0.000479853,0.49031
178271473,0.0154464,0.00546457,0.000543997,0.489973
178370647,0.0150938,0.00553987,0.000239071,0.490404
178475484,0.00591991,-0.00149739,-0.000217384,0.489922
178575538,0.00314835,0.000669204,0.000121465,0.489838
178679614,0.00399878,0.00268836,0.000566077,0.490079
178779607,-0.00301163,0.00224686,0.000249859,0.489875
178879605,-0.00513719,-0.00108068,-0.00138425,0.489786
178980568,-0.00629414,-0.00413286,-0.000322147,0.49015
179083518,0.00324748,-0.000128308,0.000156446,0.489434
179183882,-0.000438478,0.00236644,-0.00108523,0.489587
179287493,-0.00383021,0.00440581,-0.00126558,0.49008
179387471,0.00237021,-0.00612497,-0.000776909,0.490152
179491510,0.000235886,-0.00593216,-0.00066331,0.490163
179591479,0.000880113,-0.00544782,-3.26885e-05,0.490056
179691477,0.000889195,0.00283832,-0.000419412,0.49013
179795485,0.00829517,-0.01624,-0.000340502,0.490045
179899545,0.0058301,-0.00927975,-0.000627807,0.490227
179997721,-0.00503015,-0.00121195,6.88634e-05,0.490537
180101526,-0.00383471,0.00206855,0.000258813,0.490759
180203477,-0.00856576,0.0017218,9.09519e-05,0.491026
180303485,-0.0076517,-0.00199029,0.000292142,0.491167
180407483,-0.00503775,-0.00750974,0.000700856,0.49066
180507485,0.000710848,-0.000936825,-0.000263445,0.490298
180611484,0.00649624,0.00363164,-0.000581392,0.49003
180711487,0.00333132,-0.00085194,-0.00124017,0.489689
180811487,-0.0091122,0.000569601,-0.000805415,0.489604
180915486,0.000745911,0.00400477,-0.00070581,0.490137
181015502,-0.00382562,-0.004387,-0.000850643,0.48994
181115492,0.00101236,-0.00165311,-0.000998131,0.489725
181219543,0.00210822,-0.000540033,0.000497925,0.489663
181319611,-0.00220517,0.00159199,0.00069373,0.489672
181423486,-0.0020884,0.00485377,5.41979e-05,0.489314
181523489,-0.00124866,-0.0013021,-8.4272e-05,0.48928
181623471,-0.00254847,0.00507041,-0.00107895,0.489885
181727490,-0.00614427,0.0254421,-5.17999e-06,0.08
181827680,-0.0064914,0.0179645,-7.97856e-05,0.08
181927488,-0.0054588,0.00462185,0.000576597,0.08
182031472,-0.00281467,-0.000475593,0.000950125,0.08
182129858,-0.00313642,0.00184488,0.000821699,0.08
182233749,-0.00734053,0.00270308,0.000982152,0.08
182335611,-0.00538252,0.0014565,0.00214459,0.08
182435606,-0.00229864,-0.0016941,0.00088067,0.08
182539486,-0.00174618,-0.000619318,-0.000356704,0.08
182639484,-0.00172008,-0.00183516,-0.000701616,0.08
182740487,-0.00364188,0.00249531,-0.000931669,0.08
182843471,-0.000934964,0.000792885,-0.000611238,0.08
182943613,-0.00126304,0.000328612,0.000156249,0.08
183047485,-0.00224912,-0.00198361,-0.00110914,0.08
183147473,-0.00395993,-0.00201284,-0.00166764,0.08
183247483,-0.00280633,-0.00367895,-0.000711374,0.08
183351654,-0.00497126,-0.00174068,-0.000510348,0.08
183451609,-0.00722703,-0.00347544,-0.000776301,0.08
183551490,-0.00485077,-0.00755065,-0.000660319,0.08
183655484,-0.00247538,-0.00300105,-0.00146187,0.08
183755485,-0.00139387,0.00338066,-0.00229208,0.08
183859615,-0.00028043,0.00283593,-0.00238638,0.08
183959474,-0.00033638,0.000346997,-0.00168382,0.08
184059526,-0.0032899,0.000619334,-0.00197888,0.08
184163473,-0.00382828,-0.00239333,-0.00123904,0.08
184261691,-0.00096305,-0.00257173,-0.000737664,0.08
184363525,-0.00022773,-0.000274154,0.000216955,0.08
184467486,0.00710984,-0.00644722,0.000166697,0.08
184567473,0.0117236,-0.00295299,0.000184758,0.08
184671490,0.0137012,-0.00253808,0.0016016,0.08
184771491,3.03723e-05,-0.00122097,0.00137705,0.08
184871484,-0.001685,-0.00141254,0.00188524,0.08
184975483,0.00427795,-0.000949868,0.000117737,0.08
185075486,0.00264747,0.000429162,0.00039038,0.08
185175487,0.000608275,0.0020081,9.00966e-05,0.265969
185280483,0.000324231,0.000435998,-0.00458302,0.514905
185379487,-0.00484607,0.00201655,-0.144691,0.68163
185483487,-0.00254812,0.00264079,-0.232072,0.848724
185584492,-0.00107626,-0.000824907,-0.218945,0.996216
185683486,-0.00106177,0.000549659,-0.0894537,0.999815
185787481,-0.00105593,-0.000932196,-0.0492027,0.999996
185887501,-0.000999714,0.00512891,-0.0179329,1.0
185987548,-0.00585407,0.00768126,0.00230424,1.0
186091476,-0.00668472,0.00453955,0.015115,1.0
186189636,-0.00276551,-0.000849039,0.0212664,1.0
186293971,-0.00465138,-0.00448542,0.0222451,1.0
186395488,-0.000662638,-0.00681314,0.0205466,1.0
186495490,0.000942364,-0.0039136,0.0178878,1.0
186599488,-6.28412e-05,0.00167037,0.0135757,1.0
186699606,0.00196925,0.00421984,0.00798472,1.0
186799483,0.000722939,0.00174891,0.0029739,1.0
186903492,0.00266721,0.00376149,0.000940099,1.0
187003491,0.00415829,0.000959191,-0.00209472,1.0
187103485,0.00795051,-0.00136903,-0.00397728,1.0
187207618,0.00536358,0.00129761,-0.0052057,1.0
187307529,-0.000431485,-0.00122455,-0.00567926,1.0
187411484,-0.00264277,-0.000172781,-0.00500268,1.0
187511487,0.000745241,0.00289753,-0.00427329,1.0
187611491,0.000830682,0.000841767,-0.00376292,1.0
187715542,0.00017928,-0.000608815,-0.00273335,1.0
187815473,-0.00474423,0.00206835,-0.00180834,1.0
