timestamp,rollspeed,pitchspeed,yawspeed,q[0],q[1],q[2],q[3],delta_q_reset[0],delta_q_reset[1],delta_q_reset[2],delta_q_reset[3],quat_reset_counter
73094776,-0.00331258,-0.00766391,0.0135646,0.999962,0.00146265,-0.000462789,0.00859009,1.0,0.0,0.0,0.0,0
73214771,-0.00509667,0.00277673,0.0323505,0.99996,0.00136923,-0.000619734,0.00878743,1.0,0.0,0.0,0.0,0
73317992,-0.00361458,-0.0142472,-0.000613501,0.99996,0.00134584,-0.000641646,0.00885471,1.0,0.0,0.0,0.0,0
73418766,0.0180255,0.0100659,-0.0102117,0.99996,0.00136721,-0.000631689,0.00877978,1.0,0.0,0.0,0.0,0
73521727,0.0167989,-0.0241929,-0.0102783,0.999959,0.0013887,-0.000366627,0.00892399,1.0,0.0,0.0,0.0,0
73621878,-0.000518926,0.0132125,0.0037914,0.999961,0.00117155,-0.000221905,0.00880625,1.0,0.0,0.0,0.0,0
73721808,-0.00652215,0.0158614,0.000196539,0.999959,0.00114128,0.000129119,0.00895395,1.0,0.0,0.0,0.0,0
73825745,-0.00361297,0.0215027,-0.0149759,0.999959,0.00111098,0.000224243,0.00899803,1.0,0.0,0.0,0.0,0
73925744,0.0148512,-0.00892873,-0.0110429,0.999959,0.00101356,0.000339587,0.00901195,1.0,0.0,0.0,0.0,0
74025734,-0.0178488,0.0109687,-0.00438841,0.999959,0.000932707,0.000449183,0.00895371,1.0,0.0,0.0,0.0,0
74130848,0.00283687,0.00799949,0.00127569,0.999958,0.000768811,0.000516967,0.00913691,1.0,0.0,0.0,0.0,0
74230879,-0.0109276,-0.000257176,0.0166417,0.999958,0.000696464,0.00049729,0.00911876,1.0,0.0,0.0,0.0,0
74333724,-0.00257815,0.00227222,-0.00714523,0.999957,0.000596158,0.000798614,0.00918528,1.0,0.0,0.0,0.0,0
74434864,-0.00213472,9.69498e-05,0.0117618,0.999955,0.000340982,0.000856836,0.00946794,1.0,0.0,0.0,0.0,0
74534764,0.0205407,0.00686219,-0.00874745,0.999955,0.000213067,0.00106552,0.00943886,1.0,0.0,0.0,0.0,0
74637751,-0.0172339,0.000363648,-0.00119344,0.999956,0.000155304,0.00102934,0.00933087,1.0,0.0,0.0,0.0,0
74736764,0.000971539,0.0107048,0.00185006,0.999954,7.04113e-05,0.00107236,0.00952325,1.0,0.0,0.0,0.0,0
74840847,0.000225749,-0.00792601,-0.000975525,0.999954,0.000165027,0.000558598,0.00962781,1.0,0.0,0.0,0.0,0
74941883,0.00462559,-0.0143482,0.0421306,0.99995,8.19555e-05,0.000115637,0.00996561,1.0,0.0,0.0,0.0,0
75041746,0.00578043,0.000327298,0.0299511,0.999942,0.000182506,0.000117757,0.0108085,1.0,0.0,0.0,0.0,0
75141740,0.00393521,-0.0021195,0.0363833,0.999931,0.000185994,3.86612e-05,0.0117646,1.0,0.0,0.0,0.0,0
75246735,-0.00374636,0.0156266,0.0107278,0.999921,8.48561e-05,6.50222e-05,0.0125695,1.0,0.0,0.0,0.0,0
75345791,0.0012897,-0.00135963,-0.0172054,0.999912,6.27267e-05,4.70741e-05,0.0132627,1.0,0.0,0.0,0.0,0
75446762,0.00820747,-0.00266173,0.00727943,0.999904,2.53009e-06,3.68995e-05,0.0138437,1.0,0.0,0.0,0.0,0
75551806,-0.000891135,-0.00351692,-0.00460903,0.999898,6.28056e-05,0.000153674,0.0142559,1.0,0.0,0.0,0.0,0
75649896,-0.0024987,0.00775466,0.0108048,0.999891,1.13196e-05,0.000253498,0.0147819,1.0,0.0,0.0,0.0,0
75754794,0.0186352,0.0200535,0.000373059,0.999885,5.96588e-05,-7.29468e-05,0.0151436,1.0,0.0,0.0,0.0,0
75854769,0.0160529,-0.0165709,-0.00933546,0.999887,9.86764e-05,0.000276221,0.0150073,1.0,0.0,0.0,0.0,0
75957738,0.0291044,-0.00465403,-0.00965163,0.999889,-0.000104423,7.73438e-05,0.0149177,1.0,0.0,0.0,0.0,0
76058781,-0.0147687,-0.0252302,-0.0208824,0.999893,0.000457547,-1.61072e-05,0.0146235,1.0,0.0,0.0,0.0,0
76157794,-0.033182,-0.0301963,0.00908297,0.999895,0.000211461,0.000180851,0.0144731,1.0,0.0,0.0,0.0,0
76257789,-0.0179705,0.00555936,-0.00753173,0.999898,-2.6143e-05,-7.166e-05,0.0142685,1.0,0.0,0.0,0.0,0
76361728,-0.0359766,0.0413179,0.0138643,0.9999,-0.000108699,-0.000269646,0.0141772,1.0,0.0,0.0,0.0,0
76462740,-0.0451102,0.0438029,0.00148007,0.999901,-9.30169e-05,-0.000163934,0.0141023,1.0,0.0,0.0,0.0,0
76566726,-0.00885846,0.0450566,-0.00588183,0.999901,-9.04199e-05,-0.000129595,0.0140792,1.0,0.0,0.0,0.0,0
76666729,-0.00406894,0.00217832,0.0195248,0.999899,-0.000185764,-5.87252e-05,0.0141837,1.0,0.0,0.0,0.0,0
76769740,-0.00235103,0.0331565,-0.0053284,0.999901,-0.000107536,0.000202533,0.0140867,1.0,0.0,0.0,0.0,0
76868792,-0.0206144,0.0307563,0.0016369,0.999902,0.000312296,-0.000262251,0.0140031,1.0,0.0,0.0,0.0,0
76973082,-0.00904507,0.0507479,-0.00787341,0.999902,0.00031347,-0.000458549,0.0139795,1.0,0.0,0.0,0.0,0
77073738,0.0200172,0.00988607,-0.00374966,0.9999,6.49908e-05,-0.000353543,0.0141638,1.0,0.0,0.0,0.0,0
77174931,-0.02058,-0.0401434,0.00225991,0.999898,-3.43439e-05,-0.000395762,0.0142785,1.0,0.0,0.0,0.0,0
77274740,-0.0330011,-0.0442359,0.028112,0.999896,-0.000346248,-0.000643896,0.0144384,1.0,0.0,0.0,0.0,0
77377731,-0.00180981,-0.015796,-0.00852049,0.999896,-0.000408269,-0.000519648,0.0143928,1.0,0.0,0.0,0.0,0
77478868,-0.00305425,-0.0008782,0.00576765,0.999898,-0.000237425,-0.000167037,0.0143114,1.0,0.0,0.0,0.0,0
77578844,0.0133762,0.01657,0.0112009,0.999895,5.5856e-05,-3.50725e-06,0.0144639,1.0,0.0,0.0,0.0,0
77682737,0.00611215,0.00892917,0.00154614,0.999899,0.000297841,2.16976e-05,0.0142121,1.0,0.0,0.0,0.0,0
77782737,0.0383698,-0.0153105,-0.00841417,0.999901,0.000381865,-0.000329203,0.0140322,1.0,0.0,0.0,0.0,0
77882866,0.0326833,-0.0129485,0.00977766,0.999899,0.000273178,-0.000225082,0.0141908,1.0,0.0,0.0,0.0,0
77985855,0.0157118,-0.0242554,0.00902684,0.999902,0.000121092,-7.19683e-05,0.0140159,1.0,0.0,0.0,0.0,0
78085737,-0.0101661,0.00232321,-0.000986933,0.999904,-0.000165974,0.000118699,0.0138753,1.0,0.0,0.0,0.0,0
78189758,0.00840604,-0.00632875,-0.00321371,0.999903,-0.000149614,-3.17685e-05,0.0139309,1.0,0.0,0.0,0.0,0
78290872,0.00619316,-0.00825055,0.002822,0.999903,2.95583e-05,-0.00011118,0.0139187,1.0,0.0,0.0,0.0,0
78389819,-0.00941763,-0.0283691,0.00523567,0.999903,-6.5026e-05,0.000200747,0.0139469,1.0,0.0,0.0,0.0,0
78494767,-0.00438062,-0.0105873,-0.00408518,0.999903,-1.56068e-05,3.03731e-05,0.0139293,1.0,0.0,0.0,0.0,0
78594815,-0.013866,0.028679,0.000603831,0.999902,-0.000183277,-3.08641e-05,0.0139672,1.0,0.0,0.0,0.0,0
78694740,-0.0219911,0.0354175,-0.00408013,0.9999,-0.000104369,-0.000228458,0.0141418,1.0,0.0,0.0,0.0,0
78798793,-0.0299328,0.0143863,-0.0042094,0.999899,-0.000120376,-0.000327349,0.0142346,1.0,0.0,0.0,0.0,0
78896744,-0.00083621,-0.012758,0.0140152,0.999896,6.78333e-05,-0.000140725,0.0144376,1.0,0.0,0.0,0.0,0
79000883,0.0171489,-0.00112657,-0.00736883,0.999897,-0.000114392,-0.000110554,0.0143239,1.0,0.0,0.0,0.0,0
79102739,0.00857766,0.00256084,0.00227198,0.999895,1.09407e-05,0.000106048,0.0144593,1.0,0.0,0.0,0.0,0
79202826,0.00982194,0.00967442,-0.00813959,0.999898,6.61133e-05,0.000198196,0.0142946,1.0,0.0,0.0,0.0,0
79306748,-0.000172556,0.0265211,0.0210734,0.999899,-0.000295226,0.000391509,0.0142203,1.0,0.0,0.0,0.0,0
79406785,-0.0199107,0.00700402,-0.0111154,0.9999,-0.00020718,5.74373e-05,0.0141735,1.0,0.0,0.0,0.0,0
79509727,-0.0185556,0.0207099,0.0159369,0.999898,-0.000469085,-0.000259643,0.0143061,1.0,0.0,0.0,0.0,0
79609724,-0.0240597,-0.0181784,-0.00814605,0.999896,-6.90916e-05,-0.000235206,0.0144245,1.0,0.0,0.0,0.0,0
79710775,0.0079972,-0.00377203,0.00439135,0.999897,2.95043e-05,-1.85892e-05,0.0143639,1.0,0.0,0.0,0.0,0
79814775,0.0337073,-0.000682681,0.0162008,0.999898,6.9229e-06,8.78527e-06,0.0142902,1.0,0.0,0.0,0.0,0
79914737,0.0195489,-0.0067213,0.0041994,0.9999,-0.000211482,8.89279e-05,0.0141698,1.0,0.0,0.0,0.0,0
80017743,0.0182905,-0.0147964,0.00208995,0.9999,-0.000148685,-4.24182e-05,0.0141256,1.0,0.0,0.0,0.0,0
80117876,0.033133,-0.0102572,0.000849838,0.999901,3.23703e-05,1.34769e-07,0.0140592,1.0,0.0,0.0,0.0,0
80218751,-0.0343078,0.0158598,0.00812432,0.999898,-1.71576e-06,0.000157998,0.0143171,1.0,0.0,0.0,0.0,0
80321736,-0.0155838,-0.00727946,-0.0105172,0.999897,0.000666867,-0.00016761,0.0143143,1.0,0.0,0.0,0.0,0
80422754,-0.0179765,0.018288,0.0158179,0.999895,0.0006274,-5.85809e-05,0.0144501,1.0,0.0,0.0,0.0,0
80522765,0.00985475,0.0123007,-0.0183142,0.999893,0.00027907,-7.96509e-05,0.0146009,1.0,0.0,0.0,0.0,0
80626754,0.0230043,0.0189913,0.0188563,0.999893,7.56798e-05,7.73877e-05,0.0146061,1.0,0.0,0.0,0.0,0
80726810,0.00246495,-0.0038437,-0.0132709,0.999895,-0.000244585,-0.00011289,0.0145119,1.0,0.0,0.0,0.0,0
80829880,-0.00128054,0.0057119,-0.00941588,0.999898,-0.000220821,-0.000204582,0.0142441,1.0,0.0,0.0,0.0,0
80928808,0.0141433,0.0171311,0.00150101,0.999901,-0.000239594,-1.05239e-05,0.0140943,1.0,0.0,0.0,0.0,0
81032752,0.0166945,0.0221691,-0.0144494,0.999903,-0.000251235,0.00018889,0.0139403,1.0,0.0,0.0,0.0,0
81133779,-0.0224966,-0.000322581,-0.0115312,0.999903,-0.000395003,-0.000248765,0.0139015,1.0,0.0,0.0,0.0,0
81234758,0.00190127,-0.0244063,-0.0121362,0.999905,-0.000165123,-0.000166602,0.0137912,1.0,0.0,0.0,0.0,0
81333738,0.013701,-0.0213695,-0.0092102,0.999903,8.15429e-06,5.95922e-06,0.0139391,1.0,0.0,0.0,0.0,0
81437807,0.0314106,0.0283152,-0.0243198,0.999902,0.000176445,4.29168e-05,0.0139876,1.0,0.0,0.0,0.0,0
81537741,0.00412163,0.000551418,0.0336181,0.999902,0.000192027,0.000166432,0.0139994,1.0,0.0,0.0,0.0,0
81641748,0.0089311,-0.0127785,-0.0119416,0.9999,8.97018e-05,-8.62251e-05,0.0141727,1.0,0.0,0.0,0.0,0
81741747,0.0414739,-0.0254793,-0.00905275,0.999897,0.000194758,-0.000561561,0.014313,1.0,0.0,0.0,0.0,0
81842858,0.0197677,0.00173873,-0.0114846,0.999899,0.000350466,-0.000471482,0.014179,1.0,0.0,0.0,0.0,0
81942728,-0.0104309,-0.00156879,0.00343684,0.9999,0.000200232,-0.000231417,0.0141288,1.0,0.0,0.0,0.0,0
82046780,-0.0223241,0.0187629,0.00865824,0.9999,0.000462605,2.66295e-05,0.0141738,1.0,0.0,0.0,0.0,0
82146724,-0.0433977,0.00851631,0.0217663,0.999895,0.000177051,0.00016645,0.014489,1.0,0.0,0.0,0.0,0
82250769,-0.0146391,0.0075232,0.000139306,0.999894,-0.000334781,-2.58502e-05,0.0145507,1.0,0.0,0.0,0.0,0
82349739,0.0383468,-0.0160942,-0.0277795,0.999895,-0.000167884,-0.000207558,0.0145268,1.0,0.0,0.0,0.0,0
82453736,0.0136527,0.0157535,-0.00636644,0.999897,-0.00044207,-8.41733e-05,0.0143641,1.0,0.0,0.0,0.0,0
82553819,0.00309913,0.0276261,-0.0170891,0.999899,-0.000690562,-0.000239118,0.0142028,1.0,0.0,0.0,0.0,0
82653935,-0.0136683,-0.00257982,0.00547335,0.999899,-1.065e-05,-0.000216915,0.0142392,1.0,0.0,0.0,0.0,0
82753747,-0.0132132,-0.0257119,-0.00185896,0.999899,8.09242e-05,-0.000352912,0.0142012,1.0,0.0,0.0,0.0,0
82857743,-0.000480374,-0.0295486,-0.00193046,0.999897,-0.000162421,0.000792163,0.0143647,1.0,0.0,0.0,0.0,0
82956935,-0.0182152,0.0150577,0.00204394,0.999896,-4.17354e-05,0.000785073,0.0143733,1.0,0.0,0.0,0.0,0
83060991,-0.00492368,0.0149816,-0.0164163,0.999897,0.000193834,0.00017132,0.014378,1.0,0.0,0.0,0.0,0
83162761,0.00172842,0.0194047,0.00858666,0.999898,-1.3012e-05,-1.75426e-05,0.0142757,1.0,0.0,0.0,0.0,0
83262854,0.0118901,0.000726643,0.0200683,0.999898,-0.000159631,-2.53768e-05,0.0142839,1.0,0.0,0.0,0.0,0
83366850,-0.00510296,0.0376951,0.00496512,0.999896,-0.0010254,0.00102481,0.0143524,1.0,0.0,0.0,0.0,0
83466737,1.17958,-0.364304,-0.00888353,0.999285,0.0340355,-0.00879965,0.0139324,1.0,0.0,0.0,0.0,0
83569739,0.658819,-0.257869,-0.046237,0.996937,0.0740942,-0.0217068,0.012493,1.0,0.0,0.0,0.0,0
83670748,0.2109,-0.106357,-0.044131,0.995475,0.0900893,-0.028408,0.0103552,1.0,0.0,0.0,0.0,0
83769736,-0.0826055,-0.0814773,-0.0298603,0.995116,0.0933834,-0.0308941,0.00836674,1.0,0.0,0.0,0.0,0
83873856,-0.128328,-0.0523233,-0.0233098,0.995313,0.0908505,-0.0325232,0.00643982,1.0,0.0,0.0,0.0,0
83974744,-0.0982566,-0.0171282,-0.0350385,0.99547,0.0886205,-0.0341237,0.00470582,1.0,0.0,0.0,0.0,0
84073897,-0.122394,-0.0194562,-0.02134,0.995726,0.0853822,-0.0350301,0.00347595,1.0,0.0,0.0,0.0,0
84178740,-0.0633533,-0.0497581,-0.0122778,0.99599,0.0818028,-0.0361325,0.00246555,1.0,0.0,0.0,0.0,0
84278899,0.000169103,-0.0396572,-0.00418408,0.996031,0.0809187,-0.0370202,0.00181984,1.0,0.0,0.0,0.0,0
84378736,-0.0297179,-0.00187293,-0.00728472,0.996052,0.0805076,-0.0373574,0.0017887,1.0,0.0,0.0,0.0,0
84482783,-0.0623861,-0.0176936,-0.00354769,0.996321,0.0772037,-0.0371574,0.00169198,1.0,0.0,0.0,0.0,0
84582724,-0.0313648,0.0635694,-0.00313283,0.996603,0.0738119,-0.0364926,0.00168296,1.0,0.0,0.0,0.0,0
84686782,-0.0838644,0.0762821,-0.0136019,0.996905,0.0702246,-0.0352871,0.00182728,1.0,0.0,0.0,0.0,0
84786738,-0.0974132,0.0436724,0.0073594,0.997167,0.0670541,-0.0340275,0.0018066,1.0,0.0,0.0,0.0,0
84886907,-0.155103,0.0517889,0.00729649,0.997444,0.063575,-0.0325576,0.00205816,1.0,0.0,0.0,0.0,0
84990741,-0.140127,0.0298853,-0.01536,0.997811,0.0581318,-0.031468,0.00201029,1.0,0.0,0.0,0.0,0
85088941,-0.205243,0.0811383,-0.00157242,0.998221,0.051519,-0.029968,0.00187172,1.0,0.0,0.0,0.0,0
85190844,-0.342323,0.194799,0.00211627,0.999066,0.0368737,-0.0224736,0.00166101,1.0,0.0,0.0,0.0,0
85294760,-0.264747,0.141227,0.00528162,0.999705,0.0204387,-0.0130804,0.00139512,1.0,0.0,0.0,0.0,0
85394915,-0.169358,0.0848796,-0.0018346,0.999929,0.00946225,-0.0071672,0.00106552,1.0,0.0,0.0,0.0,0
85496001,-0.0501154,0.0644371,-0.0083773,0.999985,0.00378102,-0.00405808,0.000632889,1.0,0.0,0.0,0.0,0
85597745,-0.0476658,0.0379417,-0.0016304,0.999996,0.00073384,-0.00273007,0.000458253,1.0,0.0,0.0,0.0,0
85698781,-0.0303171,-0.0326403,-0.00261466,0.999996,-0.00147982,-0.00230151,0.000285954,1.0,0.0,0.0,0.0,0
85801770,-0.0433271,-0.0200983,0.00425199,0.999992,-0.00371335,-0.00152479,1.12958e-05,1.0,0.0,0.0,0.0,0
85902870,-0.0353599,-0.00263658,0.0015531,0.999985,-0.00542933,-0.00117814,-0.000156211,1.0,0.0,0.0,0.0,0
86002818,0.00287028,0.020193,-0.0130384,0.999977,-0.00678406,-0.000436162,-0.000188535,1.0,0.0,0.0,0.0,0
86106748,0.00737443,0.0269057,0.0137679,0.999968,-0.00802344,-0.000191571,-0.000286825,1.0,0.0,0.0,0.0,0
86206743,-0.00893957,0.0112862,0.00126905,0.999958,-0.00915867,0.000138723,-0.000276917,1.0,0.0,0.0,0.0,0
86310747,-0.00340989,-0.0230683,0.00428567,0.999954,-0.00952817,0.00100564,-5.04015e-06,1.0,0.0,0.0,0.0,0
86409786,-0.00310909,0.00110427,-0.00273969,0.999951,-0.00985685,0.00108467,-5.81822e-06,1.0,0.0,0.0,0.0,0
86510959,0.000878388,0.0332724,-0.0142788,0.999942,-0.0106654,0.00129217,-0.00010825,1.0,0.0,0.0,0.0,0
86614741,0.00267165,-0.000853344,-0.00152934,0.999937,-0.0110821,0.00167559,-0.00012051,1.0,0.0,0.0,0.0,0
86714763,0.0193378,0.0268984,-0.00878775,0.99994,-0.0107824,0.00212185,-0.000265738,1.0,0.0,0.0,0.0,0
86814724,0.033546,-0.0124558,0.00564637,0.999946,-0.0100522,0.00264205,-0.000312002,1.0,0.0,0.0,0.0,0
86918767,-0.0053393,-0.0384286,-0.00642862,0.999955,-0.00897407,0.00313827,-0.000174726,1.0,0.0,0.0,0.0,0
87016938,0.0171306,0.0282054,0.0184301,0.999961,-0.00822018,0.00317811,-7.91597e-05,1.0,0.0,0.0,0.0,0
87120998,0.0275071,0.0125485,0.00705897,0.999969,-0.00745424,0.00262119,6.25966e-05,1.0,0.0,0.0,0.0,0
87222727,0.0312622,0.01347,0.0063615,0.999975,-0.00660824,0.00245896,0.000142677,1.0,0.0,0.0,0.0,0
87322787,-0.0104163,-0.0305286,-0.000713274,0.999977,-0.00649053,0.00188258,0.000178654,1.0,0.0,0.0,0.0,0
87426748,-0.00422972,0.0329847,0.00703556,0.999981,-0.00578577,0.00225099,-1.71974e-05,1.0,0.0,0.0,0.0,0
87526867,0.0502837,0.0469295,0.00609588,0.999985,-0.00504137,0.00229054,5.54775e-05,1.0,0.0,0.0,0.0,0
87626765,0.0114649,-0.0573783,-0.00214706,0.999986,-0.0048431,0.00194593,-0.000180671,1.0,0.0,0.0,0.0,0
87730745,-0.0301787,-0.0461157,0.00449383,0.999989,-0.004229,0.00203071,-0.00026412,1.0,0.0,0.0,0.0,0
87830791,-0.0202193,0.0494034,-0.00170308,0.999988,-0.00408033,0.00259282,-0.000438219,1.0,0.0,0.0,0.0,0
87934728,0.0104691,0.0118784,0.0166021,0.999992,-0.00335066,0.00218434,-0.000308522,1.0,0.0,0.0,0.0,0
88034820,0.0506334,-0.0447372,-0.000786826,0.999996,-0.00258645,0.00149538,-0.000129525,1.0,0.0,0.0,0.0,0
88137753,0.0382378,-0.0558392,-0.0138631,0.999998,-0.00162816,0.00093443,-0.000201068,1.0,0.0,0.0,0.0,0
88238780,-0.0227022,0.0327513,0.00451667,1.0,-0.000905701,0.000389633,-6.34129e-05,1.0,0.0,0.0,0.0,0
88338735,-0.0118626,-9.26411e-05,-0.00990959,1.0,-0.000109624,0.00027254,-0.000145272,1.0,0.0,0.0,0.0,0
88441945,0.00306822,-0.0473047,-0.00947659,1.0,0.00021813,4.02063e-05,-8.35131e-05,1.0,0.0,0.0,0.0,0
88542765,0.0796685,-0.00950443,-0.00881322,1.0,0.00090033,-0.00036932,-0.000151021,1.0,0.0,0.0,0.0,0
88642742,0.0488034,0.0724306,0.010395,0.999999,0.0012083,-0.000365184,-0.000219319,1.0,0.0,0.0,0.0,0
88746820,0.0368155,0.0503461,0.00743439,0.999998,0.00186219,-0.00101843,-8.5087e-05,1.0,0.0,0.0,0.0,0
88846854,-0.00502113,0.0169144,0.0214991,0.999995,0.0026489,-0.00148458,0.000105509,1.0,0.0,0.0,0.0,0
88946823,-0.0570229,-0.0212835,0.00321477,0.999991,0.00374196,-0.00205156,7.70872e-05,1.0,0.0,0.0,0.0,0
89050911,-0.013037,-0.0483841,-0.00720753,0.999988,0.00452892,-0.00197367,-8.10822e-05,1.0,0.0,0.0,0.0,0
89149134,-0.00122078,-0.0480211,-0.00229704,0.999989,0.00445341,-0.00163373,-1.92721e-05,1.0,0.0,0.0,0.0,0
89252930,0.000589632,-0.0463593,-0.00111341,0.999987,0.00474302,-0.00172515,-3.96116e-05,1.0,0.0,0.0,0.0,0
89354786,-0.0313795,0.055703,0.026491,0.999984,0.00458965,-0.00318955,-8.36964e-05,1.0,0.0,0.0,0.0,0
89454750,-0.00933898,0.058175,0.0170083,0.999983,0.00451391,-0.00360394,-0.000187656,1.0,0.0,0.0,0.0,0
89558785,-0.000474619,-0.0125518,-0.0171698,0.999982,0.00464552,-0.00390426,-0.00017302,1.0,0.0,0.0,0.0,0
89658733,0.0312438,-0.0715012,-0.0115212,0.999983,0.00416952,-0.00418716,-0.000126276,1.0,0.0,0.0,0.0,0
89758790,-0.00962053,-0.0386297,0.00554819,0.999975,0.00446013,-0.0054167,-8.30318e-05,1.0,0.0,0.0,0.0,0
89862738,-0.0110536,0.0223909,-0.0042134,0.999978,0.00421432,-0.00515814,-5.74423e-05,1.0,0.0,0.0,0.0,0
89962756,-0.0332067,0.0304953,-0.00501356,0.999982,0.00381657,-0.00467552,-0.000128164,1.0,0.0,0.0,0.0,0
90062777,-0.0174087,-0.0212729,0.0144475,0.999983,0.00367662,-0.00454104,1.09944e-05,1.0,0.0,0.0,0.0,0
90166748,-0.0109218,-0.00973193,-0.0073906,0.999985,0.00321136,-0.00434706,4.0196e-05,1.0,0.0,0.0,0.0,0
90266765,-0.0292817,0.0197601,-0.0152476,0.999987,0.00301798,-0.0040638,-0.000139411,1.0,0.0,0.0,0.0,0
90369734,0.00804771,-0.0214408,0.00606981,0.99999,0.00260441,-0.00362638,-0.000170575,1.0,0.0,0.0,0.0,0
90470789,-0.00478049,0.00264314,-0.00103019,0.99999,0.00256772,-0.00363814,-0.000325002,1.0,0.0,0.0,0.0,0
90574061,-0.0299177,0.0225784,-0.00188463,0.99999,0.00269631,-0.00359379,-0.000449498,1.0,0.0,0.0,0.0,0
90674792,0.00462925,-0.00427386,0.0121601,0.999993,0.0016841,-0.00344405,-0.000441646,1.0,0.0,0.0,0.0,0
90774747,0.0456555,-0.00677434,0.00116675,0.999993,0.00115318,-0.00345688,-0.000470592,1.0,0.0,0.0,0.0,0
90874744,0.0090672,0.0146528,-0.0117024,0.999992,0.0019149,-0.00343935,-0.000544707,1.0,0.0,0.0,0.0,0
90979740,-0.0231993,0.00521826,-3.26611e-05,0.999991,0.00236049,-0.00344887,-0.000575375,1.0,0.0,0.0,0.0,0
91078741,-0.0651197,0.0132897,0.00408217,0.999991,0.00284781,-0.00305009,-0.000544887,1.0,0.0,0.0,0.0,0
91182745,-0.00887576,0.00173823,-0.0026551,0.999993,0.00234646,-0.00294147,-0.000482495,1.0,0.0,0.0,0.0,0
91282726,0.035687,-0.0155888,-0.0182607,0.999995,0.00148727,-0.00287539,-0.000525677,1.0,0.0,0.0,0.0,0
91381309,-0.0220254,0.00177466,-0.0106409,0.999998,0.000283224,-0.00200299,-0.000654959,1.0,0.0,0.0,0.0,0
91485018,-0.0179835,0.00224797,-0.00998132,0.999999,-0.000425607,-0.00136778,-0.000625403,1.0,0.0,0.0,0.0,0
91588975,-0.0114976,0.0207511,0.00577221,0.999999,-0.000350674,-0.00117594,-0.000627227,1.0,0.0,0.0,0.0,0
91686746,0.03049,-0.00666159,0.011966,0.999999,9.87854e-05,-0.00124727,-0.000618855,1.0,0.0,0.0,0.0,0
91790790,0.0189226,-0.0334604,0.00169301,0.999999,-0.000201557,-0.000833741,-0.00050499,1.0,0.0,0.0,0.0,0
91890769,-0.027393,0.0297317,-0.0179986,1.0,-0.000703974,-6.7052e-05,-0.000450137,1.0,0.0,0.0,0.0,0
91994785,-0.0221586,0.0281257,0.00450113,1.0,-0.00071746,0.000471797,-0.000398272,1.0,0.0,0.0,0.0,0
92094749,-0.0011642,-0.00934293,-0.014271,0.999999,-0.00103313,0.000483719,-0.000310797,1.0,0.0,0.0,0.0,0
92194795,0.0153636,-0.0206168,0.00964393,0.999999,-0.00109698,0.000655436,-4.57625e-05,1.0,0.0,0.0,0.0,0
92298743,-0.0336785,-0.00749181,-0.00180607,0.999998,-0.00144935,0.00121532,7.98856e-05,1.0,0.0,0.0,0.0,0
92398745,-0.0310288,-0.00990241,0.00339679,0.999998,-0.00152297,0.00127137,-5.10697e-05,1.0,0.0,0.0,0.0,0
92498774,-0.0415056,-0.0113209,0.00105004,0.999998,-0.0014927,0.00127608,3.01057e-05,1.0,0.0,0.0,0.0,0
92602754,0.0168478,-0.0101776,-0.000508813,0.999998,-0.00149604,0.00101596,-0.000127649,1.0,0.0,0.0,0.0,0
92702783,-0.0111619,-0.00840317,0.00218525,0.999998,-0.00153392,0.000923823,-0.000176624,1.0,0.0,0.0,0.0,0
92806756,0.00357879,-0.005354,0.00142409,0.999998,-0.00150597,0.00110614,-0.00011224,1.0,0.0,0.0,0.0,0
92906762,0.00450555,-0.00509334,0.00572444,0.999998,-0.0017196,0.00101468,-0.000226699,1.0,0.0,0.0,0.0,0
93006794,-0.0158628,0.0131718,0.00484758,0.999998,-0.00166617,0.00109155,-0.000201561,1.0,0.0,0.0,0.0,0
93110781,-0.00232435,0.0043266,0.0122487,0.999999,-0.00131669,0.00112696,-0.000181805,1.0,0.0,0.0,0.0,0
93210761,0.010043,0.013655,-0.00610239,0.999999,-0.00101693,0.000702132,-0.000118844,1.0,0.0,0.0,0.0,0
93310738,-0.0378218,0.00368412,0.00465664,1.0,-0.000768496,0.000338614,-9.61961e-05,1.0,0.0,0.0,0.0,0
93414754,-0.023475,-0.0023468,0.0123555,0.999999,-0.00129194,0.000608556,-0.000173218,1.0,0.0,0.0,0.0,0
93514734,-0.00378691,-0.0257857,-0.0120122,0.999999,-0.0012014,0.000688512,-0.000196977,1.0,0.0,0.0,0.0,0
93618736,0.0110207,-0.00796893,-0.00713585,0.999999,-0.00101672,0.000561408,-0.000189422,1.0,0.0,0.0,0.0,0
93717023,0.0167803,0.00710164,0.0112251,0.999999,-0.000957018,0.000701626,-0.000280673,1.0,0.0,0.0,0.0,0
93821041,0.000925053,0.00876203,-0.00512912,1.0,-0.000606853,0.000756097,-0.000271513,1.0,0.0,0.0,0.0,0
93922739,0.0220632,0.0281109,-0.00916933,1.0,-0.000518543,0.000554597,-0.000212723,1.0,0.0,0.0,0.0,0
94022787,-0.0164474,-0.027758,-0.00381937,1.0,-0.000692539,-0.000277243,-0.000241395,1.0,0.0,0.0,0.0,0
94122742,0.0137701,-0.0230359,-0.000554267,0.999999,-0.000811536,-0.000513007,-0.000244205,1.0,0.0,0.0,0.0,0
94226823,0.0197489,0.0167265,-0.0048652,1.0,-0.000505216,-0.000351999,-0.000269853,1.0,0.0,0.0,0.0,0
94326795,-0.0161984,-0.0133209,-0.0181851,1.0,-0.000889681,-3.38292e-05,-0.000249972,1.0,0.0,0.0,0.0,0
94430774,-0.0258135,-0.00546238,-0.00699224,1.0,-0.000688527,-0.000303238,-0.000154997,1.0,0.0,0.0,0.0,0
94530741,-0.0729477,0.0397975,0.00991419,1.0,-0.000516693,5.28544e-05,-0.000364312,1.0,0.0,0.0,0.0,0
94630787,-0.000781686,0.0903584,-0.00348371,1.0,-0.000226777,-7.29616e-05,-0.000279054,1.0,0.0,0.0,0.0,0
94734752,0.0242264,0.0517839,-0.0043608,1.0,0.000279706,-0.000390921,-0.000479923,1.0,0.0,0.0,0.0,0
94834743,0.00358673,-0.00735644,-0.0178859,1.0,0.000417253,-0.000324685,-0.000385002,1.0,0.0,0.0,0.0,0
94934764,-0.0138852,-0.0404231,-0.00317357,1.0,0.000392698,0.000742746,-0.000284581,1.0,0.0,0.0,0.0,0
95038750,0.0322274,-0.0101857,0.012802,0.999999,0.000735589,0.00115847,-8.00366e-05,1.0,0.0,0.0,0.0,0
95138762,-0.00324685,0.0326559,-0.00233315,1.0,0.000544841,0.000146809,-8.75214e-06,1.0,0.0,0.0,0.0,0
95242751,-0.00395064,0.00999428,-0.019745,1.0,0.000484304,-0.000188437,-1.45527e-05,1.0,0.0,0.0,0.0,0
95342776,0.00832063,-0.0630253,0.00292979,0.999999,0.00104277,0.00122487,-0.000194066,1.0,0.0,0.0,0.0,0
95442895,0.00804276,-0.0507066,-0.0111739,0.999998,0.00145777,0.00106486,-0.000292748,1.0,0.0,0.0,0.0,0
95546771,0.022968,-0.0223717,0.0166345,0.999999,0.00157031,-0.000171404,-0.000355326,1.0,0.0,0.0,0.0,0
95646786,-0.0126545,0.0218583,0.0104365,0.999998,0.00125609,-0.00168904,-0.000185439,1.0,0.0,0.0,0.0,0
95744988,-0.0110025,0.0381832,-0.0092355,0.999996,0.00141473,-0.00256292,-0.000214376,1.0,0.0,0.0,0.0,0
95849305,-0.0289444,0.0153802,0.00820872,0.999996,0.0017307,-0.00230097,-0.000174713,1.0,0.0,0.0,0.0,0
95952809,0.00172385,0.00227732,-0.0162703,0.999997,0.00176027,-0.00149594,-3.80105e-05,1.0,0.0,0.0,0.0,0
96054739,9.48034e-05,-0.0207558,0.0159054,0.999997,0.00204249,-0.000928213,3.03954e-05,1.0,0.0,0.0,0.0,0
96154793,0.00574438,0.0044497,0.00474398,0.999998,0.0016935,-0.000972901,-7.09334e-05,1.0,0.0,0.0,0.0,0
96254826,0.00316923,0.00932726,0.00557501,0.999998,0.0015408,-0.00104266,5.08692e-05,1.0,0.0,0.0,0.0,0
96358758,-0.0228826,-0.00233021,0.0236532,0.999998,0.00159852,-0.000824672,8.71955e-05,1.0,0.0,0.0,0.0,0
96458786,0.0156156,-0.0104018,0.00704099,1.0,0.000995924,-0.000390811,0.000242857,1.0,0.0,0.0,0.0,0
96558757,-0.0110795,0.0199808,-0.0242134,0.999999,0.00114201,0.000235439,0.000225324,1.0,0.0,0.0,0.0,0
96662770,-0.0370713,0.0525683,-0.0147766,1.0,0.000775175,0.00054579,-4.48872e-05,1.0,0.0,0.0,0.0,0
96762806,-0.0105845,0.0036161,-0.0104807,1.0,0.000793946,-8.22496e-05,-0.000101322,1.0,0.0,0.0,0.0,0
96866811,-0.0251653,0.00213484,-0.0170137,1.0,0.000525667,-0.000642971,-0.000263751,1.0,0.0,0.0,0.0,0
96966770,-0.00334348,-0.00432843,-0.00103976,0.999999,0.000705165,-0.000671997,-0.000424572,1.0,0.0,0.0,0.0,0
97066790,0.00267657,0.0151455,-0.0111155,0.999999,0.00114291,-0.000359246,-0.000545101,1.0,0.0,0.0,0.0,0
97170742,0.00471524,0.0455286,0.00281901,0.999999,0.00133799,-0.000308767,-0.000435101,1.0,0.0,0.0,0.0,0
97270738,0.0110208,-0.0181315,-0.00315313,0.999999,0.00140246,-0.000311422,-0.000276425,1.0,0.0,0.0,0.0,0
97370832,-0.00985431,-0.0646572,0.0138202,0.999999,0.00100541,-0.000425633,2.94955e-05,1.0,0.0,0.0,0.0,0
97474756,-0.0251109,-0.0675895,0.00178211,0.999999,0.000681275,-0.00126331,0.000100265,1.0,0.0,0.0,0.0,0
97574935,-0.07409,-0.0634171,-0.0260843,0.999999,0.000918314,-0.000740542,0.000124815,1.0,0.0,0.0,0.0,0
97678855,-0.0695013,-0.0681343,0.00472855,0.999999,0.00150941,-0.000374054,0.00011449,1.0,0.0,0.0,0.0,0
97778771,-0.0140414,-0.0143975,-0.00556214,0.999999,0.00104365,-0.000779914,-1.79662e-05,1.0,0.0,0.0,0.0,0
97876978,0.00302295,-0.00775025,-0.0200348,0.999999,0.00048135,-0.00124108,-0.000248124,1.0,0.0,0.0,0.0,0
97981314,0.0278889,0.0223291,0.0099809,0.999999,0.000424746,-0.00155857,-0.000308238,1.0,0.0,0.0,0.0,0
98085076,0.0364647,0.0497415,0.00185455,0.999999,0.000653084,-0.00154284,-0.000166045,1.0,0.0,0.0,0.0,0
98182779,-0.0393591,-0.0225274,-0.00436863,0.999999,0.000244463,-0.00172681,-0.000230394,1.0,0.0,0.0,0.0,0
98284894,-0.0132271,-0.0149996,0.00190665,0.999999,0.000478577,-0.00135473,-0.000197088,1.0,0.0,0.0,0.0,0
98386817,0.000861743,-0.00568271,-0.0135701,0.999998,-1.87015e-05,-0.00184297,-0.000213778,1.0,0.0,0.0,0.0,0
98490747,0.00626367,0.00183432,-0.00356272,0.999998,5.60693e-05,-0.00188531,-0.000195626,1.0,0.0,0.0,0.0,0
98590742,0.0156848,0.0342388,0.0104346,0.999999,0.000487685,-0.00160574,-8.61571e-05,1.0,0.0,0.0,0.0,0
98690903,0.0256321,0.00314474,-0.00703428,0.999999,0.000632134,-0.00156587,-5.63956e-05,1.0,0.0,0.0,0.0,0
98794749,0.031691,-0.0145551,0.00345362,0.999998,0.000610393,-0.00182943,-0.000115316,1.0,0.0,0.0,0.0,0
98894826,0.0236453,-0.0316671,0.00700495,0.999998,0.000779113,-0.00201798,-0.000139125,1.0,0.0,0.0,0.0,0
98994783,0.00913352,-0.0465893,0.0116638,0.999998,0.000586911,-0.00198515,-0.000201037,1.0,0.0,0.0,0.0,0
99098783,-0.0339122,-0.0420985,0.0104061,0.999998,0.000150512,-0.00213523,-0.000199217,1.0,0.0,0.0,0.0,0
99198770,-0.0040961,0.0138307,0.00668252,0.999997,0.000359195,-0.00241955,-0.000196973,1.0,0.0,0.0,0.0,0
99302775,0.00569251,0.0101326,-0.00561727,0.999997,0.000733757,-0.00248605,-0.000114777,1.0,0.0,0.0,0.0,0
99402749,0.0384351,0.0284776,0.00238647,0.999997,0.000360344,-0.00254092,-2.22845e-06,1.0,0.0,0.0,0.0,0
99502825,-0.0135955,-0.009697,0.0179855,0.999997,0.000479152,-0.00250351,-7.65506e-05,1.0,0.0,0.0,0.0,0
99606875,-0.0392702,-0.00381914,-0.0119457,0.999998,0.00100027,-0.00193405,-0.000389145,1.0,0.0,0.0,0.0,0
99706754,-0.0324014,-0.0488636,-0.00295668,0.999998,0.000951733,-0.00185802,-0.0003866,1.0,0.0,0.0,0.0,0
99806764,-0.027561,0.0193953,0.00591301,0.999998,0.000710275,-0.00172652,-0.000203151,1.0,0.0,0.0,0.0,0
99910750,0.0221033,0.0362471,-0.00191885,0.999997,0.000848557,-0.00246168,-0.000192561,1.0,0.0,0.0,0.0,0
100009007,-0.00938645,0.0092592,0.00123047,0.999996,0.000488008,-0.00269187,-0.000313604,1.0,0.0,0.0,0.0,0
100113596,-0.00726885,0.00891854,-0.00905146,0.999997,0.000562372,-0.00237318,-0.00041996,1.0,0.0,0.0,0.0,0
100214858,0.00530657,0.00800017,0.00378904,0.999997,0.000637258,-0.00233016,-0.00037981,1.0,0.0,0.0,0.0,0
100315823,-0.0386362,-0.00946806,0.0100169,0.999997,0.000920625,-0.00236984,-0.000344965,1.0,0.0,0.0,0.0,0
100418775,-0.0108921,0.00794464,0.00579091,0.999996,0.00148589,-0.0023266,-0.000299425,1.0,0.0,0.0,0.0,0
100518769,0.0192478,0.0232079,0.00510463,0.999996,0.00137931,-0.00221325,-0.000522111,1.0,0.0,0.0,0.0,0
100618740,0.0306597,0.0148567,-0.0045713,0.999996,0.00150546,-0.00218239,-0.000360358,1.0,0.0,0.0,0.0,0
100722748,0.0352582,0.0038901,0.0124616,0.999996,0.00177324,-0.00212026,-0.000198527,1.0,0.0,0.0,0.0,0
100822858,0.010999,-0.00698551,0.0144809,0.999997,0.00168571,-0.00201561,6.82648e-05,1.0,0.0,0.0,0.0,0
100926746,0.025286,0.0117191,0.00538067,0.999997,0.00130363,-0.00191092,0.000213115,1.0,0.0,0.0,0.0,0
101026747,0.0158477,-0.0126126,0.00985249,0.999997,0.00116335,-0.00197144,0.00013833,1.0,0.0,0.0,0.0,0
101126825,-0.00213786,0.041514,-0.00492411,0.999998,0.00102608,-0.00168294,0.00010584,1.0,0.0,0.0,0.0,0
101230738,-0.0167391,-0.012967,-0.00089142,0.999997,0.00138918,-0.00195608,4.9484e-05,1.0,0.0,0.0,0.0,0
101330912,-0.00353794,0.000347718,0.00724581,0.999997,0.00128955,-0.00191338,2.39583e-05,1.0,0.0,0.0,0.0,0
101430748,-0.00334277,-0.0107775,0.0103992,0.999998,0.00116527,-0.00187387,0.000124882,1.0,0.0,0.0,0.0,0
101534792,-0.0116778,-0.00975482,0.0069471,0.999997,0.00141542,-0.00185816,0.000143304,1.0,0.0,0.0,0.0,0
101634727,0.000190139,-0.0147418,-0.000552651,0.999997,0.00129584,-0.00202157,-5.03007e-05,1.0,0.0,0.0,0.0,0
101738919,-0.0175782,0.0617568,0.0112541,0.999998,0.00112264,-0.00175867,8.62345e-05,1.0,0.0,0.0,0.0,0
101838725,-0.0244934,0.0214212,-0.0071788,0.999998,0.00110471,-0.00188918,4.87636e-06,1.0,0.0,0.0,0.0,0
101938787,-0.0173826,-0.00295809,-0.00871578,0.999996,0.00137972,-0.00233593,-1.69516e-05,1.0,0.0,0.0,0.0,0
102042745,-0.00879996,0.00620478,-0.00022655,0.999997,0.00129758,-0.00218944,-0.000122873,1.0,0.0,0.0,0.0,0
102141164,0.0151116,0.00342527,-0.000149127,0.999997,0.0014186,-0.00217279,-0.00021861,1.0,0.0,0.0,0.0,0
102245278,0.0296366,-0.0215211,-0.0101134,0.999997,0.0013658,-0.00222312,-0.000162868,1.0,0.0,0.0,0.0,0
102346892,0.0131057,-0.0143968,0.00673088,0.999997,0.00147233,-0.00182497,-0.000208541,1.0,0.0,0.0,0.0,0
102446901,-0.00667673,0.00810324,-0.0238031,0.999998,0.00168482,-0.00143683,-0.000177468,1.0,0.0,0.0,0.0,0
102550806,-0.00571606,0.0092773,-0.01634,0.999997,0.00182167,-0.00158923,-0.000197636,1.0,0.0,0.0,0.0,0
102650778,0.0372695,0.00878384,0.00444606,0.999997,0.00188953,-0.00164931,-0.000296353,1.0,0.0,0.0,0.0,0
102750796,0.0203149,0.00625251,0.0170705,0.999998,0.00145919,-0.00139965,-0.000248172,1.0,0.0,0.0,0.0,0
102854764,-0.0324105,-0.0170101,0.00115445,0.999999,0.00078403,-0.00124007,-0.00017047,1.0,0.0,0.0,0.0,0
102954797,-0.0515213,5.19614e-05,-0.00202521,0.999998,0.00131127,-0.00152226,-0.000135814,1.0,0.0,0.0,0.0,0
103054822,-0.0489222,-0.0184646,-0.00888741,0.999998,0.000949629,-0.0016152,-0.000202611,1.0,0.0,0.0,0.0,0
103158762,0.0276407,-0.00835077,-0.00809597,0.999999,0.00073234,-0.00110848,-0.000306269,1.0,0.0,0.0,0.0,0
103259769,0.00208436,0.00653169,0.0143053,0.999999,0.00055349,-0.000958872,-0.000237811,1.0,0.0,0.0,0.0,0
103362815,0.0565252,0.000618215,-0.000155659,0.999999,0.000649089,-0.00107957,-0.000104838,1.0,0.0,0.0,0.0,0
103462737,0.054426,0.0219686,-0.00771783,0.999998,0.00125884,-0.00149962,-0.000158766,1.0,0.0,0.0,0.0,0
103562882,0.00685771,0.00621801,-0.008533,0.999998,0.0012627,-0.00144221,-0.000120543,1.0,0.0,0.0,0.0,0
103666754,-0.0412555,-0.0568828,0.0179213,0.999999,0.00097062,-0.00130369,9.9876e-05,1.0,0.0,0.0,0.0,0
103766771,0.00698203,0.0206586,-0.000398974,0.999999,0.000853664,-0.00132714,0.000137494,1.0,0.0,0.0,0.0,0
103866739,0.0337835,0.043288,-0.00751212,0.999998,0.00110306,-0.00140425,0.000102348,1.0,0.0,0.0,0.0,0
103970771,0.037799,0.0364996,-0.000302112,0.999999,0.00145269,-0.000952247,0.000159028,1.0,0.0,0.0,0.0,0
104070776,0.023889,0.0143653,0.0173505,0.999999,0.000924469,-0.000576321,-0.000108662,1.0,0.0,0.0,0.0,0
104174767,-0.00935034,-0.00892403,-0.00300593,0.999999,0.000836831,-0.000598768,1.24501e-05,1.0,0.0,0.0,0.0,0
104273019,-0.000373036,0.00252054,-0.0133316,0.999998,0.00199795,-0.000571565,5.38525e-06,1.0,0.0,0.0,0.0,0
104374800,-0.0254547,0.015254,-0.0175302,0.999998,0.00217437,-0.000569266,-7.06637e-05,1.0,0.0,0.0,0.0,0
104478853,0.000636534,0.0222106,-0.00706939,0.999999,0.00139591,-0.000604889,-9.62575e-05,1.0,0.0,0.0,0.0,0
104578736,0.00821878,-0.00193471,-0.00127211,0.999999,0.00119188,-0.000508961,-0.000173937,1.0,0.0,0.0,0.0,0
104678778,-0.046624,0.0101597,-0.002357,0.999999,0.000907132,-0.000409518,-0.000412462,1.0,0.0,0.0,0.0,0
104782746,-0.0261582,-0.00214344,0.0126455,0.999999,0.000979169,-0.000515249,-0.000277212,1.0,0.0,0.0,0.0,0
104882786,-0.0102192,0.00651685,0.00397375,0.999999,0.00157207,-0.00075203,-0.000252161,1.0,0.0,0.0,0.0,0
104986826,0.0298614,0.0124572,0.00234915,0.999999,0.00145441,-0.000586347,-0.0001113,1.0,0.0,0.0,0.0,0
105086927,-0.0167913,0.00631369,0.0118085,0.999999,0.000807558,-0.000694406,-8.21642e-05,1.0,0.0,0.0,0.0,0
105186793,-0.0301323,0.0059149,0.00731625,0.999999,0.000796996,-0.000696191,-9.2054e-05,1.0,0.0,0.0,0.0,0
105290771,-0.0412072,-0.00024019,0.0117314,0.999999,0.000918065,-0.000811935,-0.000126503,1.0,0.0,0.0,0.0,0
105390784,0.0203713,0.011791,-0.00475015,0.999999,0.00147276,-0.000600517,-0.000239147,1.0,0.0,0.0,0.0,0
105490769,0.0263948,0.00869751,0.00893003,0.999999,0.00135151,-0.000484101,-0.000255301,1.0,0.0,0.0,0.0,0
105594764,0.00484865,0.0174286,0.00680525,0.999999,0.00131446,-0.000641899,-0.000379298,1.0,0.0,0.0,0.0,0
105694749,0.00742327,-0.0132586,-0.00475648,0.999999,0.00131249,-0.000775358,-0.000336809,1.0,0.0,0.0,0.0,0
105794774,-0.036397,-0.0196014,-0.0180814,0.999998,0.00140066,-0.00119524,-0.000306902,1.0,0.0,0.0,0.0,0
105898732,-0.017213,-0.0397896,0.0154539,0.999998,0.00156728,-0.000886915,-0.000303705,1.0,0.0,0.0,0.0,0
105998825,-0.00358963,-0.033315,0.0169709,0.999998,0.00194432,6.66131e-05,-0.00020658,1.0,0.0,0.0,0.0,0
106099829,0.0313184,-0.0411917,-0.000362548,0.999999,0.00143023,-0.000203782,3.91048e-05,1.0,0.0,0.0,0.0,0
106202797,0.00787908,-0.0336409,-0.0187552,0.999999,0.00100936,-0.000539329,0.000116698,1.0,0.0,0.0,0.0,0
106305318,-0.0428476,0.0277829,0.00892722,1.0,0.000556712,-0.000843587,4.82456e-05,1.0,0.0,0.0,0.0,0
106406846,-0.0126652,-0.0349557,0.0023362,0.999998,0.00122719,-0.00171513,4.60046e-05,1.0,0.0,0.0,0.0,0
106506742,0.0293263,-0.0182446,-0.0133105,0.999998,0.0015621,-0.00142397,-7.63143e-05,1.0,0.0,0.0,0.0,0
106610780,0.0472655,-0.00256884,0.00493457,0.999998,0.00133407,-0.00166035,0.00017725,1.0,0.0,0.0,0.0,0
106710744,-0.000814541,0.0351083,0.0092685,0.999998,0.00120563,-0.00133413,2.89789e-05,1.0,0.0,0.0,0.0,0
106810792,-0.0373712,0.00191603,-0.00395848,0.999998,0.00148557,-0.00118103,0.000126082,1.0,0.0,0.0,0.0,0
106914739,-0.00310268,0.012689,0.00506061,0.999998,0.00152917,-0.000903446,3.47557e-05,1.0,0.0,0.0,0.0,0
107014736,0.0244439,0.00559856,-0.00240352,0.999999,0.0014043,-0.000892513,-0.000103627,1.0,0.0,0.0,0.0,0
107114859,0.028599,0.0124887,-0.00958404,0.999998,0.00136851,-0.00114988,-0.000161916,1.0,0.0,0.0,0.0,0
107218749,-0.00477791,-0.0213637,-0.00398663,0.999998,0.00121925,-0.00138697,-0.000271701,1.0,0.0,0.0,0.0,0
107318810,-0.013341,-0.0305608,-0.0293961,0.999998,0.00117587,-0.00131558,-0.000348315,1.0,0.0,0.0,0.0,0
107422738,-0.0202294,-0.00713439,0.00192023,0.999999,0.00124826,-0.00106163,-0.000414994,1.0,0.0,0.0,0.0,0
107522770,0.0142345,0.0177452,-0.000156468,0.999999,0.000876649,-0.0013036,-0.00026455,1.0,0.0,0.0,0.0,0
107622796,-0.00487317,0.0335952,-0.0166044,0.999999,0.000980945,-0.00103067,-0.000264665,1.0,0.0,0.0,0.0,0
107726782,-0.00369142,-0.001895,0.0133033,0.999999,0.00108106,-0.00096476,-0.000172979,1.0,0.0,0.0,0.0,0
107826780,-0.0146414,-0.023082,-0.000407239,0.999999,0.00124583,-0.000949929,-2.21179e-06,1.0,0.0,0.0,0.0,0
107926728,-0.00894061,-0.0036284,-0.00247582,0.999999,0.00115033,-0.00109974,0.000118239,1.0,0.0,0.0,0.0,0
108030753,0.0142942,-0.00437306,0.00484174,0.999998,0.00156616,-0.00132054,0.000133121,1.0,0.0,0.0,0.0,0
108130736,0.0140549,-0.00848933,0.00560225,0.999997,0.00171085,-0.00160008,-6.2034e-06,1.0,0.0,0.0,0.0,0
108234769,0.0439228,0.00895606,-0.0111923,0.999997,0.00170914,-0.00157505,-6.07998e-05,1.0,0.0,0.0,0.0,0
108333319,-0.0106418,0.0121928,0.000468912,0.999997,0.00163041,-0.00161547,-4.70832e-05,1.0,0.0,0.0,0.0,0
108437181,0.0131881,-0.0058835,-0.00485681,0.999996,0.00194624,-0.00181308,-3.15433e-05,1.0,0.0,0.0,0.0,0
108538726,-0.0235424,-0.00140574,0.0041792,0.999996,0.00194912,-0.00183889,-1.78583e-05,1.0,0.0,0.0,0.0,0
108638761,0.0120484,-0.00461958,-0.027174,0.999996,0.00206363,-0.00173326,7.25215e-05,1.0,0.0,0.0,0.0,0
108738814,-0.0167783,-0.00317579,-0.00497811,0.999996,0.00202999,-0.00199153,-0.000136993,1.0,0.0,0.0,0.0,0
108842967,-0.0078634,-0.0030892,0.00137067,0.999995,0.00219482,-0.00234862,-6.61457e-05,1.0,0.0,0.0,0.0,0
108942762,-0.00334874,-0.0145626,0.0177988,0.999994,0.00247629,-0.00229361,-8.04263e-05,1.0,0.0,0.0,0.0,0
109046785,-0.00558086,-0.0105274,0.00881143,0.999995,0.0024542,-0.00223527,-0.000393173,1.0,0.0,0.0,0.0,0
109146817,0.00612253,0.0110474,0.00523814,0.999995,0.00232121,-0.00225605,-0.000318579,1.0,0.0,0.0,0.0,0
109246865,-0.00419215,0.0188607,0.00510362,0.999995,0.00239768,-0.002134,-0.000378999,1.0,0.0,0.0,0.0,0
109350739,0.00609184,0.0562977,-0.00113431,0.999995,0.00243253,-0.00194053,-0.000347357,1.0,0.0,0.0,0.0,0
109450789,0.0124577,-0.0259967,-0.00446778,0.999996,0.00245728,-0.00150716,-7.96525e-05,1.0,0.0,0.0,0.0,0
109550772,0.0139713,-0.00449205,0.00463679,0.999997,0.00225198,-0.0011951,-0.000118603,1.0,0.0,0.0,0.0,0
109654892,-0.0227991,-0.00334214,-0.00611693,0.999997,0.00239095,-0.00113122,-0.000100473,1.0,0.0,0.0,0.0,0
109754761,-0.00753684,0.0213924,-0.0121861,0.999996,0.00255751,-0.00124638,-9.57303e-05,1.0,0.0,0.0,0.0,0
109858738,-0.0118057,-0.00714441,-0.00349842,0.999997,0.00220729,-0.00135139,-0.000111979,1.0,0.0,0.0,0.0,0
109958770,0.00331387,0.0049291,0.0165404,0.999997,0.00201258,-0.00127862,3.37292e-05,1.0,0.0,0.0,0.0,0
110058828,0.0184782,0.024872,-0.00534839,0.999998,0.00182945,-0.00125398,-0.000181006,1.0,0.0,0.0,0.0,0
110163115,0.00508651,0.00290834,-0.0137618,0.999997,0.00186235,-0.0013856,-0.000237171,1.0,0.0,0.0,0.0,0
110262849,0.0171956,-0.00252942,0.00396335,0.999997,0.00157828,-0.00161788,-0.000185606,1.0,0.0,0.0,0.0,0
110361385,-0.0111872,-0.00695406,-0.0127239,0.999998,0.00187474,-0.00108568,-7.04854e-05,1.0,0.0,0.0,0.0,0
110465049,-0.0405554,-0.00608735,-0.00463775,0.999997,0.00198481,-0.00114738,-0.000155388,1.0,0.0,0.0,0.0,0
110569325,-0.00700005,-0.0185233,-0.00918802,0.999997,0.00202226,-0.00141225,-0.00025414,1.0,0.0,0.0,0.0,0
110670739,0.0160866,-0.00103904,0.0131215,0.999998,0.0013052,-0.00162215,-0.000212267,1.0,0.0,0.0,0.0,0
110770746,0.000166206,0.00667884,0.0110259,0.999998,0.00111246,-0.00175975,-0.00018974,1.0,0.0,0.0,0.0,0
110870842,-0.0212506,-0.00127037,0.0111317,0.999998,0.00100233,-0.00161877,-0.00031163,1.0,0.0,0.0,0.0,0
110974746,-0.0160987,-0.00967064,-0.0049949,0.999999,0.00108984,-0.00133571,-0.000376985,1.0,0.0,0.0,0.0,0
111074799,-0.0294288,-0.0107168,-0.00932129,0.999998,0.00150818,-0.00129598,-0.000509749,1.0,0.0,0.0,0.0,0
111174745,-0.0119407,0.00761164,-0.00555737,0.999997,0.00170676,-0.0015043,-0.000573477,1.0,0.0,0.0,0.0,0
111278773,-0.00161831,0.0749271,0.0143011,0.999997,0.00181582,-0.00140738,-0.000464613,1.0,0.0,0.0,0.0,0
111378764,0.0118652,0.0675253,0.0141652,0.999998,0.00163516,-0.00090731,-0.000497703,1.0,0.0,0.0,0.0,0
111482775,-0.0127611,0.0316868,-6.9816e-05,0.999997,0.00163276,-0.00155797,-0.000486613,1.0,0.0,0.0,0.0,0
111582742,-0.0167471,-0.0568895,0.00608694,0.999997,0.001514,-0.00167783,-0.000450662,1.0,0.0,0.0,0.0,0
111682875,-0.0217289,-0.0190076,-0.00747555,0.999996,0.00136356,-0.00242637,-0.000289553,1.0,0.0,0.0,0.0,0
111786741,-0.020049,-0.029386,0.000664207,0.999996,0.00139362,-0.00256702,-0.000157603,1.0,0.0,0.0,0.0,0
111886734,-0.00188365,0.0308851,0.0142174,0.999998,0.00109155,-0.00157236,-0.000216608,1.0,0.0,0.0,0.0,0
111986783,-0.00294983,0.0252131,0.0142525,1.0,0.000210593,-0.000641867,-0.000253999,1.0,0.0,0.0,0.0,0
112090813,0.000352112,-0.0002835,0.00449263,1.0,-5.05762e-05,-0.000239655,-6.69186e-05,1.0,0.0,0.0,0.0,0
112190775,-0.0113335,0.00311749,0.0120116,1.0,-8.77515e-07,-0.000223353,0.000154606,1.0,0.0,0.0,0.0,0
112294721,0.00440639,0.00278651,-0.00128502,1.0,-0.000158616,-0.0002349,0.000342436,1.0,0.0,0.0,0.0,0
112394942,0.0366482,0.0170698,-0.0111139,1.0,-0.000144833,-0.000193504,0.000285937,1.0,0.0,0.0,0.0,0
112493433,-0.00756444,0.0197685,-0.0057716,1.0,-0.000217386,-0.000394608,7.76905e-05,1.0,0.0,0.0,0.0,0
112598787,0.00606192,-0.0189245,0.0024149,1.0,0.000215656,-0.000228693,-8.62742e-05,1.0,0.0,0.0,0.0,0
112698749,0.00127157,0.017747,-0.00999173,1.0,0.000173645,9.29616e-05,-0.000253163,1.0,0.0,0.0,0.0,0
112798767,0.0147647,0.0166121,-0.0173878,1.0,-6.20503e-05,-4.58086e-05,-0.000347986,1.0,0.0,0.0,0.0,0
112902800,0.0112422,0.0110434,-0.016144,1.0,-0.000262347,-0.000323469,-0.000318026,1.0,0.0,0.0,0.0,0
113002750,-0.00558826,-0.00897523,-0.00412774,1.0,1.42669e-05,-0.000226472,-0.000428936,1.0,0.0,0.0,0.0,0
113106745,0.00591164,-0.0112285,0.00591984,1.0,0.000104475,-3.69831e-05,-0.000290295,1.0,0.0,0.0,0.0,0
113206747,0.0308338,0.00162114,0.000141581,1.0,-2.5609e-05,6.34093e-05,-0.000182198,1.0,0.0,0.0,0.0,0
113306847,0.023035,-0.00119649,0.0244726,1.0,0.000103182,0.000185058,-2.04492e-05,1.0,0.0,0.0,0.0,0
113410836,-0.013274,0.00198096,-0.00043658,1.0,1.46904e-05,0.000204843,-7.86467e-05,1.0,0.0,0.0,0.0,0
113510773,-0.0129308,0.00349925,0.000407901,1.0,8.89524e-05,0.000418683,-0.00028289,1.0,0.0,0.0,0.0,0
113610812,0.0160901,0.0169299,0.0154995,1.0,0.000203726,0.000325473,-0.000379917,1.0,0.0,0.0,0.0,0
113714788,-0.00356915,-0.00653745,-0.00656238,1.0,0.000138619,0.000335905,-0.000287169,1.0,0.0,0.0,0.0,0
113814739,0.0295756,-0.0194871,0.0134254,1.0,0.000261709,0.000293543,-0.000239645,1.0,0.0,0.0,0.0,0
113918825,-0.00324255,0.0330141,0.0016561,1.0,4.53684e-05,-0.000175797,-0.000279014,1.0,0.0,0.0,0.0,0
114018742,-0.00321333,0.00339259,0.0037645,1.0,-0.000144095,5.3236e-05,-0.000283516,1.0,0.0,0.0,0.0,0
114118792,-0.0238729,-0.00615624,0.00727409,1.0,0.000113249,-1.34585e-05,-0.000417246,1.0,0.0,0.0,0.0,0
114222802,-0.00322038,-0.0120813,0.000685542,1.0,6.25049e-05,-0.000113545,-0.000420623,1.0,0.0,0.0,0.0,0
114322879,0.00902875,0.000417545,-0.00791536,1.0,0.000111102,0.000174342,-0.000595279,1.0,0.0,0.0,0.0,0
114421023,0.0268936,0.00639815,0.0118631,1.0,-0.000248973,9.09128e-05,-0.000451213,1.0,0.0,0.0,0.0,0
114525276,0.0369888,0.0395759,-0.00250361,1.0,-8.7e-06,0.000236124,-0.000574219,1.0,0.0,0.0,0.0,0
114629376,-0.00450983,0.0477092,0.00693466,1.0,2.80121e-05,5.43349e-05,-0.000374123,1.0,0.0,0.0,0.0,0
114730747,-0.00565227,0.0187926,-0.00207411,1.0,0.000111276,-0.000214004,-0.000462179,1.0,0.0,0.0,0.0,0
114830878,0.0101488,0.0121145,0.0146843,1.0,0.000162338,-2.56106e-05,-0.000366197,1.0,0.0,0.0,0.0,0
114930794,-0.0118628,-0.00449177,0.000495108,1.0,9.59523e-05,-4.28257e-05,-0.000466823,1.0,0.0,0.0,0.0,0
115034776,-0.0164033,0.00852376,0.00898044,1.0,0.000157152,0.000325415,-0.000175098,1.0,0.0,0.0,0.0,0
115134737,-0.0181356,0.00858041,0.00806942,1.0,2.03352e-05,2.12757e-05,-0.000155938,1.0,0.0,0.0,0.0,0
115234742,0.0279768,0.0253679,0.00442708,1.0,-0.000388162,-0.000478232,-0.000198187,1.0,0.0,0.0,0.0,0
115338868,0.0312968,-0.00568526,0.0184235,1.0,-0.000221857,-0.000207954,-0.000295095,1.0,0.0,0.0,0.0,0
115438793,-0.0264313,-0.00533425,0.00307651,1.0,-0.000121672,-0.000210594,-0.000408946,1.0,0.0,0.0,0.0,0
115542796,-0.0137584,0.0270137,-0.00233459,1.0,0.000365677,-0.000283872,-0.000466038,1.0,0.0,0.0,0.0,0
115642748,-0.000832604,0.0102953,0.0185991,1.0,0.000437296,-0.000161343,-0.000448579,1.0,0.0,0.0,0.0,0
115742824,0.0126645,0.0291728,0.00596819,1.0,0.000270717,-0.000134016,-0.000340072,1.0,0.0,0.0,0.0,0
115846738,0.00165769,-0.0343511,-0.00989578,1.0,0.00028813,-4.50428e-05,-0.000442001,1.0,0.0,0.0,0.0,0
115946775,-0.0163072,-0.0398063,0.000762868,1.0,-1.76053e-05,-0.000289057,-0.000601883,1.0,0.0,0.0,0.0,0
116046726,0.0091193,0.0196691,0.00793536,1.0,-3.62223e-05,-0.000186592,-0.000560932,1.0,0.0,0.0,0.0,0
116151738,0.00111257,-0.008518,-0.0124617,1.0,-0.000177511,-0.000175801,-0.000671069,1.0,0.0,0.0,0.0,0
116250744,-0.000153319,0.000640435,0.00126252,1.0,-0.000212781,-0.000123965,-0.000560873,1.0,0.0,0.0,0.0,0
116351908,-0.0207033,0.0285398,-0.0043633,1.0,-0.000119587,1.87281e-05,-0.000345606,1.0,0.0,0.0,0.0,0
116454738,-0.00876376,-0.00295972,-0.0150586,1.0,-7.87482e-05,0.000169215,-0.000445733,1.0,0.0,0.0,0.0,0
116553250,0.013993,0.0164756,-0.0126092,1.0,0.000112216,-6.91664e-05,-0.000280602,1.0,0.0,0.0,0.0,0
116657098,0.006,0.0441423,0.00617485,1.0,4.43433e-05,-0.000163703,-0.00022208,1.0,0.0,0.0,0.0,0
116758864,0.00305839,-0.0217326,0.0066666,1.0,-5.99023e-05,-0.000109824,-0.00021234,1.0,0.0,0.0,0.0,0
116858775,0.00828149,-0.025827,-0.00444394,1.0,-0.000130491,-9.10541e-05,-0.000280624,1.0,0.0,0.0,0.0,0
116963738,-0.0255387,-0.0441601,0.0213936,1.0,-0.000392828,0.000449751,-6.15517e-05,1.0,0.0,0.0,0.0,0
117062775,-0.0101783,-0.0478466,-0.0135204,1.0,9.52722e-05,0.00079739,-3.44874e-05,1.0,0.0,0.0,0.0,0
117166740,-0.0166884,-0.00553101,0.01136,1.0,0.000253603,0.000504211,-6.40205e-07,1.0,0.0,0.0,0.0,0
117266769,0.0153182,0.00897096,0.0013556,1.0,0.000550432,0.000743438,-6.68907e-05,1.0,0.0,0.0,0.0,0
117367791,0.00686752,0.0240151,0.0025154,1.0,-1.17112e-05,1.10893e-06,-6.85402e-05,1.0,0.0,0.0,0.0,0
117470776,0.0139244,0.0111801,-0.00787248,1.0,-0.000266357,-0.000408804,-8.44049e-05,1.0,0.0,0.0,0.0,0
117570738,0.0251184,0.0117252,0.00141198,1.0,-0.000389864,-0.000225786,-0.000145216,1.0,0.0,0.0,0.0,0
117670740,-0.053687,-0.00794583,0.0116573,1.0,-0.000480833,-0.000157438,-0.000204552,1.0,0.0,0.0,0.0,0
117774747,-0.0556022,-0.0047037,-0.00935983,1.0,-0.000629459,-4.28701e-05,-0.000203161,1.0,0.0,0.0,0.0,0
117874732,0.0138113,0.00991008,-0.0108125,1.0,-0.000545203,-0.000117763,-0.000185458,1.0,0.0,0.0,0.0,0
117978736,0.00451849,0.00461982,0.000198334,1.0,-9.48463e-06,2.35658e-05,-0.000294599,1.0,0.0,0.0,0.0,0
118074725,0.00220432,-0.00907624,-0.00890552,1.0,7.12458e-05,4.45241e-05,-0.000224461,1.0,0.0,0.0,0.0,0
118178960,0.0121778,0.00725387,0.00908911,1.0,8.66616e-05,5.43606e-05,-0.000196858,1.0,0.0,0.0,0.0,0
118282747,-0.0183396,0.0111761,-0.0319786,1.0,0.000231085,0.000105908,-0.000265286,1.0,0.0,0.0,0.0,0
118383761,-0.016324,0.00515922,-0.0111798,1.0,0.000194149,0.000128174,-0.000377843,1.0,0.0,0.0,0.0,0
118482731,-0.00231679,0.0136397,0.0161309,1.0,0.000246326,0.000108418,-0.000155111,1.0,0.0,0.0,0.0,0
118586911,0.00673615,-0.0260547,-0.00734397,1.0,-1.45666e-05,-5.03579e-05,-0.000186754,1.0,0.0,0.0,0.0,0
118686751,0.00653331,-0.027547,0.0223544,1.0,-9.30528e-05,0.000142757,-0.000140001,1.0,0.0,0.0,0.0,0
118790889,0.00738194,-0.0126823,0.00379394,1.0,-9.99425e-05,0.000166812,-0.000226466,1.0,0.0,0.0,0.0,0
118889340,0.000341029,0.00249727,-0.00139007,1.0,6.88402e-05,0.000189386,-0.000426762,1.0,0.0,0.0,0.0,0
118993931,0.0067614,0.00505644,0.00895213,1.0,2.14504e-05,0.000193322,-0.000215873,1.0,0.0,0.0,0.0,0
119094767,-0.0305786,0.00499876,-0.00824237,1.0,0.000157887,-2.45558e-05,-0.000250469,1.0,0.0,0.0,0.0,0
119194768,0.00608576,0.0127127,-0.0190114,1.0,0.000395671,-7.10604e-05,-0.000376406,1.0,0.0,0.0,0.0,0
119297628,0.00314572,-0.00649395,-0.00736412,1.0,7.20732e-05,-5.26012e-05,-0.000524445,1.0,0.0,0.0,0.0,0
119398814,0.0167945,0.0143747,0.000485709,1.0,-0.00010657,3.99251e-05,-0.000486122,1.0,0.0,0.0,0.0,0
119500801,0.00330721,-0.0132977,0.00522382,1.0,-0.000310989,-9.36099e-05,-0.000417704,1.0,0.0,0.0,0.0,0
119602867,-0.021073,-0.00552242,0.00226483,1.0,-0.00037039,-0.000125675,-0.000294742,1.0,0.0,0.0,0.0,0
119702766,-0.0307922,-0.0079613,0.00104666,1.0,-0.000405281,-0.000215975,-0.000155058,1.0,0.0,0.0,0.0,0
119802796,0.00304126,-0.0112062,-0.00699692,1.0,-0.000395233,-0.000303662,-0.000153995,1.0,0.0,0.0,0.0,0
119906761,0.0105687,0.00883989,0.0168316,1.0,-0.000193413,-0.000188648,-0.000318212,1.0,0.0,0.0,0.0,0
120006790,-0.037771,0.0352998,-0.00616145,1.0,-0.000574448,6.05974e-05,-0.000313392,1.0,0.0,0.0,0.0,0
120106752,-0.0117156,0.0280949,-0.00238374,1.0,-0.000556335,0.000397432,-0.000320428,1.0,0.0,0.0,0.0,0
120210757,0.00560431,-0.00878588,0.0158128,1.0,-0.000177811,0.000169436,-0.000341074,1.0,0.0,0.0,0.0,0
120310749,-0.000201921,-0.00900101,0.0164002,1.0,2.44391e-05,0.000202494,-0.000446545,1.0,0.0,0.0,0.0,0
120414739,0.0128975,-0.0192594,-0.000759964,1.0,-5.82784e-05,0.000543018,-0.000273937,1.0,0.0,0.0,0.0,0
120514740,-0.000890752,-0.00219531,0.00381537,1.0,-7.80927e-05,0.000380588,-0.000406982,1.0,0.0,0.0,0.0,0
120615737,-0.0119066,0.00157719,-0.00703054,1.0,7.48741e-05,3.6335e-05,-0.000481548,1.0,0.0,0.0,0.0,0
120718823,-0.0251159,-0.0186196,-0.00221641,1.0,0.000535368,-0.000156646,-0.000438479,1.0,0.0,0.0,0.0,0
120818764,-0.00920826,-0.00184925,-0.0116737,1.0,0.000345981,-9.63135e-05,-0.000245618,1.0,0.0,0.0,0.0,0
120918736,-0.0264825,-0.0313226,-0.0127433,1.0,0.000169973,0.000103437,-0.000365667,1.0,0.0,0.0,0.0,0
121022769,0.00542294,-0.068236,0.00709327,1.0,0.000159939,-9.77041e-05,-0.000538905,1.0,0.0,0.0,0.0,0
121121294,0.00127141,-0.0123445,-0.00385239,1.0,2.70247e-05,-0.000279891,-0.000522449,1.0,0.0,0.0,0.0,0
121225314,-0.00389325,0.0064811,0.00502511,1.0,-0.00014227,7.10415e-05,-0.000589406,1.0,0.0,0.0,0.0,0
121326744,0.0299576,0.0202422,-1.92947e-05,1.0,7.73134e-05,-6.32529e-05,-0.000629374,1.0,0.0,0.0,0.0,0
121426801,0.0035776,-0.00584307,-0.0139856,1.0,4.06123e-05,-0.000166696,-0.000389371,1.0,0.0,0.0,0.0,0
121530740,0.00212908,-0.0217789,0.0108033,1.0,0.000177901,-0.000115232,-0.000348274,1.0,0.0,0.0,0.0,0
121630740,0.00963629,0.001563,-0.0115595,1.0,0.000458818,0.000355696,-0.00027695,1.0,0.0,0.0,0.0,0
121730888,0.0370521,-0.00434772,0.00749932,1.0,0.000117637,0.000126082,-0.000283922,1.0,0.0,0.0,0.0,0
121834750,0.010298,0.00693709,0.0208511,1.0,8.97507e-05,0.000334596,-0.000200917,1.0,0.0,0.0,0.0,0
121934836,-0.00940955,0.00651433,-0.00344288,1.0,1.18543e-05,0.000365704,-0.000200666,1.0,0.0,0.0,0.0,0
122038737,0.00113239,0.00806959,-0.0159152,1.0,3.40917e-06,0.000236801,-0.000212,1.0,0.0,0.0,0.0,0
122138759,-0.0405025,0.00821852,-0.0159929,1.0,7.72858e-05,-3.19419e-05,-0.000217414,1.0,0.0,0.0,0.0,0
122238871,-0.0748251,0.031554,-0.00101538,1.0,-0.000186688,8.52147e-05,-0.00034859,1.0,0.0,0.0,0.0,0
122342765,-0.0707283,0.0334466,0.000676191,1.0,-0.000289348,-1.2562e-05,-0.000512265,1.0,0.0,0.0,0.0,0
122442782,-0.0281952,0.0284165,0.00943711,1.0,-0.000107821,5.81197e-06,-0.00056018,1.0,0.0,0.0,0.0,0
122542744,0.00554683,0.0172101,-0.00815626,1.0,-0.000199862,0.00010983,-0.000576454,1.0,0.0,0.0,0.0,0
122646738,0.0387809,0.0105091,0.00665892,1.0,0.000185572,0.000192286,-0.000522956,1.0,0.0,0.0,0.0,0
122746784,0.0208792,-0.0083423,-0.00370212,1.0,0.00024775,0.000121761,-0.000464511,1.0,0.0,0.0,0.0,0
122850728,-0.0202917,-0.0025998,0.00743148,1.0,4.32771e-05,-0.000113326,-0.000289173,1.0,0.0,0.0,0.0,0
122951744,-0.00983115,0.029049,0.00298821,1.0,-9.35601e-05,-0.000133001,-0.000231377,1.0,0.0,0.0,0.0,0
123050815,-0.00510341,0.0180199,0.00125478,1.0,-0.000330092,-0.000178143,-9.86206e-05,1.0,0.0,0.0,0.0,0
123154867,0.0153888,0.00364617,0.00179605,1.0,5.88241e-06,-6.49059e-05,-0.000103315,1.0,0.0,0.0,0.0,0
123254850,0.0265484,0.00951096,0.006086,1.0,0.000318893,-0.000178991,-0.000120812,1.0,0.0,0.0,0.0,0
123357127,-0.00624436,-0.012633,0.00977971,1.0,7.06704e-05,-0.000479324,-0.000175228,1.0,0.0,0.0,0.0,0
123458793,0.0128577,-0.022642,-0.0222609,1.0,-2.00098e-06,-0.000460474,-0.000399583,1.0,0.0,0.0,0.0,0
123558748,0.0144763,-0.0220551,0.0127439,1.0,-0.000320783,-2.55484e-05,-0.000394517,1.0,0.0,0.0,0.0,0
123662790,0.0181723,-0.0221687,-0.00243956,1.0,-0.000472882,0.000267725,-0.000418066,1.0,0.0,0.0,0.0,0
123762729,0.00295045,-0.00122751,0.00396271,1.0,-0.000561063,0.000523792,-0.000353546,1.0,0.0,0.0,0.0,0
123862789,-0.0126701,-0.0107607,0.0147749,1.0,-0.000392834,0.000331256,-0.000246526,1.0,0.0,0.0,0.0,0
123966855,-0.000524138,0.0249198,0.0103548,1.0,-0.000114913,4.17968e-05,-0.000139248,1.0,0.0,0.0,0.0,0
124066773,-0.0113738,0.0578517,-0.00272763,1.0,-0.0001549,0.000199784,-0.000347739,1.0,0.0,0.0,0.0,0
124166774,0.0035404,0.0509745,0.0075864,1.0,-3.35519e-05,0.000192677,-0.000345985,1.0,0.0,0.0,0.0,0
124270778,0.0140478,0.0298191,0.00363961,1.0,3.28281e-05,-9.80345e-05,-0.000278013,1.0,0.0,0.0,0.0,0
124370765,0.0328847,0.0459908,0.00209403,1.0,0.000149011,-0.000328924,-0.000187581,1.0,0.0,0.0,0.0,0
124474737,0.0799348,0.0736459,-0.00283217,1.0,0.000722778,0.000475449,-0.00023816,1.0,0.0,0.0,0.0,0
124574884,0.00568175,0.0047402,0.00825316,1.0,0.000601716,0.000419591,-0.000267584,1.0,0.0,0.0,0.0,0
124674800,-0.00124917,-0.00808301,-0.00783856,1.0,0.000525222,0.000247368,-0.000398362,1.0,0.0,0.0,0.0,0
124778777,0.0140697,0.0185902,-0.00926325,1.0,0.000186616,0.000100352,-0.000406926,1.0,0.0,0.0,0.0,0
124878907,-0.0144136,0.00136821,0.00547529,1.0,0.000268982,3.88306e-05,-0.000332615,1.0,0.0,0.0,0.0,0
124978742,-0.0316405,-0.00347181,-0.0171406,1.0,0.000241316,0.000201438,-0.000489664,1.0,0.0,0.0,0.0,0
125082751,-0.0165874,-0.0251088,0.0138192,1.0,0.000514819,0.000361315,-0.000283752,1.0,0.0,0.0,0.0,0
125183042,-0.0148469,-0.0178658,-0.00817713,1.0,0.000374773,0.000197029,-0.000362923,1.0,0.0,0.0,0.0,0
125285199,0.00181844,0.0107216,-0.00366563,1.0,3.4497e-05,-2.41461e-05,-0.000289688,1.0,0.0,0.0,0.0,0
125385394,0.0259191,-0.00290624,0.00430084,1.0,-0.000174517,-0.000178122,-0.000120831,1.0,0.0,0.0,0.0,0
125486814,0.0115851,-0.0100564,-0.0109336,1.0,-0.000283173,-0.000238878,-2.39789e-05,1.0,0.0,0.0,0.0,0
125590820,0.00462358,-0.00227302,-0.0174665,1.0,-0.000423683,-0.00018996,-0.000202724,1.0,0.0,0.0,0.0,0
125690771,-0.00820764,-0.0139895,-0.0115111,1.0,-0.000279872,-0.000181499,-0.000236037,1.0,0.0,0.0,0.0,0
125790749,-0.0350821,0.00865385,-0.000535183,1.0,-0.000158888,0.000220128,-0.000193173,1.0,0.0,0.0,0.0,0
125894870,-0.0344827,0.00416928,-0.0047603,1.0,-0.000243665,0.000553079,-9.23507e-05,1.0,0.0,0.0,0.0,0
125994783,-0.019137,0.0185561,0.0199134,1.0,-9.91285e-05,0.000383779,-0.00013296,1.0,0.0,0.0,0.0,0
126098830,-0.00803344,0.0413807,-0.0187453,1.0,4.64618e-05,0.000627845,-7.8652e-05,1.0,0.0,0.0,0.0,0
126198787,-0.00979809,0.0516856,-0.00837935,1.0,0.000110115,0.000172229,-0.000137718,1.0,0.0,0.0,0.0,0
126298805,0.0264065,-0.0112307,0.00129167,1.0,0.000225973,-0.000143685,-7.74115e-05,1.0,0.0,0.0,0.0,0
126402745,-0.00270759,-0.0535198,0.0137011,1.0,0.000318992,-0.000409809,-6.70055e-05,1.0,0.0,0.0,0.0,0
126502800,-0.000868893,-0.0276917,-0.00262812,1.0,7.29173e-07,-0.000339584,2.32246e-05,1.0,0.0,0.0,0.0,0
126602760,0.00333028,-0.011139,0.0145541,1.0,0.000104722,-0.000380606,-0.00016176,1.0,0.0,0.0,0.0,0
126706753,-0.0222092,-0.00827623,-0.00408503,1.0,6.27834e-05,-9.27776e-05,-0.00025606,1.0,0.0,0.0,0.0,0
126806769,-0.0176548,-0.0168721,0.00601394,1.0,-1.761e-05,-7.11365e-05,-0.000407254,1.0,0.0,0.0,0.0,0
126910749,-0.00838847,-0.013506,0.0222511,1.0,-0.000341903,-0.000544163,-0.000388102,1.0,0.0,0.0,0.0,0
127010775,0.0175879,-0.0328947,-0.00558051,1.0,-3.95038e-05,-0.000337378,-0.000336331,1.0,0.0,0.0,0.0,0
127110853,0.0159223,0.0299124,-0.00213411,1.0,-0.000242793,-0.000646931,-0.000382015,1.0,0.0,0.0,0.0,0
127214759,0.0187436,0.0138156,0.00737786,1.0,8.24171e-05,-0.000330711,-0.00037355,1.0,0.0,0.0,0.0,0
127314737,-0.00282849,-0.0350593,-0.000464443,1.0,0.000235822,-0.00042465,-0.000169914,1.0,0.0,0.0,0.0,0
127413359,0.0293778,0.00138238,-0.00556501,1.0,0.000128015,-0.00019553,-8.49782e-05,1.0,0.0,0.0,0.0,0
127517381,0.0231395,0.0112232,-0.00354937,1.0,-1.74939e-05,-2.37175e-05,-1.12132e-05,1.0,0.0,0.0,0.0,0
127621376,0.0507937,-0.019141,0.00996719,1.0,0.00021366,-0.000137402,-0.000175936,1.0,0.0,0.0,0.0,0
127722770,0.0279424,0.0170793,-0.00862016,1.0,0.000398547,-0.00015053,-0.000197811,1.0,0.0,0.0,0.0,0
127822793,0.0069761,0.010573,-0.00871831,1.0,0.000213055,-0.000239461,-0.000192583,1.0,0.0,0.0,0.0,0
127922826,0.00240931,0.0180239,-0.0149743,1.0,-2.56957e-05,-0.000289304,-0.000338489,1.0,0.0,0.0,0.0,0
128026738,-0.00868621,-0.0205791,0.00468851,1.0,-0.000405534,-0.000743944,-0.000297546,1.0,0.0,0.0,0.0,0
128126827,0.0189603,0.0082462,-0.00399169,1.0,-0.000183808,-0.000791374,-0.000310753,1.0,0.0,0.0,0.0,0
128226748,9.45545e-05,-0.0110724,0.000281846,1.0,-0.000231062,-0.000454927,-0.00044071,1.0,0.0,0.0,0.0,0
128330770,0.00114136,-0.00140569,-0.000567741,1.0,5.40987e-05,-0.000542979,-0.000286218,1.0,0.0,0.0,0.0,0
128430806,-0.00573775,0.00410174,-0.00865807,1.0,3.24977e-05,-0.000361234,-9.11373e-05,1.0,0.0,0.0,0.0,0
128534817,0.0403387,-0.00384806,-0.000322619,1.0,-7.70489e-05,-0.000143182,-0.000117917,1.0,0.0,0.0,0.0,0
128634769,0.0466676,-0.0216566,0.00333857,1.0,0.000126076,-1.15751e-06,-0.000265491,1.0,0.0,0.0,0.0,0
128734790,0.00156615,0.0296646,-0.0133525,1.0,0.000152721,0.00011526,-0.000193987,1.0,0.0,0.0,0.0,0
128837382,-0.0160506,0.0110932,0.0161224,1.0,0.000114486,0.000129289,-0.000168758,1.0,0.0,0.0,0.0,0
128938738,0.0153248,-0.000131619,-0.000768611,1.0,0.000222271,1.7246e-05,-0.000246007,1.0,0.0,0.0,0.0,0
129038882,0.0163334,0.0021414,0.0300112,1.0,0.000391821,0.000316258,-0.000295853,1.0,0.0,0.0,0.0,0
129142747,0.00495789,-0.0340368,0.0181187,1.0,0.00020516,0.000289691,-0.000383046,1.0,0.0,0.0,0.0,0
129242821,-0.0100566,-0.0185275,-0.0201901,1.0,2.20536e-06,-6.68017e-05,-0.000541747,1.0,0.0,0.0,0.0,0
129346788,-0.0230768,0.021412,0.0153817,1.0,-3.42658e-05,-0.000152041,-0.000570868,1.0,0.0,0.0,0.0,0
129447739,0.00275962,0.00705673,0.0115227,1.0,9.85435e-05,-0.000138145,-0.000247571,1.0,0.0,0.0,0.0,0
129545437,0.00494235,0.0165298,-0.000237479,1.0,0.000116408,-0.000258709,-6.66461e-05,1.0,0.0,0.0,0.0,0
129649393,0.0112943,-0.0108687,-0.00947904,1.0,-9.03736e-05,9.70386e-05,-0.000148755,1.0,0.0,0.0,0.0,0
129750741,-0.00332386,0.00886471,-0.000522652,1.0,-6.41334e-05,0.000257457,-0.000285408,1.0,0.0,0.0,0.0,0
129850742,-0.0131891,0.00605544,-0.00264635,1.0,-0.00012226,7.48523e-05,-0.000303262,1.0,0.0,0.0,0.0,0
129954750,0.00295298,-0.00320099,-0.0022269,1.0,-0.000172722,0.000224427,-0.000303152,1.0,0.0,0.0,0.0,0
130054771,-0.0308691,0.0129308,0.00252114,1.0,-0.000178125,0.000333763,-0.000231573,1.0,0.0,0.0,0.0,0
130158726,0.00889156,-0.00348534,-0.00236351,1.0,-0.000188099,0.000273321,-0.000115567,1.0,0.0,0.0,0.0,0
130258879,0.0153113,0.0289623,-0.00061643,1.0,6.44531e-05,0.000101481,-0.000167,1.0,0.0,0.0,0.0,0
130358953,-0.000109298,0.0277432,-0.0125224,1.0,4.75487e-05,0.000161965,-0.000181632,1.0,0.0,0.0,0.0,0
130462810,0.0136766,0.0122418,0.0160748,1.0,0.000196318,7.89114e-05,-0.000166579,1.0,0.0,0.0,0.0,0
130562783,0.0375526,0.0357626,-0.00902929,1.0,0.00039129,0.000282211,-0.00027663,1.0,0.0,0.0,0.0,0
130662823,0.0777197,0.0228579,-0.00751618,1.0,0.000410783,0.000206893,-0.000349888,1.0,0.0,0.0,0.0,0
130767752,0.0159909,0.00179576,0.0173012,1.0,0.000475685,0.000327444,-0.000468906,1.0,0.0,0.0,0.0,0
130867736,-0.0313439,-0.0219292,-0.00376031,1.0,0.000227142,0.000201996,-0.00047806,1.0,0.0,0.0,0.0,0
130970761,-0.0237606,-0.020168,-0.00656459,1.0,-9.24461e-05,2.38806e-05,-0.000339799,1.0,0.0,0.0,0.0,0
131070749,0.005605,-0.0218677,0.00420468,1.0,-0.000149297,8.17215e-05,-0.000315453,1.0,0.0,0.0,0.0,0
131171020,0.00125226,-0.00418537,-0.0013004,1.0,-0.000224513,-1.82865e-08,-1.23916e-05,1.0,0.0,0.0,0.0,0
131274735,0.0008901,-0.0154364,0.0122249,1.0,-0.000183588,4.20831e-05,0.000550043,1.0,0.0,0.0,0.0,0
131374739,-0.015381,0.00960349,0.0195534,0.999999,3.86356e-05,-6.92433e-06,0.00135959,1.0,0.0,0.0,0.0,0
131474780,-0.0129573,0.000806829,0.00470935,0.999998,3.72311e-05,-0.000148707,0.00199351,1.0,0.0,0.0,0.0,0
131579748,-0.0201443,0.00734367,0.0169394,0.999995,6.52852e-05,2.22782e-05,0.00302008,1.0,0.0,0.0,0.0,0
131677926,0.00493541,-0.00200901,0.027038,0.999993,0.000389476,-3.69987e-05,0.00381579,1.0,0.0,0.0,0.0,0
