timestamp,rollspeed,pitchspeed,yawspeed,q[0],q[1],q[2],q[3],delta_q_reset[0],delta_q_reset[1],delta_q_reset[2],delta_q_reset[3],quat_reset_counter
26357746,-0.00112824,0.0167466,0.000378706,0.999811,0.000312473,-0.000849137,-0.0194121,1.0,0.0,0.0,0.0,0
26473755,0.00739726,-0.0126097,-0.00798551,0.999808,0.000465435,-0.000782565,-0.0195786,1.0,0.0,0.0,0.0,0
26577850,-0.0147479,0.00860922,-0.0103505,0.999809,0.000431739,-0.000805736,-0.0195304,1.0,0.0,0.0,0.0,0
26677757,0.0015054,0.00315317,-0.00148376,0.999811,0.000489293,-0.000698835,-0.0194394,1.0,0.0,0.0,0.0,0
26777833,-0.000841771,-0.0118009,-0.00499561,0.999811,0.000550719,-0.000612797,-0.019414,1.0,0.0,0.0,0.0,0
26881738,-0.00133831,0.00979274,-0.0143921,0.999815,0.000319041,-0.000454617,-0.0192191,1.0,0.0,0.0,0.0,0
26982738,-0.00298712,0.0227961,-0.00509371,0.999817,0.000354922,-7.77296e-06,-0.0191466,1.0,0.0,0.0,0.0,0
27083885,0.00496137,0.006635,0.0140882,0.999816,0.000264595,0.00013051,-0.0191673,1.0,0.0,0.0,0.0,0
27185746,0.0178084,0.00130414,-0.000643258,0.999817,0.000234441,8.54525e-05,-0.0191342,1.0,0.0,0.0,0.0,0
27285744,-0.00630871,-0.00577936,0.0129163,0.999822,0.000130559,0.00015441,-0.0188718,1.0,0.0,0.0,0.0,0
27389732,0.00503849,-0.0105807,0.0135762,0.999824,6.48464e-05,0.000338768,-0.0187803,1.0,0.0,0.0,0.0,0
27489864,-0.0015798,-0.0109474,-0.0234747,0.999823,-3.75552e-05,0.000186961,-0.0188367,1.0,0.0,0.0,0.0,0
27590062,0.0151852,-0.00757239,-0.00892297,0.999822,7.44577e-05,0.000134506,-0.0188853,1.0,0.0,0.0,0.0,0
27693734,-0.00438002,0.0204996,0.00368714,0.999817,-0.000106473,0.000165395,-0.0191125,1.0,0.0,0.0,0.0,0
27793308,-1.0571e-05,0.00843034,0.00708369,0.999829,-0.000142203,0.000200291,-0.0184814,1.0,0.0,0.0,0.0,0
27896647,-0.00180488,-0.00176757,0.0288042,0.999842,-0.000174224,3.28003e-05,-0.0177601,1.0,0.0,0.0,0.0,0
27997742,-0.0235388,0.0020854,0.00292334,0.999852,-0.000213092,-0.000186697,-0.0171949,1.0,0.0,0.0,0.0,0
28097735,0.00612746,0.00965351,0.0129289,0.999862,-6.55166e-05,-0.000158669,-0.016633,1.0,0.0,0.0,0.0,0
28201734,0.0157525,-0.00297583,-0.00344247,0.999867,0.000134732,-0.000390674,-0.0163256,1.0,0.0,0.0,0.0,0
28302881,0.00824059,-0.00907791,-0.0116136,0.999868,0.000393126,-0.000704052,-0.0162475,1.0,0.0,0.0,0.0,0
28401787,0.0278916,-0.0367455,0.00594892,0.999869,0.00013099,-0.000269042,-0.0161843,1.0,0.0,0.0,0.0,0
28505733,0.0161818,-0.0124333,-0.00766362,0.999874,-0.000226285,-0.000141453,-0.0159049,1.0,0.0,0.0,0.0,0
28605732,0.00399275,8.32703e-05,0.0057489,0.999872,-0.000309849,-7.12534e-05,-0.0159931,1.0,0.0,0.0,0.0,0
28709619,-0.0443149,-0.0107819,-0.00500473,0.999871,-0.000377577,-6.80409e-05,-0.0160358,1.0,0.0,0.0,0.0,0
28809610,-0.373976,0.0347716,0.00559552,0.999797,-0.0119846,0.00152411,-0.01611,1.0,0.0,0.0,0.0,0
28909752,-0.677789,0.06907,0.00201766,0.999108,-0.0389112,0.00477289,-0.0156953,1.0,0.0,0.0,0.0,0
29013595,-1.02341,0.104263,0.00433474,0.996368,-0.0831754,0.00983275,-0.0153876,1.0,0.0,0.0,0.0,0
29114607,-1.31748,0.113589,0.00233893,0.989653,-0.141713,0.0166177,-0.0151275,1.0,0.0,0.0,0.0,0
29213612,-1.6265,0.161383,0.0208074,0.976533,-0.213443,0.0248057,-0.0144811,1.0,0.0,0.0,0.0,0
29317758,-1.95534,0.196552,-0.00111711,0.952164,-0.303316,0.0346877,-0.0134123,1.0,0.0,0.0,0.0,0
29417615,-2.24241,0.210686,0.0101417,0.914687,-0.401402,0.0455157,-0.0123496,1.0,0.0,0.0,0.0,0
29521668,-2.57739,0.243541,0.0099352,0.85649,-0.512843,0.0574813,-0.0106507,1.0,0.0,0.0,0.0,0
29621612,-2.86809,0.259653,-0.00129181,0.777793,-0.624615,0.0694098,-0.00872597,1.0,0.0,0.0,0.0,0
29721607,-3.19266,0.291823,0.0255474,0.673052,-0.735121,0.0810093,-0.00605753,1.0,0.0,0.0,0.0,0
29821595,-3.49408,0.307524,0.0194057,0.539843,-0.836762,0.0916018,-0.00285645,1.0,0.0,0.0,0.0,0
29926630,-3.82229,0.316131,0.0428626,0.368421,-0.924206,0.100535,0.00154226,1.0,0.0,0.0,0.0,0
30024889,-4.1383,0.364942,0.035725,0.180515,-0.977855,0.105722,0.00610533,1.0,0.0,0.0,0.0,0
30128232,-4.46463,0.354287,0.0178906,-0.0401187,-0.993451,0.106383,0.0113645,1.0,0.0,0.0,0.0,0
30229623,-4.77082,0.383854,0.0307309,-0.270011,-0.957353,0.101369,0.0171442,1.0,0.0,0.0,0.0,0
30333627,-5.08826,0.40644,0.0484295,-0.50457,-0.858402,0.0897091,0.0225283,1.0,0.0,0.0,0.0,0
30433612,-5.39157,0.417533,0.0195171,-0.710186,-0.699821,0.0718507,0.0269156,1.0,0.0,0.0,0.0,0
30534609,-5.71346,0.431688,0.0426857,-0.876433,-0.47824,0.0476426,0.0297062,1.0,0.0,0.0,0.0,0
30633606,-6.00872,0.450455,0.0310612,-0.976984,-0.210284,0.019191,0.0302493,1.0,0.0,0.0,0.0,0
30737647,-6.3322,0.450599,0.0339289,-0.993907,0.105735,-0.0134071,0.0280938,1.0,0.0,0.0,0.0,0
30837618,-6.66154,0.451789,0.0366035,-0.908868,0.414152,-0.0441106,0.0221786,1.0,0.0,0.0,0.0,0
30942617,-6.97042,0.462077,0.0351144,-0.706859,0.70363,-0.0714388,0.0123085,1.0,0.0,0.0,0.0,0
31041731,0.957035,-0.391561,0.0163026,-0.552935,0.82966,-0.0768886,-0.00383915,1.0,0.0,0.0,0.0,0
31141735,3.82316,-0.609036,-0.0930846,-0.674465,0.73588,-0.057033,-0.0180148,1.0,0.0,0.0,0.0,0
31245728,4.01952,-0.463548,-0.223026,-0.813767,0.579872,-0.0318531,-0.0227348,1.0,0.0,0.0,0.0,0
31345866,4.05183,-0.209897,-0.299714,-0.915389,0.402081,-0.0131051,-0.0149074,1.0,0.0,0.0,0.0,0
31445737,3.75105,-0.0598966,-0.350451,-0.977857,0.209255,-0.00272961,0.0011818,1.0,0.0,0.0,0.0,0
31550755,1.81231,0.0168576,-0.346937,-0.997691,0.0649097,0.00166078,0.0199211,1.0,0.0,0.0,0.0,0
31649801,0.55435,0.050882,-0.309076,-0.999308,0.00776626,0.00234399,0.0362886,1.0,0.0,0.0,0.0,0
31753734,0.0871929,0.0241052,-0.260426,-0.998646,-0.0107468,0.00187745,0.0508631,1.0,0.0,0.0,0.0,0
31853737,-0.0294785,0.0317587,-0.193064,-0.998,-0.0139301,0.00108648,0.0616534,1.0,0.0,0.0,0.0,0
31953737,-0.0479228,0.0213098,-0.135971,-0.997496,-0.0138336,0.000875308,0.0693494,1.0,0.0,0.0,0.0,0
32057741,-0.0492823,0.00373895,-0.00916407,-0.997409,-0.0140212,0.000837903,0.0705554,1.0,0.0,0.0,0.0,0
32156372,-0.0435016,0.0022247,0.0123989,-0.997476,-0.0130878,0.000698196,0.0697842,1.0,0.0,0.0,0.0,0
32261739,-0.0448019,-0.00603953,0.0250886,-0.997545,-0.0125275,0.00064109,0.0688958,1.0,0.0,0.0,0.0,0
32362780,-0.0638952,0.000540383,0.0272726,-0.99762,-0.0121587,0.00074303,0.0678665,1.0,0.0,0.0,0.0,0
32461785,-0.0183708,-0.0225417,0.010694,-0.997675,-0.011927,0.00093433,0.0670966,1.0,0.0,0.0,0.0,0
32562807,-0.0544159,-0.0393329,0.0420773,-0.997731,-0.0117682,0.00109228,0.0662806,1.0,0.0,0.0,0.0,0
32665745,-0.0396632,-0.0109647,0.03531,-0.997776,-0.0119108,0.000876395,0.0655707,1.0,0.0,0.0,0.0,0
32766740,-0.0785196,-0.00733082,0.0219282,-0.997795,-0.0117503,0.000727449,0.0653135,1.0,0.0,0.0,0.0,0
32869757,-0.0835531,-0.00796825,0.0292286,-0.997842,-0.0122413,0.000812348,0.0645078,1.0,0.0,0.0,0.0,0
32969741,-0.0906904,-0.0459153,0.150749,-0.998075,-0.0128663,0.00137328,0.0606477,1.0,0.0,0.0,0.0,0
33073728,-0.0935607,-0.0496923,0.423629,-0.998804,-0.0137298,0.00234672,0.0468701,1.0,0.0,0.0,0.0,0
33174745,-0.0770459,-0.0146638,0.819013,-0.999766,-0.0155075,0.002932,0.0147911,1.0,0.0,0.0,0.0,0
33274867,-0.0578727,-0.0191111,1.24043,-0.999143,-0.0176798,0.00372481,-0.0372526,1.0,0.0,0.0,0.0,0
33377742,-0.00958121,0.00350176,1.67225,-0.993435,-0.0205707,0.00459428,-0.112441,1.0,0.0,0.0,0.0,0
33477743,0.00573819,0.0214235,2.13399,-0.978067,-0.0233538,0.00582026,-0.206896,1.0,0.0,0.0,0.0,0
33577864,-0.173567,0.193245,2.26099,-0.948602,-0.0201831,0.00472203,-0.315792,1.0,0.0,0.0,0.0,0
33682764,-0.16696,0.106316,1.95625,-0.907554,-0.0126934,0.00422307,-0.419722,1.0,0.0,0.0,0.0,0
33781735,-0.139363,0.035592,1.56419,-0.86773,-0.00740232,0.00702678,-0.496931,1.0,0.0,0.0,0.0,0
33885988,-0.108601,-0.00265428,1.07792,-0.831284,-0.00418359,0.0122042,-0.555698,1.0,0.0,0.0,0.0,0
33985736,-0.0997535,-0.0162784,0.595392,-0.806729,-0.00201176,0.0181133,-0.590641,1.0,0.0,0.0,0.0,0
34084618,-0.0752269,-0.0226733,0.0656708,-0.796528,-0.000213243,0.0242369,-0.604115,1.0,0.0,0.0,0.0,0
34188307,0.0492044,0.109284,-0.43863,-0.802251,0.00156611,0.0245925,-0.596478,1.0,0.0,0.0,0.0,0
34289742,0.0401092,0.0821361,-0.914999,-0.822121,0.00186896,0.0215756,-0.5689,1.0,0.0,0.0,0.0,0
34389776,0.19327,0.251642,-1.23014,-0.852451,0.000437844,0.0160136,-0.522562,1.0,0.0,0.0,0.0,0
34494733,0.597694,0.0793286,-1.15483,-0.883108,-0.0117344,0.00215775,-0.469019,1.0,0.0,0.0,0.0,0
34594758,1.34129,-0.194056,-0.988213,-0.904619,-0.0600527,-0.0174296,-0.421609,1.0,0.0,0.0,0.0,0
34697732,1.16896,-0.0959062,-0.693037,-0.914651,-0.129598,-0.0421548,-0.38058,1.0,0.0,0.0,0.0,0
34797747,0.49126,0.016554,-0.494095,-0.917934,-0.171261,-0.061352,-0.352566,1.0,0.0,0.0,0.0,0
34894761,-0.31366,-0.0314394,-0.28755,-0.923015,-0.173232,-0.0673538,-0.336895,1.0,0.0,0.0,0.0,0
35001736,-0.927378,-0.052723,-0.131671,-0.931994,-0.136274,-0.0575282,-0.33092,1.0,0.0,0.0,0.0,0
35101735,-1.1256,-0.0623538,-0.0614919,-0.938831,-0.0862236,-0.0399222,-0.33101,1.0,0.0,0.0,0.0,0
35201737,-0.735809,-0.0278141,0.0378071,-0.941551,-0.0381429,-0.0208682,-0.334054,1.0,0.0,0.0,0.0,0
35305719,-0.339991,-0.035986,0.0934169,-0.940823,-0.0134039,-0.0103614,-0.338475,1.0,0.0,0.0,0.0,0
35405738,-0.0902719,-0.00924624,0.0702411,-0.939047,-0.00529429,-0.00640674,-0.343687,1.0,0.0,0.0,0.0,0
35509751,-0.0348745,-0.00337715,0.0673642,-0.937014,-0.00288456,-0.00476371,-0.349248,1.0,0.0,0.0,0.0,0
35609746,-0.0292062,-0.00532735,0.0660851,-0.935345,-0.00233617,-0.00436436,-0.353702,1.0,0.0,0.0,0.0,0
35710760,0.00273275,-0.00800806,0.0308735,-0.933952,-0.00191966,-0.00402306,-0.35737,1.0,0.0,0.0,0.0,0
35813794,0.235175,0.0147556,0.0212479,-0.932871,-0.00583374,-0.00537215,-0.360124,1.0,0.0,0.0,0.0,0
35913730,0.327289,-0.0122033,-7.2238e-05,-0.931985,-0.0193816,-0.0101972,-0.361834,1.0,0.0,0.0,0.0,0
36013731,0.133661,0.0285091,-0.0319794,-0.93146,-0.0282927,-0.013486,-0.36249,1.0,0.0,0.0,0.0,0
36117752,0.0413335,0.00333071,-0.0170525,-0.931298,-0.0302664,-0.0145219,-0.362709,1.0,0.0,0.0,0.0,0
36216658,0.251254,-0.00330665,-0.0468545,-0.931067,-0.0373236,-0.0172026,-0.362526,1.0,0.0,0.0,0.0,0
36320753,0.199381,-0.052476,-0.0389939,-0.930719,-0.0499421,-0.0220304,-0.361638,1.0,0.0,0.0,0.0,0
36421737,0.0578856,-0.0450619,-0.0280821,-0.930574,-0.0558679,-0.0241866,-0.361007,1.0,0.0,0.0,0.0,0
36521790,0.02505,-0.0365713,-0.0497146,-0.930699,-0.0572383,-0.0248137,-0.360427,1.0,0.0,0.0,0.0,0
36621749,0.37202,-0.0114594,-0.0385289,-0.930409,-0.0655582,-0.0282438,-0.359504,1.0,0.0,0.0,0.0,0
36726892,0.277478,-0.00736455,-0.0329301,-0.929364,-0.0817695,-0.0343553,-0.358352,1.0,0.0,0.0,0.0,0
36826761,0.108877,-0.0167085,-0.0324049,-0.928741,-0.0902769,-0.0371738,-0.357644,1.0,0.0,0.0,0.0,0
36929769,0.108247,-0.0125936,-0.0141736,-0.928674,-0.0926445,-0.0379519,-0.35713,1.0,0.0,0.0,0.0,0
37029739,0.162073,0.00559971,-0.0395578,-0.928008,-0.0998305,-0.0407863,-0.356611,1.0,0.0,0.0,0.0,0
37129735,0.102681,-0.00624827,-0.0153758,-0.927533,-0.105822,-0.0431855,-0.355837,1.0,0.0,0.0,0.0,0
37234760,0.0578407,-0.00686284,-0.00972111,-0.927397,-0.10779,-0.0436694,-0.355541,1.0,0.0,0.0,0.0,0
37333788,0.0459158,-0.0146975,-0.00351807,-0.927466,-0.107431,-0.0436618,-0.355471,1.0,0.0,0.0,0.0,0
37433744,0.0567512,-0.0182915,-0.0104485,-0.92768,-0.106897,-0.0434379,-0.355099,1.0,0.0,0.0,0.0,0
37539810,0.0366925,0.00464967,-0.0229323,-0.927778,-0.106845,-0.0431591,-0.354892,1.0,0.0,0.0,0.0,0
37637765,0.0371786,-0.00636688,-0.0262154,-0.927884,-0.106882,-0.0428909,-0.354639,1.0,0.0,0.0,0.0,0
37741750,0.00707119,-0.000330368,-0.00743861,-0.927951,-0.10692,-0.0428731,-0.354454,1.0,0.0,0.0,0.0,0
37842734,-0.0916116,-0.019624,-0.0164768,-0.92725,-0.104501,-0.0422372,-0.357077,1.0,0.0,0.0,0.0,0
37945942,-0.37276,-0.0164956,-0.0228413,-0.927073,-0.0936234,-0.0380236,-0.361006,1.0,0.0,0.0,0.0,0
38045797,-0.779845,-0.0272544,-0.0360378,-0.928751,-0.0631846,-0.0262155,-0.364339,1.0,0.0,0.0,0.0,0
38145801,-0.590112,-0.00147387,-0.05018,-0.930203,-0.0285834,-0.012888,-0.365705,1.0,0.0,0.0,0.0,0
38249733,-0.253361,-0.0278258,-0.0582563,-0.930865,-0.00912889,-0.00534958,-0.36521,1.0,0.0,0.0,0.0,0
38348530,-0.0644314,-0.0161926,-0.0650501,-0.931528,-0.00120937,-0.00232526,-0.363661,1.0,0.0,0.0,0.0,0
38452686,0.00126819,0.00430391,-0.0579901,-0.932228,-1.4016e-05,-0.00156639,-0.361869,1.0,0.0,0.0,0.0,0
38553734,0.0269794,-0.00450975,-0.0387122,-0.932909,-0.000168243,-0.00157339,-0.360107,1.0,0.0,0.0,0.0,0
38653786,0.036652,-0.03566,-0.0345731,-0.933566,-0.000177071,-0.00179277,-0.358401,1.0,0.0,0.0,0.0,0
38757811,-0.00434472,-0.0057165,-0.0184642,-0.934202,0.00060674,-0.00198822,-0.356739,1.0,0.0,0.0,0.0,0
38857739,-0.659262,0.0030829,-0.0257554,-0.934703,0.0150652,0.00289579,-0.355099,1.0,0.0,0.0,0.0,0
38957783,-1.20916,-0.0183167,-0.0242594,-0.933601,0.0602698,0.0198379,-0.352652,1.0,0.0,0.0,0.0,0
39061733,-1.2435,-0.0334102,0.00391518,-0.928348,0.121252,0.0433025,-0.348701,1.0,0.0,0.0,0.0,0
39161885,-0.944196,-0.052095,0.0133697,-0.920907,0.172085,0.0627192,-0.34407,1.0,0.0,0.0,0.0,0
39261787,-0.603221,-0.0393163,0.0273972,-0.913974,0.208212,0.0761768,-0.339847,1.0,0.0,0.0,0.0,0
39365749,-0.439177,-0.0609651,0.022135,-0.908721,0.23228,0.0849303,-0.336244,1.0,0.0,0.0,0.0,0
39466768,-0.424854,-0.0387016,0.0413676,-0.903666,0.253237,0.0923726,-0.332755,1.0,0.0,0.0,0.0,0
39569740,-0.252416,-0.0906244,0.0432909,-0.899398,0.270523,0.0984693,-0.328943,1.0,0.0,0.0,0.0,0
39669747,-0.0693609,-0.101216,0.0533856,-0.898059,0.278188,0.101198,-0.325361,1.0,0.0,0.0,0.0,0
39769790,0.0326398,-0.102375,0.0698792,-0.898289,0.280632,0.102104,-0.322332,1.0,0.0,0.0,0.0,0
39873742,0.20884,-0.100759,0.0862409,-0.899652,0.27983,0.101861,-0.31929,1.0,0.0,0.0,0.0,0
39973747,1.33164,-0.0959734,0.094097,-0.910041,0.248223,0.0901034,-0.319519,1.0,0.0,0.0,0.0,0
40074750,2.34015,-0.00184245,0.125821,-0.929784,0.163562,0.0594723,-0.324364,1.0,0.0,0.0,0.0,0
40177743,1.52458,-0.0209729,0.152221,-0.942084,0.0709665,0.0223766,-0.327017,1.0,0.0,0.0,0.0,0
40277826,0.649977,-0.0613558,0.149956,-0.944414,0.0256988,0.00554856,-0.327705,1.0,0.0,0.0,0.0,0
40381863,0.230429,-0.0267931,0.172521,-0.944272,0.00866092,0.00164261,-0.329048,1.0,0.0,0.0,0.0,0
40480861,0.103741,-0.00430468,0.176663,-0.943505,0.0040764,0.0023576,-0.331325,1.0,0.0,0.0,0.0,0
40584691,0.0818959,0.000186146,0.143982,-0.942399,0.00291431,0.00342885,-0.33446,1.0,0.0,0.0,0.0,0
40685843,0.041915,0.062608,0.148805,-0.941256,0.00292174,0.00343984,-0.337665,1.0,0.0,0.0,0.0,0
40785876,0.0195198,0.0445475,0.145538,-0.940218,0.00252926,0.0031801,-0.340549,1.0,0.0,0.0,0.0,0
40885776,0.0327832,0.0346096,0.132078,-0.939278,0.00232737,0.00230178,-0.343143,1.0,0.0,0.0,0.0,0
40989741,0.0136097,-0.185754,0.102045,-0.938368,0.00105532,0.00366875,-0.345618,1.0,0.0,0.0,0.0,0
41089760,0.062981,-1.02819,0.0768022,-0.93693,-0.0110401,0.0321464,-0.347861,1.0,0.0,0.0,0.0,0
41189879,0.291284,-1.21611,0.0535737,-0.932346,-0.038872,0.0851401,-0.349244,1.0,0.0,0.0,0.0,0
41294741,0.18788,-0.538444,0.051006,-0.925803,-0.0670765,0.123926,-0.350759,1.0,0.0,0.0,0.0,0
41394734,0.0340728,-0.0711496,0.0162425,-0.923078,-0.0740976,0.132583,-0.353353,1.0,0.0,0.0,0.0,0
41497747,0.524506,-0.204476,-0.00249319,-0.920577,-0.0850316,0.131153,-0.357919,1.0,0.0,0.0,0.0,0
41599817,0.914758,-0.288068,-0.0595755,-0.913517,-0.127709,0.127786,-0.364482,1.0,0.0,0.0,0.0,0
41693729,0.790996,-0.236727,-0.100539,-0.905923,-0.167911,0.121553,-0.369236,1.0,0.0,0.0,0.0,0
41802866,0.118528,-0.0787822,-0.109662,-0.901246,-0.192065,0.115186,-0.370945,1.0,0.0,0.0,0.0,0
41902753,-0.66982,0.226323,-0.11506,-0.907233,-0.167502,0.113045,-0.368906,1.0,0.0,0.0,0.0,0
42005731,-0.883829,0.819125,-0.116905,-0.91763,-0.116814,0.0984253,-0.36691,1.0,0.0,0.0,0.0,0
42106793,-0.637512,1.1993,-0.104829,-0.926941,-0.0543974,0.0570225,-0.366839,1.0,0.0,0.0,0.0,0
42205781,-0.201223,0.572235,-0.106543,-0.930052,-0.0157602,0.0191273,-0.366591,1.0,0.0,0.0,0.0,0
42309735,-0.0587408,0.120977,-0.102609,-0.930866,-0.000171828,0.0021095,-0.365356,1.0,0.0,0.0,0.0,0
42409732,0.0151109,-0.0557364,-0.067645,-0.931389,0.00470445,-0.00283583,-0.363984,1.0,0.0,0.0,0.0,0
42509372,0.0603809,-0.0917334,-0.0691478,-0.932171,0.00563474,-0.00304102,-0.361961,1.0,0.0,0.0,0.0,0
42612432,0.0611652,-0.0713311,-0.0663721,-0.932933,0.00560396,-0.00219352,-0.36,1.0,0.0,0.0,0.0,0
42716512,0.0830258,-0.0653006,-0.0429236,-0.933659,0.00486883,-0.00133004,-0.358128,1.0,0.0,0.0,0.0,0
42817750,0.050789,-0.0419023,-0.0274988,-0.934277,0.00401902,-0.00130478,-0.356524,1.0,0.0,0.0,0.0,0
42917597,0.0504417,0.0160829,-0.026882,-0.934733,0.00354085,-0.00103241,-0.355333,1.0,0.0,0.0,0.0,0
43017615,-0.249025,-0.242148,-0.0198522,-0.934908,0.00851285,0.00692768,-0.354721,1.0,0.0,0.0,0.0,0
43121688,-0.58574,-0.534589,-0.0119828,-0.934123,0.0243137,0.0342573,-0.35447,1.0,0.0,0.0,0.0,0
43221729,-0.904089,-0.819724,-0.0157764,-0.930789,0.0497683,0.0788573,-0.353464,1.0,0.0,0.0,0.0,0
43321607,-1.22388,-1.06007,-0.00372077,-0.921887,0.0850395,0.140619,-0.350882,1.0,0.0,0.0,0.0,0
43426631,-1.57256,-1.33409,0.0214773,-0.902084,0.13209,0.223552,-0.344705,1.0,0.0,0.0,0.0,0
43526594,-1.87749,-1.59665,0.0103235,-0.868157,0.185149,0.317599,-0.333399,1.0,0.0,0.0,0.0,0
43629602,-2.21817,-1.86474,0.00684441,-0.811512,0.246382,0.426514,-0.314373,1.0,0.0,0.0,0.0,0
43729602,-2.53269,-2.1118,0.0156879,-0.72985,0.308992,0.538696,-0.285744,1.0,0.0,0.0,0.0,0
43829611,-2.85314,-2.41059,0.0253987,-0.616542,0.370763,0.649732,-0.245477,1.0,0.0,0.0,0.0,0
43933611,-3.17432,-2.66977,0.0225274,-0.461705,0.428046,0.753597,-0.188935,1.0,0.0,0.0,0.0,0
44033597,-3.47123,-2.94531,0.0398385,-0.276914,0.46999,0.829371,-0.120717,1.0,0.0,0.0,0.0,0
44137617,-3.81063,-3.26109,0.012139,-0.051521,0.491869,0.868347,-0.0372126,1.0,0.0,0.0,0.0,0
44237597,-4.12862,-3.49217,0.021984,0.186904,0.484382,0.853136,0.0509955,1.0,0.0,0.0,0.0,0
44337614,-4.43489,-3.79244,0.0392063,0.430757,0.441803,0.774375,0.14001,1.0,0.0,0.0,0.0,0
44437609,-4.72392,-4.04428,0.0590232,0.65694,0.359203,0.625201,0.220289,1.0,0.0,0.0,0.0,0
44541797,-5.06035,-4.36214,0.0476937,0.842791,0.229151,0.395934,0.2836,1.0,0.0,0.0,0.0,0
44640943,-5.3363,-4.61296,0.0414693,0.939184,0.0689059,0.120798,0.313995,1.0,0.0,0.0,0.0,0
44744584,-5.65566,-4.92096,0.0481462,0.923197,-0.121218,-0.198072,0.306236,1.0,0.0,0.0,0.0,0
44845714,-5.94858,-5.21153,0.0687532,0.771077,-0.302933,-0.497464,0.257296,1.0,0.0,0.0,0.0,0
44945626,-6.24065,-5.52135,0.051515,0.488702,-0.44572,-0.730248,0.171003,1.0,0.0,0.0,0.0,0
45049607,-6.54092,-5.8219,0.0676894,0.0882155,-0.5171,-0.84975,0.052446,1.0,0.0,0.0,0.0,0
45149654,-6.81495,-6.13962,0.0660053,-0.33539,-0.483048,-0.805687,-0.0710368,1.0,0.0,0.0,0.0,0
45253610,-7.08716,-6.44995,0.0894999,-0.719302,-0.33217,-0.580998,-0.186307,1.0,0.0,0.0,0.0,0
45353605,-7.38139,-6.75615,0.0878447,-0.934462,-0.0980468,-0.221594,-0.260888,1.0,0.0,0.0,0.0,0
45453604,-7.65697,-7.0559,0.0905882,-0.921974,0.170171,0.205617,-0.280583,1.0,0.0,0.0,0.0,0
45557594,-7.92165,-7.40927,0.106433,-0.642046,0.404803,0.60823,-0.23231,1.0,0.0,0.0,0.0,0
45657594,-8.16243,-7.72848,0.0903476,-0.169415,0.507895,0.835425,-0.124125,1.0,0.0,0.0,0.0,0
45761617,-8.45565,-8.0877,0.109098,0.392406,0.43626,0.809128,0.0317259,1.0,0.0,0.0,0.0,0
45861659,-8.68778,-8.41773,0.0927618,0.814671,0.207168,0.509201,0.184681,1.0,0.0,0.0,0.0,0
45961614,-8.9446,-8.76084,0.123453,0.950903,-0.100848,0.0169518,0.292105,1.0,0.0,0.0,0.0,0
46065610,-9.18204,-9.11784,0.0879037,0.705399,-0.369851,-0.521966,0.305246,1.0,0.0,0.0,0.0,0
46166606,-9.41126,-9.44642,0.125318,0.160729,-0.45688,-0.853033,0.194322,1.0,0.0,0.0,0.0,0
46265604,-9.64262,-9.82216,0.136329,-0.450761,-0.325167,-0.831211,-0.0129815,1.0,0.0,0.0,0.0,0
46369615,-9.84313,-10.1921,0.118951,-0.873424,-0.0243516,-0.411072,-0.259917,1.0,0.0,0.0,0.0,0
46471598,-10.0725,-10.5904,0.137192,-0.842413,0.258193,0.231939,-0.412165,1.0,0.0,0.0,0.0,0
46568360,-10.2801,-10.9578,0.147794,-0.395322,0.352135,0.765583,-0.365519,1.0,0.0,0.0,0.0,0
46673617,-10.4596,-11.3534,0.14016,0.299344,0.203237,0.929034,-0.0773514,1.0,0.0,0.0,0.0,0
46776462,-10.6398,-11.7364,0.13528,0.773336,-0.0803107,0.539053,0.323921,1.0,0.0,0.0,0.0,0
46877613,-10.8318,-12.1416,0.167581,0.741745,-0.239718,-0.189273,0.597097,1.0,0.0,0.0,0.0,0
46977625,-10.9897,-12.544,0.14526,0.261332,-0.1149,-0.819789,0.496436,1.0,0.0,0.0,0.0,0
47077674,-11.162,-12.9497,0.163742,-0.304692,0.178672,-0.935208,-0.0250027,1.0,0.0,0.0,0.0,0
47182720,-11.2893,-13.3854,0.161315,-0.551583,0.296608,-0.391669,-0.674073,1.0,0.0,0.0,0.0,0
47282598,-11.4273,-13.7753,0.167668,-0.316698,-0.00264084,0.366639,-0.874798,1.0,0.0,0.0,0.0,0
47385618,-11.5577,-14.2404,0.173532,0.0451081,-0.549821,0.756534,-0.351166,1.0,0.0,0.0,0.0,0
47486604,-11.6598,-14.6646,0.192427,0.0517634,-0.670765,0.511544,0.534526,1.0,0.0,0.0,0.0,0
47584490,-11.758,-15.0953,0.19006,-0.226484,-0.0760704,0.0415359,0.970151,1.0,0.0,0.0,0.0,0
47689606,-11.8676,-15.5634,0.208954,-0.250104,0.810611,-0.080266,0.52337,1.0,0.0,0.0,0.0,0
47789725,-11.9442,-16.0113,0.180155,0.27114,0.922033,-0.0582104,-0.270091,1.0,0.0,0.0,0.0,0
47889624,-11.9979,-16.4428,0.201537,0.315114,0.151041,-0.120684,-0.929153,1.0,0.0,0.0,0.0,0
47994615,-12.0521,-16.9265,0.204097,-0.0377887,-0.678298,0.375773,-0.630301,1.0,0.0,0.0,0.0,0
48093605,-12.0903,-17.3908,0.209992,0.00906646,-0.58128,0.751398,0.312142,1.0,0.0,0.0,0.0,0
48197699,-12.0886,-17.8897,0.217848,0.099217,-0.0128761,0.137369,0.985454,1.0,0.0,0.0,0.0,0
48297605,-12.1195,-18.3443,0.219078,-0.0550969,0.812339,-0.353187,0.460792,1.0,0.0,0.0,0.0,0
48397655,-12.1153,-18.8091,0.233045,0.15966,0.781706,-0.0751683,-0.598159,1.0,0.0,0.0,0.0,0
48501605,-12.0837,-19.2863,0.215089,0.419861,-0.250128,0.151339,-0.859214,1.0,0.0,0.0,0.0,0
48601608,-12.0387,-19.8093,0.234371,0.0103995,-0.908917,0.412555,-0.0596688,1.0,0.0,0.0,0.0,0
48702638,-11.9974,-20.2841,0.238523,0.0210513,-0.217257,0.381839,0.898084,1.0,0.0,0.0,0.0,0
48805607,-11.9165,-20.7929,0.225599,0.346606,0.620315,-0.317903,0.627704,1.0,0.0,0.0,0.0,0
48904520,-11.8353,-21.2776,0.240008,0.0150381,0.723475,-0.486593,-0.489475,1.0,0.0,0.0,0.0,0
49008758,-11.7216,-21.7884,0.242551,0.100141,-0.169459,0.293114,-0.935596,1.0,0.0,0.0,0.0,0
49110798,-11.5938,-22.2979,0.238496,0.468191,-0.834565,0.28983,0.0172549,1.0,0.0,0.0,0.0,0
49209731,-11.4511,-22.7943,0.257722,0.0173819,-0.4785,-0.389402,0.78683,1.0,0.0,0.0,0.0,0
49313601,-11.2862,-23.3023,0.277889,-0.325238,0.763487,-0.395549,0.393508,1.0,0.0,0.0,0.0,0
49414646,-11.1121,-23.8233,0.277993,0.089246,0.527991,-0.108837,-0.837505,1.0,0.0,0.0,0.0,0
49513617,-10.9072,-24.3124,0.254962,0.0084697,-0.756303,0.00742538,-0.654124,1.0,0.0,0.0,0.0,0
49617725,-10.6622,-24.8336,0.275071,-0.532372,-0.61033,0.352604,0.468773,1.0,0.0,0.0,0.0,0
49717611,-10.4549,-25.3269,0.274481,0.00596044,0.425765,0.636252,0.643329,1.0,0.0,0.0,0.0,0
49817726,-10.1692,-25.8349,0.27819,0.849698,0.51633,0.0466959,0.0961061,1.0,0.0,0.0,0.0,0
49921612,-9.89787,-26.338,0.272932,0.491968,-0.0686556,-0.843504,-0.204339,1.0,0.0,0.0,0.0,0
50022597,-9.59026,-26.8442,0.304719,-0.601452,-0.234649,-0.724877,-0.240309,1.0,0.0,0.0,0.0,0
50121605,-9.26823,-27.3268,0.280978,-0.934507,-0.0589746,0.298966,-0.183952,1.0,0.0,0.0,0.0,0
50226597,-8.91718,-27.8179,0.316906,0.00675457,0.0854108,0.996321,-0.00207807,1.0,0.0,0.0,0.0,0
50326693,-8.53414,-28.3056,0.291168,0.93645,-0.0460367,0.298627,0.178224,1.0,0.0,0.0,0.0,0
50429599,-8.13595,-28.7879,0.308519,0.438294,-0.140468,-0.853808,0.243269,1.0,0.0,0.0,0.0,0
50529601,-7.72287,-29.2524,0.298712,-0.78211,0.117531,-0.610782,0.0378923,1.0,0.0,0.0,0.0,0
50633604,-7.28411,-29.7349,0.328435,-0.58212,0.315738,0.694646,-0.280915,1.0,0.0,0.0,0.0,0
50734635,-6.8519,-30.1717,0.336168,0.730636,-0.08146,0.628684,-0.253559,1.0,0.0,0.0,0.0,0
50833598,-6.36139,-30.5962,0.332047,0.617652,-0.452019,-0.628798,0.137104,1.0,0.0,0.0,0.0,0
50937611,-5.81993,-31.0316,0.320775,-0.746776,-0.0566155,-0.554613,0.362664,1.0,0.0,0.0,0.0,0
51036583,-5.3029,-31.4535,0.331301,-0.553175,0.475766,0.682983,0.0343318,1.0,0.0,0.0,0.0,0
51140517,-4.75931,-31.8928,0.328594,0.8041,0.172087,0.447531,-0.351462,1.0,0.0,0.0,0.0,0
51241608,-4.17479,-32.2436,0.339471,0.413588,-0.426297,-0.791826,-0.142224,1.0,0.0,0.0,0.0,0
51342597,-3.5776,-32.6342,0.340501,-0.875035,-0.215765,-0.322036,0.289919,1.0,0.0,0.0,0.0,0
51445620,-2.96683,-33.0118,0.362336,-0.237999,0.331434,0.90074,0.148916,1.0,0.0,0.0,0.0,0
51545708,-2.31151,-33.3396,0.335989,0.95274,0.157353,0.145239,-0.215481,1.0,0.0,0.0,0.0,0
51646643,-1.66285,-33.6406,0.378825,0.0449476,-0.232621,-0.966027,-0.103239,1.0,0.0,0.0,0.0,0
51749751,-0.951777,-33.9531,0.387136,-0.976063,-0.0659701,0.11927,0.169479,1.0,0.0,0.0,0.0,0
51849611,-0.259903,-34.2449,0.36079,0.234485,0.166884,0.957683,0.00329595,1.0,0.0,0.0,0.0,0
51949615,0.44104,-34.4891,0.391013,0.918243,-0.031913,-0.366591,-0.146366,1.0,0.0,0.0,0.0,0
52054642,1.21771,-34.7623,0.358909,-0.570683,-0.102915,-0.806191,0.117416,1.0,0.0,0.0,0.0,0
52154608,1.96681,-34.9536,0.386562,-0.69464,0.116749,0.702767,0.0998178,1.0,0.0,0.0,0.0,0
52257619,2.77872,-35.1529,0.39813,0.831418,0.0331263,0.511471,-0.214579,1.0,0.0,0.0,0.0,0
52357622,3.5893,-35.329,0.382569,0.335313,-0.150556,-0.92974,-0.0219361,1.0,0.0,0.0,0.0,0
52458615,4.39249,-35.4776,0.391781,-0.955755,0.0256406,-0.112523,0.270578,1.0,0.0,0.0,0.0,0
52561611,5.2725,-35.5749,0.40144,0.145895,0.136419,0.975021,-0.0971499,1.0,0.0,0.0,0.0,0
52661621,6.10483,-35.6468,0.402732,0.880791,-0.0820768,-0.382587,-0.266642,1.0,0.0,0.0,0.0,0
52761623,6.95668,-35.6891,0.418963,-0.557177,-0.0974609,-0.792912,0.226596,1.0,0.0,0.0,0.0,0
52866619,7.88175,-35.6971,0.410044,-0.526209,0.124211,0.82538,0.162555,1.0,0.0,0.0,0.0,0
52965614,8.76709,-35.7269,0.429911,0.872583,0.0274571,0.330794,-0.358358,1.0,0.0,0.0,0.0,0
53066004,9.64563,-35.6538,0.423225,0.0699423,-0.139581,-0.987666,0.0118644,1.0,0.0,0.0,0.0,0
53169740,10.6108,-35.5655,0.447029,-0.87564,0.0576262,0.280933,0.388601,1.0,0.0,0.0,0.0,0
53272589,11.5621,-35.4384,0.429726,0.518532,0.102858,0.799988,-0.283838,1.0,0.0,0.0,0.0,0
53373620,12.4718,-35.2825,0.439601,0.515341,-0.185006,-0.788056,-0.281363,1.0,0.0,0.0,0.0,0
53473615,13.4302,-35.0885,0.445208,-0.745153,-0.0656637,-0.312029,0.585724,1.0,0.0,0.0,0.0,0
53573622,14.3516,-34.8465,0.453624,-0.0373394,0.333969,0.941638,-0.0197088,1.0,0.0,0.0,0.0,0
53677604,15.3139,-34.5492,0.449131,0.668894,-0.149858,-0.338371,-0.644692,1.0,0.0,0.0,0.0,0
53777741,16.2598,-34.2342,0.471491,-0.42284,-0.255692,-0.715241,0.494225,1.0,0.0,0.0,0.0,0
53877646,17.2017,-33.8914,0.440615,-0.374381,0.319804,0.798588,0.346154,1.0,0.0,0.0,0.0,0
53982615,18.1796,-33.4844,0.472039,0.656834,-0.000398338,0.108121,-0.746243,1.0,0.0,0.0,0.0,0
54077607,19.0594,-33.0556,0.468855,-0.051092,-0.322354,-0.934209,0.143985,1.0,0.0,0.0,0.0,0
54185725,20.066,-32.5492,0.471072,-0.535975,0.219545,0.55684,0.595366,1.0,0.0,0.0,0.0,0
54285725,20.9998,-32.0232,0.477698,0.49508,0.143422,0.532752,-0.671193,1.0,0.0,0.0,0.0,0
54385614,21.9066,-31.4408,0.496435,0.181212,-0.31116,-0.919498,-0.157688,1.0,0.0,0.0,0.0,0
54490644,22.8386,-30.811,0.490329,-0.578387,0.0903023,0.188077,0.788632,1.0,0.0,0.0,0.0,0
54589608,23.732,-30.1697,0.474054,0.256876,0.253569,0.819403,-0.445305,1.0,0.0,0.0,0.0,0
54689607,24.6141,-29.449,0.486174,0.356041,-0.248682,-0.734558,-0.52136,1.0,0.0,0.0,0.0,0
54794611,25.4968,-28.679,0.501667,-0.480723,-0.0645452,-0.225465,0.844929,1.0,0.0,0.0,0.0,0
54894612,26.3287,-27.8864,0.502581,0.0240046,0.322981,0.939159,-0.114399,1.0,0.0,0.0,0.0,0
54997613,27.1571,-27.0266,0.511037,0.391309,-0.174019,-0.464004,-0.775432,1.0,0.0,0.0,0.0,0
55098724,27.9271,-26.161,0.51035,-0.2926,-0.202704,-0.598368,0.717811,1.0,0.0,0.0,0.0,0
55196554,28.6907,-25.2449,0.503641,-0.165892,0.313453,0.87289,0.335096,1.0,0.0,0.0,0.0,0
55300615,29.4447,-24.2451,0.520097,0.351133,-0.0264314,-0.0284763,-0.935519,1.0,0.0,0.0,0.0,0
55401605,30.1044,-23.2538,0.523422,-0.0930848,-0.299265,-0.873603,0.372282,1.0,0.0,0.0,0.0,0
55501733,23.7313,-14.956,0.530643,-0.261161,0.148187,0.478862,0.82494,1.0,0.0,0.0,0.0,0
55602731,14.8399,-4.78884,0.514366,-0.107634,0.231279,0.964626,-0.066494,1.0,0.0,0.0,0.0,0
55706735,4.0247,0.954159,0.450087,-0.129657,0.178536,0.835781,-0.502776,1.0,0.0,0.0,0.0,0
55805763,2.33188,0.853935,0.32124,-0.178505,0.211908,0.745191,-0.606566,1.0,0.0,0.0,0.0,0
55910742,2.19978,0.267814,0.271301,-0.233434,0.256968,0.647916,-0.677998,1.0,0.0,0.0,0.0,0
56010732,2.33061,-0.275386,0.36189,-0.273372,0.260007,0.552251,-0.743427,1.0,0.0,0.0,0.0,0
56113837,2.22939,-0.0649692,0.458606,-0.276709,0.196048,0.461476,-0.819779,1.0,0.0,0.0,0.0,0
56214740,2.26038,0.512339,0.45912,-0.235851,0.102795,0.365611,-0.894503,1.0,0.0,0.0,0.0,0
56313721,2.18917,0.912897,0.312007,-0.165195,0.0327118,0.253169,-0.952652,1.0,0.0,0.0,0.0,0
56417752,1.78317,1.35715,-0.132421,-0.0874374,0.0020654,0.17156,-0.981284,1.0,0.0,0.0,0.0,0
56517842,0.482267,0.907606,-0.385526,-0.023876,0.0243615,0.115953,-0.992669,1.0,0.0,0.0,0.0,0
56618782,-0.0138616,0.407006,-0.668889,0.0126401,0.0569126,0.0914643,-0.9941,1.0,0.0,0.0,0.0,0
56722850,-0.0690212,0.00640778,-0.903606,0.0141143,0.0822596,0.087369,-0.992674,1.0,0.0,0.0,0.0,0
56821797,-0.153272,-0.283677,-1.03872,-0.0137454,0.0920774,0.0897172,-0.991607,1.0,0.0,0.0,0.0,0
56922734,-0.1654,-0.35879,-1.04285,-0.0612637,0.0894035,0.0918937,-0.989853,1.0,0.0,0.0,0.0,0
57026879,-0.122535,-0.339275,-0.901307,-0.118829,0.082646,0.0876303,-0.985581,1.0,0.0,0.0,0.0,0
57126721,0.0895738,-0.235127,-0.659603,-0.17241,0.0751254,0.07751,-0.979093,1.0,0.0,0.0,0.0,0
57230729,0.12785,-0.168416,-0.342225,-0.22114,0.0656629,0.0634681,-0.970957,1.0,0.0,0.0,0.0,0
57330744,-0.121189,0.0211339,-0.096439,-0.25405,0.0646448,0.0574585,-0.963316,1.0,0.0,0.0,0.0,0
57433733,-0.166299,0.0306257,0.107539,-0.271558,0.0668689,0.0575891,-0.958368,1.0,0.0,0.0,0.0,0
57532854,-0.118486,-0.0446819,0.240948,-0.272401,0.0690368,0.0601635,-0.957816,1.0,0.0,0.0,0.0,0
57636928,-0.082844,-0.0421305,0.324782,-0.259968,0.0702475,0.0634777,-0.960964,1.0,0.0,0.0,0.0,0
57737753,-0.0418771,-0.0849603,0.3383,-0.240533,0.0706902,0.0662924,-0.965791,1.0,0.0,0.0,0.0,0
57837734,-0.0452896,-0.0906299,0.313437,-0.219259,0.0702204,0.068774,-0.970703,1.0,0.0,0.0,0.0,0
57938732,-0.042877,-0.0456999,0.261695,-0.200213,0.0691801,0.0704417,-0.974765,1.0,0.0,0.0,0.0,0
58042761,0.00833008,-0.033324,0.169697,-0.185231,0.0676197,0.0713714,-0.977764,1.0,0.0,0.0,0.0,0
58141734,0.0160516,-0.0311539,0.0863096,-0.175838,0.0662555,0.071809,-0.979558,1.0,0.0,0.0,0.0,0
58241717,0.0170914,-0.0520866,0.0169586,-0.170849,0.0648772,0.0722032,-0.980504,1.0,0.0,0.0,0.0,0
58346743,-0.0112188,-0.0516281,-0.0274094,-0.169628,0.0642752,0.0726993,-0.980719,1.0,0.0,0.0,0.0,0
58445908,-0.0104766,-0.00968453,-0.0403859,-0.170956,0.0637016,0.0726875,-0.980527,1.0,0.0,0.0,0.0,0
58546756,-0.0102776,0.0376055,-0.0685923,-0.173846,0.0637064,0.0726509,-0.980021,1.0,0.0,0.0,0.0,0
58649763,-0.0195432,0.0257578,-0.0155979,-0.17475,0.0642682,0.0728174,-0.979811,1.0,0.0,0.0,0.0,0
58750755,-0.00547125,0.0190256,-0.0142031,-0.175215,0.0652858,0.0727973,-0.979662,1.0,0.0,0.0,0.0,0
58854735,-0.0106251,0.0179243,-0.0221629,-0.175703,0.0662721,0.0728836,-0.979502,1.0,0.0,0.0,0.0,0
58954755,-0.00859498,0.00260822,0.000738329,-0.175999,0.0672068,0.0730182,-0.979375,1.0,0.0,0.0,0.0,0
59054784,-0.0158247,0.00868034,-0.00743854,-0.176777,0.067948,0.0731075,-0.979177,1.0,0.0,0.0,0.0,0
59157801,-0.0136355,-0.00472376,0.00675716,-0.177267,0.0689193,0.0731968,-0.979014,1.0,0.0,0.0,0.0,0
59258851,-0.0121472,0.0304096,-0.00639857,-0.177264,0.0701622,0.073372,-0.978913,1.0,0.0,0.0,0.0,0
59357851,0.00941307,0.0136515,0.00259777,-0.170279,0.0727865,0.0737776,-0.979931,1.0,0.0,0.0,0.0,0
59462738,0.00243026,0.020214,-0.0113326,-0.156865,0.0768151,0.0748103,-0.981782,1.0,0.0,0.0,0.0,0
59561766,-0.000285923,0.0412335,-0.0113368,-0.142117,0.081131,0.0759351,-0.983593,1.0,0.0,0.0,0.0,0
59664995,-0.00266474,0.0111105,0.00066852,-0.128637,0.0849897,0.077091,-0.985031,1.0,0.0,0.0,0.0,0
59766742,0.0114949,0.0195785,0.00101203,-0.118772,0.088184,0.0777803,-0.985935,1.0,0.0,0.0,0.0,0
59869731,0.00197663,0.00900282,0.0101458,-0.111851,0.0905795,0.0784404,-0.986475,1.0,0.0,0.0,0.0,0
59969805,-0.00587737,0.0259494,-0.0158288,-0.107973,0.092357,0.0789712,-0.986699,1.0,0.0,0.0,0.0,0
60071744,-0.0120621,0.0153118,-0.0140514,-0.105722,0.0938216,0.07951,-0.986762,1.0,0.0,0.0,0.0,0
60170739,0.00137958,0.0126222,-0.00800066,-0.104608,0.0951291,0.0798992,-0.986724,1.0,0.0,0.0,0.0,0
60274927,-0.0079953,0.0213451,-0.00164849,-0.104129,0.0963574,0.0803603,-0.986618,1.0,0.0,0.0,0.0,0
60374739,-0.00452977,0.0207272,-0.00041391,-0.104122,0.0975855,0.0808368,-0.986459,1.0,0.0,0.0,0.0,0
60478754,-0.00411254,0.0146877,-0.00547357,-0.104119,0.0985336,0.0815764,-0.986304,1.0,0.0,0.0,0.0,0
60578878,0.016684,0.0204717,-0.0101679,-0.104321,0.0996485,0.082062,-0.98613,1.0,0.0,0.0,0.0,0
60678798,-0.00184041,0.0221043,-0.00657066,-0.104526,0.100714,0.0827786,-0.985941,1.0,0.0,0.0,0.0,0
60782877,-0.00588282,0.0328899,-0.0161576,-0.104557,0.101732,0.0835074,-0.985771,1.0,0.0,0.0,0.0,0
60882731,-0.0112794,0.029672,-0.0138423,-0.104567,0.102677,0.0838089,-0.985647,1.0,0.0,0.0,0.0,0
60985736,-0.000977259,0.0295262,0.0134653,-0.104937,0.103807,0.0845361,-0.985427,1.0,0.0,0.0,0.0,0
61085710,0.0030873,-0.000286158,0.000703601,-0.105279,0.104756,0.0850411,-0.985246,1.0,0.0,0.0,0.0,0
61189708,-0.00970041,0.0142298,-0.00358222,-0.105694,0.105763,0.085686,-0.985039,1.0,0.0,0.0,0.0,0
61289699,-0.0093004,0.0255456,0.0106636,-0.106091,0.10675,0.0862787,-0.984838,1.0,0.0,0.0,0.0,0
61389702,0.00163484,0.0203438,-0.0223604,-0.106432,0.107567,0.0870002,-0.984648,1.0,0.0,0.0,0.0,0
61490794,-0.00573595,0.0168562,-0.0100178,-0.106742,0.108502,0.0877217,-0.984448,1.0,0.0,0.0,0.0,0
61594743,-0.00737665,0.000262501,-0.0154734,-0.107061,0.109334,0.0887079,-0.984233,1.0,0.0,0.0,0.0,0
61692974,-0.00953594,-0.00135018,0.00660181,-0.107336,0.11026,0.089283,-0.984048,1.0,0.0,0.0,0.0,0
61796918,0.00826234,0.0317188,0.000600731,-0.106039,0.111453,0.0900771,-0.983982,1.0,0.0,0.0,0.0,0
61898769,-0.00492797,0.0184045,0.00589959,-0.102504,0.112921,0.0911706,-0.984088,1.0,0.0,0.0,0.0,0
62001708,-0.0113559,0.0239394,-0.00434978,-0.0967679,0.114567,0.0925251,-0.984352,1.0,0.0,0.0,0.0,0
