timestamp,roll,pitch,yaw,thrust
62402607,0.0201236,-0.0116773,-7.78824e-06,0.0
62528491,0.0188772,-0.01323,-8.28129e-06,0.0
62625710,0.017734,-0.0152705,-8.96928e-06,0.0
62728443,0.0197711,-0.0132871,-8.70569e-06,0.0
62832297,0.0197699,-0.0124273,-8.14447e-06,0.0
62934498,0.0204406,-0.0111442,-7.54925e-06,0.0
63033510,0.0180754,-0.0102755,-6.16478e-06,0.0
63133529,0.017906,-0.00990289,-5.871e-06,0.0
63237511,0.0185325,-0.0114538,-7.02915e-06,0.0
63338501,0.0186356,-0.0106108,-6.55685e-06,0.0
63441545,0.0194976,-0.0116162,-7.50946e-06,0.0
63542536,0.0185367,-0.0124191,-7.62522e-06,0.0
63642536,0.0187612,-0.0137461,-8.54144e-06,0.0
63741525,0.0196049,-0.0136052,-8.82782e-06,0.0
63844351,0.0179097,-0.0145317,-8.62072e-06,0.0
63949492,0.0197983,-0.0171772,-1.12695e-05,0.0
64049471,0.0195662,-0.0177429,-1.15025e-05,0.0
64149585,0.0189199,-0.0187569,-1.17623e-05,0.0
64249472,0.0195059,-0.0188961,-1.2217e-05,0.131591
64354483,0.0181686,-0.0142521,-0.0010339,0.474996
64454484,0.021776,-0.011725,-0.00149024,0.482694
64557572,0.0216726,-0.0098716,-0.00227201,0.467829
64658485,0.0229743,-0.00944335,-0.00208767,0.467454
64761519,0.0233651,-0.0118947,-0.00278966,0.467455
64860372,0.0245395,-0.0120357,0.157303,0.537612
64964393,0.0053496,-0.00573057,0.269284,0.675319
65065486,-0.0087855,-0.000760301,0.0977738,0.672535
65165475,-0.0134826,-7.69004e-05,0.0651169,0.672582
65266488,-0.0145434,0.00169314,0.0410246,0.698713
65369483,-0.00772975,0.00329007,0.0155058,0.704659
65470579,0.00252281,0.00290079,-0.00391837,0.705181
65572472,0.00542802,0.00597325,-0.0146684,0.704068
65670487,0.00354237,0.000981607,-0.0195998,0.696717
65774472,-0.268628,0.323283,-0.0204008,0.698134
65874507,0.177285,-0.221027,-0.0180568,0.698567
65977510,0.124803,-0.200218,-0.0999279,0.698683
66078485,0.0559537,-0.0882263,-0.364089,0.698921
66181483,0.0135285,-0.0257233,-0.34736,0.699057
66281475,0.00169747,-0.00818432,-0.151397,0.69858
66381534,-0.00657957,0.00132479,-0.0937585,0.698399
66485515,-0.00712037,0.0022665,-0.0383492,0.698516
66586517,-0.00514662,0.000267437,0.000469515,0.698233
66686540,-0.25996,-0.00122061,0.0276636,0.699027
66790479,-0.457929,-0.00456529,0.0430555,0.69841
66889173,-0.120437,-0.00234366,0.0469426,0.698999
66992777,0.454271,0.00583672,0.0447236,0.697896
67094485,0.191731,0.0102269,0.0368153,0.698618
67194487,0.059579,0.00887258,0.0281603,0.698605
67297565,-0.0530112,0.00256914,0.0184634,0.698714
67398487,0.00462573,0.00372601,-0.275844,0.698171
67498485,-0.0128518,0.00602697,-0.741125,0.698802
67602502,-0.00787698,0.00426886,-0.890296,0.698518
67698602,-0.00259742,0.00275886,-0.388886,0.698713
67806503,-0.0300808,-0.0184494,-0.135921,0.698568
67906486,-0.0167262,-0.0151828,0.0181009,0.69874
68005502,-0.00594361,-0.00597423,0.0492326,0.699201
68110491,0.00196149,0.00297514,0.0868398,0.698864
68210507,0.00622241,0.00412341,0.103402,0.738231
68310488,0.00529373,0.000746733,0.100262,0.771675
68414472,0.00189316,-0.00100178,0.0862365,0.778496
68514539,-0.000132116,-0.00267915,0.0676289,0.779654
68618485,-0.000567345,-0.00158864,0.0460613,0.801834
68718494,-0.0016616,-0.0106287,0.0266169,0.877092
68819482,-0.00208794,-0.0155451,0.0105786,0.942077
68922489,0.00111244,-0.0160078,0.000587297,0.9667
69020837,0.00394409,-0.40691,-0.0118482,0.964731
69124837,0.00254019,-0.921663,-0.0182089,0.962928
69226472,0.00683228,-0.233395,-0.0201078,0.962676
69325484,0.00643677,0.0750783,-0.0193346,0.963157
69429509,0.00477382,0.06474,-0.0170647,0.962927
69530490,0.00368756,0.0288203,-0.0133937,0.96276
69630488,6.40499e-05,0.00313138,-0.0122061,0.962957
69734638,0.000639463,-0.0197483,-0.00951274,0.963103
69834494,-0.00202844,-0.144585,-0.00720165,0.963021
69934500,-0.0125849,-0.194297,-0.0052138,0.96248
70038485,-0.0121375,-0.160292,-0.00317133,0.962729
70138489,-0.00293527,-0.090947,-0.00307403,0.956196
70238492,-0.000445719,-0.0376442,-0.00177235,0.909321
70342499,-0.00244883,-0.0210881,-0.0019987,0.909089
70442488,-0.0029426,-0.0201999,-0.00156314,0.888679
70546488,-0.00461167,0.00100928,-0.00198088,0.846838
70646487,0.00163981,-0.0118631,-0.0025777,0.827574
70746497,0.00213382,-0.00897695,-0.00350447,0.805988
70850472,0.00724442,-0.0394172,-0.00342855,0.7835
70952489,0.00354183,-0.10974,-0.00396404,0.771347
71052748,-0.0406729,-0.0937685,-0.00271448,0.769155
71154475,-0.206526,-0.0584391,0.00747324,0.748232
71254484,-0.136984,-0.156762,0.00826601,0.748392
71358488,0.0494779,-0.314594,-0.00348597,0.746054
71458501,0.0968371,-0.194136,-0.010232,0.746541
71558485,0.155805,-0.255471,-0.0208622,0.745997
71662503,0.0628959,-0.250534,-0.0194509,0.746569
71762488,0.0201204,-0.195645,-0.0173511,0.746313
71866546,0.0015752,-0.153159,-0.0144233,0.746573
71966487,-0.00584697,-0.153362,-0.0107364,0.746549
72066491,-0.00352965,-0.131868,-0.00820651,0.746548
72170483,0.000773304,-0.111023,-0.00578316,0.746066
72270488,0.0010439,-0.0587272,-0.00517825,0.746575
72370662,0.00417034,-0.0220556,-0.00241836,0.722055
72474481,0.00101887,0.00730586,0.000725336,0.716102
72574486,0.0270001,0.0107125,0.0366373,0.693263
72674504,0.0276459,0.00697612,0.0398728,0.692534
72778483,0.0268345,0.0107998,0.0433781,0.646427
72878540,0.0124311,0.000254063,0.0298643,0.609536
72982548,0.00440948,-0.0131185,0.0134882,0.562679
73080739,0.00125481,-0.0116915,0.00650322,0.525458
73184957,-0.00759844,-0.0084923,0.000865412,0.526615
73286486,-0.00511643,-0.0235569,-0.002817,0.52622
73386517,0.00109509,-0.0430103,-0.00624024,0.525786
73490492,0.00288414,-0.187992,-0.00614461,0.525722
73590490,0.00222198,-0.116933,-0.00616191,0.525676
73690474,0.00159065,-0.057413,-0.00564602,0.5189
73794539,0.00034463,-0.122456,-0.00467178,0.500558
73894486,0.00715456,-0.138425,-0.00339015,0.500974
73994483,0.00324783,-0.10275,-0.00152563,0.500986
74098516,0.00213368,-0.074219,-0.000982807,0.500986
74198520,0.00312098,-0.0569436,0.0009321,0.500986
74302497,0.00295475,-0.0978442,0.00191163,0.500986
74402486,-0.00057629,0.00645339,0.0032048,0.500986
74502486,0.000123873,0.0543383,0.00285687,0.500986
74606488,-0.000394444,0.00832275,0.00338979,0.500986
74706522,0.000271387,-0.0152817,0.00277317,0.500986
74806485,0.00318407,-0.00950282,0.00287204,0.500986
74910536,0.00344851,-0.0364293,0.00203225,0.500986
75010554,0.00283126,-0.0565389,0.00074989,0.500986
75114487,0.000786106,-0.0445488,-0.00031165,0.500986
75212827,-0.000386687,-0.000342081,-0.000812808,0.500986
75316738,0.00131515,0.248349,-0.00106173,0.500986
75418479,0.00120712,0.934831,-0.00134096,0.500986
75519509,0.0020111,2.80209,-0.001699,0.500986
75619546,0.000991174,1.35525,-0.000596325,0.500986
75722487,0.00324175,0.432575,0.000461404,0.500986
75823527,0.00457172,0.101895,0.00104131,0.500986
75926499,0.00301879,0.0122122,0.00156382,0.517718
76026483,0.000640617,-0.0024415,0.000772432,0.535178
76126517,0.00021001,-0.00824425,0.00119082,0.557125
76230485,0.00543372,-0.00878985,0.00126678,0.556794
76330490,0.00291257,-0.00240294,0.00197581,0.557199
76430496,-3.10805e-05,0.00159354,0.00284769,0.556964
76534522,-0.00309714,0.00247241,0.00432941,0.557224
76634487,-0.0068114,0.00497928,0.0043338,0.556996
76738494,-0.00711763,0.00276209,0.00391576,0.557254
76742491,-0.00659081,0.00265522,0.00399868,0.557254
85078567,-3.83972,-3.83972,-2.56714,0.557226
85178489,-3.83972,-3.45308,-0.204634,0.557249
85278514,1.70928,3.83972,0.618893,0.556857
85383537,-0.927209,3.83972,2.81176,0.557249
85482531,-3.37645,3.83972,3.49066,0.556715
85583484,-3.83972,3.83972,3.49066,0.557166
85686489,-3.83972,3.83972,3.49066,0.556715
85787472,-3.83972,3.65271,3.49066,0.556884
85890591,-3.83972,3.83972,3.49066,0.557194
85989558,-3.83972,3.83972,3.49066,0.556717
86093214,-3.83972,3.83972,3.11287,0.557166
86194487,-2.82363,3.83972,2.89267,0.556715
86294477,-2.20698,3.83972,2.80916,0.556884
86398558,-1.92924,3.83972,2.81555,0.55699
86498479,-1.8813,3.83972,2.86036,0.556772
86598489,-1.92632,3.83972,2.92055,0.557199
86703044,-2.00212,3.83972,2.98503,0.556772
86802492,-2.06251,3.83972,3.03751,0.557224
86903521,-2.09881,3.83972,3.07672,0.0801317
87006492,-2.11575,3.83972,3.10334,0.08
87106564,-2.1176,3.83972,3.11915,0.08
87210560,-2.11305,3.83972,3.12863,0.08
87310476,-2.10831,3.83972,3.13292,0.08
87411528,-2.10141,3.83972,3.13526,0.08
87514477,-2.09469,3.83972,3.13546,0.08
87615614,-2.0914,3.83972,3.13461,0.08
87714635,-2.08615,3.83972,3.13225,0.08
87819519,-2.08636,3.83972,3.13079,0.08
87917292,-2.08705,3.83972,3.12874,0.08
88021330,-2.08862,3.83972,3.12633,0.08
88122538,-2.0892,3.83972,3.12404,0.08
88222489,-2.0893,3.83972,3.1219,0.08
88322535,-2.09248,3.83972,3.11889,0.08
88425366,-2.0927,3.83972,3.11522,0.08
88527589,-2.09198,3.83972,3.11196,0.08
88627604,-2.0926,3.83972,3.10873,0.08
88730489,-2.09408,3.83972,3.10469,0.08
88834498,-3.83972,3.83972,-1.04514,0.0
88934489,-3.83972,3.83972,-1.04548,0.0
89035488,-3.83972,3.83972,-1.04532,0.0
89134484,-3.83972,3.83972,-1.04477,2.43863e-39
89239595,-3.83972,3.83972,-1.04377,2.02734e-40
89341528,-3.83972,3.83972,-1.04295,1.69837e-42
89443497,-3.83972,3.83972,-1.0419,0.0
89543486,-3.83972,3.83972,-1.04076,0.0
89643508,-3.83972,3.83972,-1.03948,0.0
89746488,-3.83972,3.83972,-1.03894,0.0
89845521,-3.83972,3.83972,-1.04938,0.08
89949312,-3.83972,3.83972,-1.06599,0.08
90051539,-3.83972,3.83972,-1.0771,0.08
90150514,-3.83972,3.83972,-1.0816,0.08
90255517,-3.83972,3.83972,-1.07915,0.08
90354486,-3.83972,3.83972,-1.07284,0.08
90454472,-3.83972,3.83972,-1.06588,0.08
90558568,-3.83972,3.83972,-1.05708,0.08
90658483,-3.83972,3.83972,-1.04915,0.08
90762486,-3.83972,3.83972,-1.0402,0.08
90863489,-3.83972,3.83972,-1.03158,0.08
90962551,-3.83972,3.83972,-1.02375,0.08
91062543,-3.83972,3.83972,-1.01447,0.08
91163518,-3.83972,3.83972,-1.00738,0.08
91270497,-3.83972,3.83972,-0.999062,0.08
91370472,-3.83972,3.83972,-0.991519,0.08
91470489,-3.83972,3.83972,-0.985144,0.08
91570489,-3.83972,3.83972,-0.979254,0.08
91674591,-3.83972,3.83972,-0.972239,0.08
91773637,-3.83972,3.83972,-0.965733,0.08
91877354,-3.83972,3.83972,-0.959507,0.08
91979488,-3.83972,3.83972,-0.953266,0.08
92082535,-3.83972,3.83972,-0.946995,0.08
92183551,-3.83972,3.83972,-0.94136,0.08
92279478,-3.83972,3.83972,-0.935665,0.08
92386536,-3.83972,3.83972,-0.929025,0.08
92486530,-3.83972,3.83972,-0.92379,0.08
92586496,-3.83972,3.83972,-0.918281,0.117204
92691517,-3.83972,3.83972,-0.91213,0.277601
92791527,-3.83972,3.83972,-0.906555,0.451744
92894484,-3.83972,3.83972,-0.901361,0.503774
92995559,-3.83972,3.83972,-0.896314,0.504963
93094560,-3.83972,3.83972,-0.891106,0.504932
93195530,-3.83972,3.83972,-0.885798,0.504931
93299492,-3.83972,3.83972,-0.880326,0.757447
93399524,-3.83972,3.83972,-0.875648,0.883307
93503498,-3.83972,3.83972,-0.871157,1.0
93603520,-3.83972,3.83972,-0.861816,0.999791
93703485,-3.83972,3.83972,-0.85541,0.999997
93807522,-3.83972,3.83972,-0.851421,1.0
93905401,-3.83972,3.83972,-0.847212,1.0
94009756,-3.83972,3.83972,-0.843047,1.0
94111503,-2.57738,3.78375,-0.819753,1.0
94211488,0.0943802,0.878563,-0.770702,1.0
94314558,1.43201,-0.900793,-0.72135,1.0
94415602,1.79223,-1.55891,-0.697701,0.99039
94514723,1.7971,-1.7291,-0.693105,0.986298
94619475,1.74974,-1.74518,-0.69295,0.985989
94718530,1.75305,-1.76732,-0.692531,0.984535
94819492,1.75606,-1.78749,-0.691819,0.984829
94923510,1.7596,-1.81098,-0.691785,0.985036
95022493,1.76274,-1.82898,-0.691166,0.985679
95126547,1.75397,-1.84918,-0.648828,0.917687
95227486,1.66578,-1.93557,-0.306099,0.08
95327486,1.67239,-1.9429,-0.300169,0.08
95431491,1.68112,-1.9522,-0.292896,0.0874979
95530543,1.7245,-1.9362,-0.364764,0.102516
95631529,1.72156,-1.96185,-0.263518,0.101283
95735485,1.7233,-1.98574,-0.189044,0.0990313
95836620,1.73502,-2.00007,-0.182554,0.0988094
95939495,1.74432,-2.01721,-0.175612,0.08
96039534,1.75391,-2.03429,-0.169218,0.08
96138553,1.76653,-2.05175,-0.162234,0.08
96241483,1.77807,-2.06892,-0.157176,0.08
96345554,1.79039,-2.08392,-0.152511,0.08
96442603,1.80416,-2.09906,-0.147407,0.08
96547484,1.81402,-2.11773,-0.142838,0.08
96646481,1.82919,-2.13587,-0.137191,0.08
96751496,1.84469,-2.1531,-0.132276,0.08
96847498,1.85935,-2.17282,-0.127182,0.08
96951522,1.87633,-2.19409,-0.12285,0.08
97055487,1.89258,-2.21621,-0.117991,0.08
97155507,1.90743,-2.23572,-0.112839,0.08
97255506,1.91728,-2.25145,-0.109531,0.08
97359538,1.9256,-2.26152,-0.106684,0.08
97459488,1.93046,-2.2664,-0.105999,0.08
97559484,1.93302,-2.27024,-0.104547,0.08
97663611,1.937,-2.27363,-0.104498,0.08
97763485,1.94313,-2.2767,-0.10241,0.08
97867484,1.9475,-2.28444,-0.101183,0.08
97967502,1.95436,-2.29146,-0.0986476,0.08
98065603,1.96379,-2.30054,-0.0953218,0.08
98169542,1.97492,-2.31128,-0.0904518,0.08
98273772,1.98428,-2.32435,-0.0856643,0.08
98375497,1.99538,-2.34246,-0.0801135,0.08
98475528,2.01139,-2.36199,-0.0726068,0.08
98575495,2.02397,-2.38574,-0.0646355,0.08
98679510,2.03923,-2.41127,-0.0551509,0.08
98779537,2.05655,-2.44111,-0.0442973,0.08
98879484,2.14075,-2.41781,-0.185534,0.103043
98983489,2.16465,-2.44745,-0.171887,0.404733
99083488,1.91846,-2.15017,-0.168218,0.637722
99187498,1.47748,-1.65592,-0.118664,0.646763
99287487,1.25335,-1.35211,-0.209686,0.646597
99387513,1.13736,-1.21495,-0.25273,0.646422
99491549,1.08503,-1.14311,-0.289792,0.646449
99591643,1.04721,-1.09257,-0.315128,0.64645
99691497,1.01773,-1.04985,-0.329698,0.646964
99795507,0.990333,-1.01762,-0.317154,0.646225
99895472,0.966749,-0.980945,-0.319162,0.647022
99999532,0.946281,-0.946858,-0.306781,0.646459
100093777,0.909743,-0.911468,-0.289549,0.646451
100197927,0.880897,-0.879627,-0.266684,0.64645
100301855,0.882724,-0.87339,-0.223257,0.64645
100404472,0.882306,-0.870608,-0.169329,0.64645
100503540,0.859845,-0.855562,-0.114053,0.64645
100607487,0.819825,-0.820107,-0.0685838,0.64645
100707572,0.775753,-0.775837,-0.0403861,0.64645
100811549,0.722776,-0.727034,-0.0273691,0.64645
100911511,0.688928,-0.681013,-0.0296593,0.64645
101011616,0.652259,-0.640278,-0.0423621,0.64645
101111639,0.626636,-0.601648,-0.0601483,0.64645
101215492,0.0692087,-0.940843,-0.0979561,0.646171
101315517,0.29665,-0.728909,-0.120767,0.646701
101419632,-0.863292,-0.445941,-0.137109,0.646649
101519521,-0.594639,-0.336839,-0.097025,0.646649
101623492,0.483825,-0.340385,-0.0334443,0.646083
101723489,2.40747,-0.370517,-0.0113616,0.646444
101823530,1.59448,-0.390083,-0.173334,0.64645
101927602,0.842074,-0.255285,-0.595229,0.64645
102027590,0.53975,-0.176941,-1.17889,0.64645
102125937,0.535404,-0.0904985,-1.71529,0.646171
102229802,1.21598,0.988102,-1.98957,0.646937
102327515,1.24537,0.728099,-1.94522,0.646601
102435524,0.857245,-0.0220198,-1.66478,0.646168
102535486,0.633236,-0.388598,-1.27339,0.646446
102635549,0.0691786,-1.14494,-0.909306,0.646418
102739486,-0.946054,-0.906556,-0.667399,0.646762
102839487,-0.660205,-0.889206,-0.448436,0.645939
102939517,0.200238,-1.02092,-0.285433,0.646473
103043486,0.961348,-1.00365,-0.179915,0.646933
103143519,1.08395,-0.51654,-0.0962604,0.646455
103247495,1.17723,-0.288101,-0.0430482,0.646255
103347723,0.671784,-0.228457,-0.0193457,0.646993
103447483,-0.00450709,-0.235261,-0.0112886,0.646997
103551508,-0.959676,-0.251418,-0.0207747,0.646312
103651492,-0.870015,-0.25967,-0.0308175,0.646445
103751492,-0.539958,-0.260982,-0.0385972,0.646814
103855485,-0.173755,-0.260394,-0.0423268,0.646145
103955631,0.0763132,-0.259873,-0.044044,0.646969
104059495,0.181931,-0.251401,-0.0465151,0.646943
104158705,-0.0589781,-0.241698,-0.051234,0.646428
104261849,-0.190654,-0.261685,-0.0627253,0.645911
104363486,0.0397172,-0.370491,-0.0846142,0.646682
104463517,0.150226,-0.290126,-0.0809095,0.646081
104563609,0.179488,-0.380246,-0.090393,0.646754
104663486,0.210741,-0.670184,-0.13205,0.645931
104767611,0.412528,-1.17165,-0.22926,0.646275
104867483,0.481556,-1.05803,-0.256957,0.646969
104971488,0.447854,-0.79388,-0.226271,0.646708
105071489,0.497498,-0.714345,-0.193665,0.646732
105175484,0.333828,-0.451367,-0.0970328,0.646541
105276546,0.247286,-0.321911,0.0248431,0.646764
105375517,0.150522,-0.207151,0.131827,0.646511
105479484,-0.312148,0.419197,0.306894,0.646448
105579506,1.15318,1.76289,0.415015,0.646222
105683494,1.70447,0.792779,0.330149,0.646248
105783528,1.26616,0.181454,0.2732,0.646988
105883541,0.497011,-0.0924306,0.202147,0.646085
105987508,0.145393,-0.170564,0.177089,0.646759
106087603,0.0340245,-0.168001,0.131344,0.646487
106188472,0.00618437,-0.150609,0.0703379,0.646655
106287510,0.00360521,-0.134801,0.0106414,0.646566
106391484,0.00537602,-0.121493,-0.0324688,0.646935
106490127,0.00791901,-0.111677,-0.0558899,0.646118
106593827,0.00872485,-0.103459,-0.0682598,0.646649
106697970,0.0103481,-0.0918322,-0.0710422,0.646136
106799483,0.00791513,-0.087563,-0.0637427,0.646935
106899508,0.00288958,-0.0774829,-0.050787,0.646087
106999501,0.000811444,-0.065192,-0.036535,0.646963
107103648,-0.00457723,-0.0602763,-0.0222894,0.645915
107203488,-0.00733909,-0.0501022,-0.0095127,0.646963
107307524,-0.0154948,-0.0458239,0.00196159,0.645915
107407483,-0.0231377,-0.0438494,-0.0243353,0.646814
107508530,-0.0181201,-0.0316827,-0.427613,0.646456
107611493,-0.0202441,-0.0262204,-0.834881,0.646964
107711488,-0.0196149,-0.0169714,-1.12531,0.646118
107811524,-0.0231109,-0.0145653,-1.25283,0.646112
107915488,-0.0311849,-0.0166232,-1.30495,0.64611
108015506,-0.0359286,-0.021421,-1.31267,0.646562
108115542,-0.0437735,-0.0282523,-1.1424,0.646422
108220534,-0.056551,-0.0345389,-0.396493,0.645911
108320485,-0.0506298,-0.0519812,-0.0357244,0.645934
108423585,-0.0464942,-0.0700154,0.225133,0.647025
108523606,-0.533397,-0.124801,0.375692,0.64597
108621917,-1.082,-0.215465,0.445478,0.646449
108726828,-0.711638,-0.205347,0.459762,0.646246
108827484,-0.343566,-0.169071,0.432484,0.646731
108931494,-0.260267,-0.150719,0.377448,0.646477
109031486,-0.353931,-0.146341,0.316665,0.64645
109131521,-0.241767,-0.123499,0.235121,0.646988
109235487,0.835461,-0.0500114,0.09971,0.646255
109335537,1.09618,-0.0588051,0.0345403,0.646479
109435539,0.753543,-0.0845335,0.094586,0.645936
109539509,0.225525,-0.0631216,0.0117012,0.646167
109639486,0.042153,-0.0496395,-0.0250937,0.646508
109743517,0.00125566,-0.0366503,-0.0468608,0.646942
109843489,0.0113708,-0.0294815,-0.0564632,0.646708
109943559,0.0231946,-0.0267325,-0.058624,0.646968
110047490,0.0325615,-0.0270839,-0.0225418,0.646656
110147484,0.0353634,-0.0298384,-0.0389343,0.645161
110247518,0.0316019,-0.0327985,-0.0324984,0.645948
110351521,0.0320958,-0.0315437,-0.0274696,0.645266
110451523,0.0295082,-0.0265421,-0.0222601,0.645404
110555484,0.0262992,-0.0240567,-0.0184937,0.645492
110655562,0.0229857,-0.0268899,-0.0147932,0.645784
110754024,0.0215462,-0.0265304,-0.0118755,0.6454
110858582,0.0215734,-0.0249451,-0.0113107,0.645724
110959472,0.022734,-0.0248889,-0.00959661,0.64638
111059512,0.0183608,-0.0223824,-0.00887125,0.645465
111163501,0.0186318,-0.0226667,-0.00870228,0.645836
111263511,0.019035,-0.0210101,-0.00916999,0.647044
111367498,0.0177169,-0.019757,-0.0096826,0.645328
111467486,0.0143635,-0.0204422,-0.00997942,0.645923
111567517,0.0137939,-0.0192499,-0.0101337,0.64585
111671486,0.013563,-0.0157748,-0.0117889,0.646611
111771649,0.0170529,-0.0177329,-0.0114954,0.64681
111871498,0.0169002,-0.0192661,-0.0115813,0.645756
111976494,0.013747,-0.0188661,-0.0118161,0.646068
112076472,0.0136506,-0.0162364,-0.0116361,0.645687
112179537,0.0117119,-0.0184413,-0.0118343,0.645592
112279472,0.0131637,-0.0176593,-0.0117907,0.645709
112379484,0.0128588,-0.0177785,-0.0111246,0.645876
112483492,0.0127567,-0.0173946,-0.0117676,0.647017
112583489,0.0137884,-0.0165267,-0.0108635,0.646934
112683540,-0.0542955,-0.0167425,-0.0105605,0.645418
112787554,-0.141729,-0.0194034,-0.00932524,0.64616
112886009,0.19826,-0.0175247,-0.00852357,0.646149
112990671,0.0925517,-0.0183008,-0.00631095,0.645959
113092626,-0.495199,-0.0154521,-0.00680301,0.646022
113191679,-1.15492,-0.00904965,-0.00697788,0.64596
113295514,-1.04944,-0.0082833,-0.00628152,0.645909
113395487,0.185408,-0.00740348,-0.00556752,0.646963
113495492,1.0916,-0.0082593,-0.00458718,0.645369
113599696,0.97802,-0.00965809,-0.00400231,0.645898
113699472,0.367171,-0.0870818,-0.00564678,0.645818
113803502,0.0997001,-1.02491,-0.0101798,0.646897
113903506,-0.0139026,-1.26249,-0.0068828,0.646653
114004484,-0.0169167,0.205165,-0.00397454,0.646362
114103486,0.0395576,1.3153,-0.00351825,0.645654
114207584,0.0180675,0.562335,-0.00395107,0.646449
114307497,0.00612656,0.128614,-0.00543726,0.645566
114412513,0.00349719,-0.570747,0.01126,0.646791
114511496,0.00405294,-0.706285,0.00560692,0.646764
114615581,0.00389358,0.0245969,0.00125316,0.646453
114715498,0.00254721,0.100175,-0.0124343,0.646107
114814147,-0.375352,-0.254243,-0.386966,0.646244
114918257,-0.869706,0.0077942,-1.25084,0.646678
115020491,-0.748411,0.495696,-1.79846,0.646479
115120488,-0.530731,0.698665,-2.10699,0.64693
115223538,-0.43374,0.652184,-2.28309,0.645968
115323600,-0.445114,0.662686,-2.32804,0.646335
115426099,-0.297582,0.642215,-2.28921,0.645972
115528487,-0.172637,0.554116,-2.06136,0.64644
115627483,-0.132926,0.513041,-1.8467,0.645869
115731511,0.101553,0.449737,-1.37409,0.646467
115831483,1.49377,0.542626,-0.363831,0.646387
115934492,0.717906,0.352188,0.104102,0.646644
116035506,0.232374,0.176334,0.314605,0.646561
116135488,0.0602066,0.0684927,0.434896,0.646445
116235512,0.0172158,0.0185904,0.461803,0.646449
116339569,0.0109183,0.00191924,0.419768,0.64645
116439527,0.0116308,-0.00361746,0.33747,0.645967
116539515,-0.0318703,-0.00628614,0.141291,0.646652
116643522,-0.463293,-0.00359276,-0.346885,0.646906
116743499,-0.263499,0.0336188,-0.453644,0.64519
116843131,0.458868,-0.0251082,-0.222337,0.646349
116946519,0.218144,-0.0116281,-0.197676,0.645466
117051582,0.0762247,-0.000781176,-0.157144,0.64661
117150574,0.0217744,0.000289757,-0.120787,0.646702
117254526,0.00939307,-0.000600637,-0.0866622,0.646736
117355487,0.00788134,-0.00307413,-0.0592202,0.645846
117455484,0.0112262,-0.00534181,-0.0378744,0.646779
117555520,0.00904784,-0.00661562,-0.023988,0.646584
117655498,0.00696252,-0.0091315,-0.0161715,0.646816
117759605,0.00884733,-0.010164,-0.0123945,0.6459
117863481,0.009478,-0.0117258,-0.0115783,0.646529
117963525,0.00930654,-0.0151127,-0.013075,0.646223
118064529,0.0108647,-0.0201246,-0.0150212,0.646537
118167669,0.0133648,-0.0211937,-0.0161947,0.646911
118267487,0.0138593,-0.021078,-0.0182958,0.64631
118367533,0.0156768,-0.0232283,-0.0195797,0.64654
118471484,0.0175826,-0.0244677,-0.0201554,0.646707
118571505,0.0199085,-0.0246188,-0.0187169,0.646336
118675484,0.0208448,-0.0249351,-0.0174768,0.64654
118775586,0.0230463,-0.0306191,-0.0164836,0.646601
118875510,0.025821,-0.0355534,-0.0138984,0.646702
118979486,0.0258787,-0.0338571,-0.0117737,0.646961
119080502,0.0259247,-0.038937,-0.0090396,0.64631
119178266,0.0238483,-0.0397247,-0.00706318,0.646649
119282688,0.0254364,-0.0392692,-0.00411816,0.646788
119384633,0.0339189,-0.0395584,-0.00175867,0.64631
119487532,0.033975,-0.0445378,0.000542907,0.646144
119587472,0.0311261,-0.0465791,0.00279172,0.646563
119687485,0.0314304,-0.0485746,0.00396511,0.646563
119788538,0.028557,-0.0507912,0.00519912,0.646508
119892528,0.0280645,-0.0521911,0.00524833,0.646503
119991517,0.0255526,-0.0450925,0.00520791,0.646844
120092486,0.0266458,-0.0435844,0.00606301,0.646286
120196485,0.0267958,-0.0445812,0.00692202,0.646567
120299481,0.0272875,-0.040898,0.00809726,0.646755
120399508,0.029413,-0.0412616,0.010142,0.646787
120499487,0.0313371,-0.0423375,0.0111188,0.646628
120599534,0.0306842,-0.043498,0.0116179,0.646702
120703491,0.0336812,-0.0429534,0.0121247,0.646306
120803496,0.0320536,-0.0429189,0.0132347,0.646144
120908481,0.02987,-0.0374937,0.0130124,0.646563
121008489,0.0243126,-0.0347775,0.0123352,0.646701
121108529,0.0235461,-0.0339597,0.0112106,0.646819
121212487,0.0,0.0,0.0,0.64679
121310516,0.0,0.0,0.0,0.646508
121414298,0.0,0.0,0.0,0.646568
121515506,0.0,0.0,0.0,0.646905
121615643,0.0,0.0,0.0,0.646705
121720465,0.0,0.0,0.0,0.646143
121819448,0.0,0.0,0.0,0.646144
121920464,0.0,0.0,0.0,0.646306
122023516,0.0,0.0,0.0,0.646627
122124611,0.0,0.0,0.0,0.646224
122223582,0.0,-0.370357,0.0,0.646476
122329461,0.0,-2.42867,0.0,0.645967
122428463,0.0,-3.22089,0.0,0.646138
122531643,0.0,-0.306125,0.0,0.646454
122631495,0.0,0.00132294,0.0,0.646766
122731466,0.0,-0.000126621,0.0,0.646392
122836468,0.0,-8.08774e-06,0.0,0.646756
122935470,0.0,-5.7122e-08,0.0,0.646764
123035533,0.0,6.4974e-09,0.0,0.646516
123140462,0.613625,1.03434e-10,0.0,0.645945
123240448,2.11172,-2.24596e-12,0.0,0.646508
123344462,1.38777,-6.6073e-14,0.0,0.646707
123442491,0.0809943,-1.22539e-15,0.0,0.646764
123546634,-0.000751853,1.38705e-17,0.00556431,0.646142
123647462,-3.73033e-05,6.20565e-19,0.098485,0.646699
123748460,-1.04973e-06,1.58647e-20,0.235212,0.646415
123848463,1.4643e-10,-2.27939e-23,0.0860491,0.647018
123951494,3.06363e-10,-5.2132e-24,0.000675611,0.646999
124051463,1.56616e-11,-2.42784e-25,4.20142e-06,0.646599
124155481,8.84503e-14,-1.20304e-27,-1.91127e-07,0.64651
124255464,-2.00295e-15,3.58121e-29,-6.62462e-09,0.646451
124356460,-2.06855e-16,3.25636e-30,-1.1905e-10,0.64645
124460533,-1.90852e-18,-0.0967103,8.8396e-13,0.646932
124560505,1.43052e-19,-0.249648,1.84777e-13,0.646113
124660462,2.51309e-21,-0.715077,2.03277e-15,0.646111
124763473,3.0017e-23,-0.797713,4.39583e-18,0.64696
124864461,-1.38496e-24,-0.804417,-2.14786e-18,0.646936
124968463,-2.85111e-26,-0.803889,-2.8944e-20,0.646141
125067500,1.44711e-28,-0.798922,1.01369e-21,0.646961
125171532,1.21718e-29,-0.796853,2.33945e-23,0.742594
125272448,4.5996e-31,-0.785878,2.46519e-26,0.753349
125372510,1.44764e-33,-0.758296,-8.16146e-27,0.753454
125471139,-4.62592e-34,-0.600763,-4.50583e-28,0.793329
125574472,-6.41524e-36,-0.356487,-2.78112e-30,0.9558
125678388,2.08943e-37,-0.124829,0.00121168,1.0
125776577,4.98488e-39,8.1358e-05,0.00136986,1.0
125880484,1.34889e-41,-0.000356899,-3.37894e-05,1.0
125983521,-1.63812e-42,-4.57337e-06,-9.26003e-07,1.0
126084579,-1.05097e-43,1.80553e-07,-8.37778e-09,1.0
126184468,0.0,-0.467169,2.28788e-10,1.0
126284463,-0.0219689,-1.97104,8.89401e-12,1.0
126388459,-0.0551739,-2.59932,1.92329e-13,1.0
126488466,-0.0658152,-2.79543,-7.72965e-16,1.0
126592463,-0.0615715,-2.43012,-2.64658e-16,1.0
126692468,-0.0671015,-0.968645,-3.09021e-18,1.0
126792465,-0.0615908,-0.89624,1.49519e-19,1.0
126896467,-0.0546836,-1.52439,3.02354e-21,1.0
126996460,-0.0562431,-1.55758,-1.84385e-23,1.0
127096514,-0.0626436,-1.5887,-4.23108e-24,1.0
127200448,-0.0605734,-0.846692,-4.71999e-26,1.0
127299498,-0.0612406,-0.314881,2.50421e-27,1.0
127404464,-0.0482235,-0.24247,4.8989e-29,1.0
127504480,-0.0157602,-0.230891,-3.9412e-31,1.0
127604587,0.000240828,-0.209728,-2.27666e-32,1.0
127708506,7.07304e-06,-0.23067,-5.31562e-34,1.0
127808458,8.41939e-08,-0.259597,-8.70994e-37,1.0
127908466,-1.13775e-08,-0.331532,7.9165e-37,1.0
128012460,-1.75386e-10,-0.376457,1.03967e-38,1.0
128111204,-1.69353e-12,-0.450947,6.66416e-41,1.0
128216476,1.17396e-13,-0.630013,-8.70346e-42,1.0
128316493,1.12561e-15,-0.874395,0.0,1.0
128416496,-2.81965e-17,-0.953231,0.0,1.0
128520590,-1.12293e-18,-1.03239,0.0,1.0
128620451,-2.50885e-20,-1.20749,0.0,1.0
128720461,8.73326e-23,-1.32682,0.0,1.0
128824476,3.3826e-23,-1.36204,0.0,1.0
128924470,3.99112e-25,-1.37194,0.0,1.0
129028462,-1.88955e-26,-1.36808,0.0,1.0
129128514,-3.85212e-28,-1.36806,0.0,1.0
129228448,2.16941e-30,-1.36552,0.0,1.0
129332464,1.67181e-31,-1.27398,0.0,1.0
129432448,6.10516e-33,-1.19638,0.0,1.0
129534860,1.71784e-35,-1.14039,0.0,1.0
129634905,-6.24534e-36,-1.11867,0.0,1.0
129738989,-8.57534e-38,-1.05715,0.0,1.0
129838789,2.86518e-39,-0.82123,0.0,1.0
129940460,9.27828e-41,-0.585531,0.0,1.0
130040462,1.41531e-43,-0.501209,0.0,1.0
130144463,-1.05097e-43,-0.520035,0.0,1.0
130244478,0.0,-0.869208,0.0,1.0
130344459,0.0,-1.25941,0.0,1.0
130448514,-0.0119778,-1.62882,0.0,1.0
130548459,-0.0206914,-1.70369,0.0,1.0
130652463,-0.0253869,-1.70329,0.0,1.0
130752459,-0.0226553,-0.936661,0.0,1.0
130852470,0.000637689,-0.500443,0.0,1.0
130956541,1.09051e-05,-0.281485,0.0,1.0
131056524,-9.20668e-08,-0.136506,0.000359352,1.0
131156638,-1.74991e-08,-0.0240202,0.0171076,1.0
131260460,-1.89485e-10,-0.000368421,0.316756,1.0
131360462,1.0653e-11,8.60608e-06,0.559218,1.0
131464448,2.04305e-13,2.43035e-07,0.297013,1.0
131564580,2.72144e-15,4.40805e-09,0.0170562,1.0
131664513,-9.80617e-17,-5.61492e-11,0.000256884,1.0
131768523,-2.23468e-18,-2.31197e-12,-2.82064e-06,1.0
131868460,-9.1442e-22,-5.38787e-14,-4.45844e-07,1.0
131968462,3.29615e-21,4.02531e-15,0.118199,1.0
132072458,4.23054e-23,7.07787e-17,0.780783,1.0
132170851,-1.66481e-24,-1.04525e-18,0.839684,1.0
132274964,-3.65266e-26,-3.89523e-20,0.605663,1.0
132376466,-5.55585e-28,-8.0268e-22,0.252095,1.0
132476463,1.39643e-29,4.02868e-24,0.126957,1.0
132576463,6.54565e-31,1.13332e-24,0.038043,1.0
132680460,3.27642e-33,1.29725e-26,0.00192078,1.0
132780490,-9.56195e-35,4.12598e-29,-3.19018e-05,1.0
132884448,-8.76965e-36,-1.30244e-29,-1.74583e-06,1.0
132984519,-7.70342e-38,-1.80805e-31,-1.06748e-08,1.0
133088465,6.26514e-39,5.87349e-33,0.0264297,1.0
133188462,1.07698e-40,1.40297e-34,0.366856,1.0
133288460,-1.76143e-42,3.88062e-37,0.436805,1.0
133392461,-5.32493e-44,-4.58853e-38,0.353066,1.0
133492578,0.0,-2.82473e-39,0.343418,1.0
133592523,0.0,-1.93519e-41,0.257237,1.0
133696458,0.0,2.30654e-42,0.104029,1.0
133796461,0.0,3.50325e-44,0.0147698,1.0
133895337,0.0,0.0,0.0115,1.0
133998829,0.0,0.0,0.000858155,1.0
134100461,0.0,0.0,0.000517774,1.0
134204462,0.0,0.0,1.36508e-05,1.0
134304527,0.0,0.0,-0.107623,1.0
134404462,0.0,0.0,-0.279195,1.0
134508464,0.0,0.0,-0.0232429,1.0
134608459,0.0,0.0,-0.000582485,1.0
134712477,0.0,0.0,8.40753e-07,1.0
134812477,0.0,0.0,7.23693e-07,1.0
134912527,0.0,0.292147,8.91113e-09,1.0
135016448,0.00325371,4.4033,-3.8502e-10,1.0
135116451,0.0140344,11.9812,-8.13129e-12,1.0
135216466,0.07214,11.9846,-1.19531e-13,1.0
135321514,0.0395475,11.9926,3.32307e-15,1.0
135420462,0.03469,11.9704,8.56209e-17,1.0
135521463,0.0248398,11.9965,1.46912e-18,1.0
135624459,0.0190384,11.1263,-2.41135e-20,1.0
135724452,0.021536,9.53232,-8.39304e-22,1.0
135825497,0.0191145,8.91645,-1.52014e-23,1.0
135928463,0.000853401,7.33088,1.10486e-25,1.0
136026861,2.98669e-05,0.880619,7.50673e-27,1.0
136130897,5.46902e-07,-0.0429895,2.58856e-28,1.0
136232462,-3.85563e-09,-0.000139038,5.76804e-31,1.0
136336462,-8.38242e-10,3.01465e-05,-2.72632e-31,1.0
136436451,-9.2776e-12,4.34254e-07,-3.68074e-33,1.0
136536467,-2.15271e-14,3.62443e-09,-2.57934e-35,1.0
136640490,9.7272e-15,-3.20062e-10,2.96749e-36,1.0
136740451,1.31668e-16,-5.38883e-12,4.71334e-38,1.0
136840459,-4.56046e-18,-0.0252049,-1.0313e-39,1.0
136944491,-1.40586e-19,-0.302177,-5.73187e-41,1.0
137044460,-1.38097e-22,-1.505,-3.5593e-43,1.0
137148465,3.65618e-23,-2.68946,1.26117e-44,1.0
137248460,2.05085e-24,-2.47044,0.0,1.0
137348492,-7.75882e-26,-0.93404,0.0,1.0
137450448,-1.73102e-27,-0.476292,0.0,1.0
137551467,1.19386e-30,-0.384934,0.0,1.0
137652463,6.42318e-31,-0.392154,0.0,1.0
137756542,1.78546e-32,-0.623904,0.0,1.0
137856461,1.72249e-34,-0.803862,0.0,1.0
137960455,-4.2749e-36,-0.927231,0.0,1.0
138060491,-4.22176e-37,-0.979292,0.0,1.0
138159289,1.11914e-38,-1.02405,0.0,1.0
138263147,2.95465e-40,-1.10277,0.0,1.0
138364579,2.20144e-42,-1.12275,0.0,1.0
138464460,-7.00649e-44,-1.15106,0.0,1.0
138568461,0.0,-1.16769,0.0,1.0
138668463,0.0,-1.24933,0.0,1.0
138772464,0.0,-1.31391,0.0,1.0
138872495,0.0,-1.3169,0.0,1.0
138973462,0.0,-1.32811,0.0,1.0
139076448,0.0,-1.31145,0.0,1.0
139176463,0.0,-1.32066,0.0,1.0
139276466,0.0,-1.31706,0.0,1.0
139380448,0.0,-1.3198,0.0,1.0
139480503,0.0,-1.3195,0.0,1.0
139584487,0.0,-1.22174,0.0,1.0
139684462,0.0,-0.434642,0.0,1.0
139784466,0.0,-0.0859567,0.0,1.0
139888496,0.0,-0.000298497,0.0,1.0
139988461,0.0,5.32542e-05,0.0,1.0
140088450,0.0,7.86254e-07,0.0,1.0
140192479,0.0,6.94503e-09,0.0,1.0
140291110,0.0,-5.59722e-10,0.0,1.0
140395067,0.0,-9.64372e-12,0.0,1.0
140496462,0.0,1.5558e-13,0.0,1.0
140596503,0.0,1.23706e-14,0.0,1.0
140700498,0.0,1.01167e-16,0.0,1.0
140800461,0.0,-6.95181e-19,0.0,1.0
140840461,0.0,1.54955e-18,0.0,1.0
154204526,3.83972,-1.24548,-1.61187,0.645908
154304501,3.83972,-3.32807,-1.06989,0.08
154409494,3.83972,-3.43049,-1.60247,0.08
154509595,3.83972,-2.86547,-2.29494,0.08
154613485,3.83972,-1.94151,-2.82071,0.08
154713569,3.83972,-1.2711,-3.0151,0.08
154813487,1.77878,-0.868067,-2.99464,0.08
154917509,0.504153,-0.512689,-2.881,0.08
155017476,0.0832134,-0.245534,-2.73939,0.08
155117555,-0.0223729,-0.0911168,-2.56262,0.08
155220491,-0.0280939,-0.0255346,-2.33631,0.08
155320496,-0.0244652,-0.00340089,-2.08432,0.08
155425550,-0.0203668,0.00199127,-1.77425,0.08
155523766,-0.0178745,0.00302759,-1.52525,0.08
155627479,-0.0170406,0.00286292,-1.52165,0.08
155729610,-0.0167874,0.00378927,-1.51742,0.08
155828604,-0.0157783,0.00174526,-1.51372,0.08
155929505,-0.0148448,0.00305366,-1.50952,0.08
156033520,-0.0119877,0.00312368,-1.50616,0.08
156133484,-0.0109915,0.00503674,-1.50322,0.08
156237516,-0.00929207,0.00698376,-1.49992,0.08
156337488,-0.010081,0.00912433,-1.49611,0.08
156437535,-0.0105536,0.0155286,-1.49225,0.08
156541487,-0.013244,0.0273196,-1.48724,0.08
156641472,-0.0145872,0.0395948,-1.48424,0.08
156741525,-0.0207076,0.0517326,-1.47891,0.08
156845521,-0.0255881,0.0617373,-1.47333,0.08
156945510,-0.0307869,0.0726097,-1.46988,0.08
157049494,-0.0331315,0.0808915,-1.46538,0.08
157149513,-0.154841,-0.190654,-1.46058,0.08
157249535,-0.270943,-0.448951,-1.45561,0.08
157353523,-0.0407633,0.0830654,-1.45488,0.08
157453536,-0.0409376,0.0908143,-1.45063,0.08
157551944,-0.043866,0.0915071,-1.44662,0.08
157655706,-0.0465365,0.0928854,-1.44221,0.08
157759735,-0.0475619,0.0921032,-1.43751,0.08
157861497,-0.0478315,0.0920421,-1.43344,0.08
157961529,-0.0490861,0.0924726,-1.42922,0.08
158061521,-0.0514183,0.0927657,-1.42503,0.08
158165488,-0.0535196,0.0941773,-1.41978,0.08
158265519,-0.056272,0.0917377,-1.41559,0.08
158365496,-0.0583851,0.0927477,-1.4112,0.08
158469649,-0.0596844,0.0926827,-1.40703,0.08
158569607,-0.0618037,0.093114,-1.40364,0.08
158673529,-0.0648749,0.0930084,-1.3989,0.08
158773510,-0.068518,0.0935445,-1.39512,0.08
158873483,-0.0703554,0.0936075,-1.3923,0.08
158977606,-0.0733345,0.0919788,-1.38817,0.08
159077483,-0.0762204,0.0908089,-1.38325,0.08
159177516,-0.0785566,0.0907676,-1.37915,0.08
159281483,-0.0810386,0.0903413,-1.37484,0.08
159381511,-0.0828442,0.092625,-1.37188,0.08
159485525,-0.0857608,0.0931477,-1.36734,0.08
159585557,-0.0877503,0.0942048,-1.36305,0.08
159683761,-0.0880958,0.094818,-1.35964,0.08
159787659,-0.0905131,0.0958079,-1.35541,0.08
159889483,-0.0911243,0.0973428,-1.35038,0.08
159989620,-0.0938667,0.0975322,-1.34587,0.08
160093479,-0.0959831,0.096708,-1.34155,0.08
160193489,-0.0976282,0.0952716,-1.3375,0.08
160293511,-0.101669,0.095324,-1.33341,0.08
160397486,-0.103884,0.0951305,-1.32861,0.08
160497520,-0.105444,0.0937523,-1.32423,0.08
160601486,-0.106289,0.0928665,-1.31989,0.08
160701521,-0.107005,0.0928023,-1.31561,0.08
160801496,-0.110151,0.0953505,-1.31183,0.08
160905511,-0.114609,0.094783,-1.30711,0.08
161005520,-0.117175,0.0973004,-1.30317,0.08
161109533,-0.12108,0.0979037,-1.29954,0.08
161209489,-0.122846,0.0972992,-1.29489,0.08
161309479,-0.124664,0.0949158,-1.29101,0.08
161413492,-0.127571,0.0946491,-1.28674,0.08
161513489,-0.12936,0.0959396,-1.28277,0.08
161613540,-0.132779,0.095384,-1.27867,0.08
161717488,-0.135753,0.0965538,-1.27497,0.08
161817518,-0.137819,0.0966494,-1.27068,0.08
161920042,-0.141165,0.095585,-1.26639,0.08
162021519,-0.135007,0.108512,-0.000485678,0.0
162121487,-0.136558,0.109109,-0.000493889,0.0
162225611,-0.138448,0.109002,-0.000500592,0.0
162325488,-0.140425,0.10625,-0.000493945,0.0
162427816,-0.141044,0.105745,-0.000494632,0.0
162529481,-0.141833,0.106283,-0.000499935,0.0
162629484,-0.140383,0.104556,-0.000486263,0.0
162733495,-0.140586,0.100454,-0.000468239,0.0
162833484,-0.139099,0.101217,-0.000466454,0.0
162933559,-0.138587,0.10011,-0.000459787,0.0
163037489,-0.138286,0.100674,-0.00046135,0.0
163138485,-0.139953,0.0983842,-0.000455745,0.0
163237494,-0.139821,0.0960445,-0.00044536,0.0
163341524,-0.137228,0.0940085,-0.000428005,0.0
163441472,-0.13592,0.0923107,-0.000416369,0.0
163545518,-0.137196,0.0925383,-0.000420976,0.0
163645491,-0.139196,0.0896052,-0.000413588,0.0
163745486,-0.139122,0.0889804,-0.000410421,0.0
163847809,-0.141007,0.0902432,-0.000421872,0.0
163947754,-0.143539,0.0891582,-0.000424339,0.0
164051845,-0.144673,0.0898615,-0.000431594,0.0
164153485,-0.144848,0.0893727,-0.000429445,0.0
164254488,-0.14838,0.0887151,-0.000436392,0.0
164357496,-0.151132,0.0889006,-0.000445854,0.0
164457505,-0.153915,0.088787,-0.000452827,0.0
164557491,-0.157783,0.0903646,-0.000472332,0.0
164661541,-0.164549,0.0912026,-0.000497294,0.0
164761609,-0.171296,0.0892835,-0.000506898,0.0
164861494,-0.17905,0.0897739,-0.00053244,0.0
164965491,-0.185017,0.0899839,-0.00055135,0.0
165065485,-0.19292,0.0898778,-0.000575043,0.0
165169497,-0.202849,0.0908827,-0.000610848,0.0
165269487,-0.212672,0.0912609,-0.000642845,0.0
165369521,-0.223061,0.0912387,-0.000673898,0.0
165473482,-0.234891,0.0917924,-0.000714817,0.0
165573520,-0.243509,0.0917294,-0.000739944,0.0
165673493,-0.254493,0.0911007,-0.000768634,0.0
165777525,-0.265729,0.0907828,-0.000799306,0.0
165877492,-0.276224,0.0862831,-0.000789987,0.0
165981563,-0.287508,0.0870749,-0.000829786,0.0
166079895,-0.299362,0.0866335,-0.000859137,0.0
166183887,-0.309376,0.0861865,-0.000883673,0.0
166285487,-0.319504,0.086389,-0.000915137,0.0
166385485,-0.329334,0.085981,-0.000937963,0.0
166485528,-0.338949,0.0877018,-0.000985025,0.0
166589605,-0.350713,0.0889713,-0.00103414,0.0
166689650,-0.360752,0.0894892,-0.00106992,0.0
166793498,-0.369643,0.0878646,-0.00107616,0.0
166893535,-0.379218,0.0877171,-0.00110257,0.0
166993493,-0.386359,0.0852302,-0.00109126,0.0
167097541,-0.391802,0.0848199,-0.00110058,0.0
167197488,-0.399525,0.0830833,-0.00109925,0.0
167297494,-0.405514,0.0827836,-0.00111162,0.0
167401486,-0.408596,0.0850048,-0.00115092,0.0
167501487,-0.415618,0.0822402,-0.00113248,0.0
167605549,-0.420931,0.0834335,-0.00116381,0.0
167706540,-0.422455,0.0827919,-0.00115847,0.0
167805582,-0.428412,0.0809376,-0.00114851,0.0
167909491,-0.434081,0.079468,-0.00114292,0.0
168009521,-0.437897,0.0769917,-0.00111672,0.0
168108732,-0.44074,0.0767775,-0.0011218,0.0
168212012,-0.444531,0.0747364,-0.00110117,0.0
168313525,-0.448207,0.0745277,-0.00110663,0.0
168417522,-0.450773,0.0734453,-0.00109718,0.0
168517491,-0.454754,0.0728039,-0.0010969,0.0
168617508,-0.454731,0.0728021,-0.00109672,0.0
168721595,-0.457706,0.0711335,-0.00107935,0.0
168821488,-0.459058,0.072566,-0.00110307,0.0
168921519,-0.46203,0.0721225,-0.00110352,0.0
169025485,-0.463801,0.072223,-0.00110953,0.0
169125530,-0.465035,0.0734655,-0.00113201,0.0
169229563,-0.46694,0.0727276,-0.00112543,0.0
169329581,-0.469956,0.074757,-0.00116437,0.0
169429526,-0.475137,0.0729117,-0.00114779,0.0
169533526,-0.47429,0.071204,-0.00111888,0.0
169633516,-0.474393,0.0675348,-0.00106144,0.0
169733502,-0.477539,0.065524,-0.00103676,0.0
169837488,-0.476406,0.0661376,-0.00104392,0.0
169937482,-0.476388,0.0663486,-0.00104748,0.0
170037571,-0.477584,0.0676162,-0.00107031,0.0
170141485,-0.479266,0.0676146,-0.00107383,0.0
170241516,-0.481332,0.0683222,-0.00108949,0.0
170344181,-0.482043,0.0678039,-0.00108354,0.0
170445509,-0.481776,0.068754,-0.0010972,0.0
170545547,-0.481706,0.0680569,-0.00108671,0.0
170649511,-0.481732,0.0675162,-0.001079,0.0
170749598,-0.47806,0.0667418,-0.00105729,0.0
170853520,-0.479803,0.0664479,-0.00105614,0.0
170953516,-0.477729,0.0660114,-0.00104428,0.0
171053519,-0.477533,0.0680746,-0.00107739,0.0
171153524,-0.480928,0.0678341,-0.00108064,0.0
171257483,-0.479457,0.069515,-0.00110507,0.0
171357526,-0.481097,0.0691008,-0.00110121,0.0
171461490,-0.480674,0.0709715,-0.00113121,0.0
171561528,-0.481535,0.0710879,-0.00113413,0.0
171665491,-0.481586,0.0699405,-0.00111579,0.0
171765536,-0.483305,0.0682008,-0.00109211,0.0
171865518,-0.481872,0.0680901,-0.00108715,0.0
171969521,-0.480868,0.0683094,-0.00108849,0.0
172069502,-0.479894,0.0671899,-0.00106842,0.0
172169679,-0.481967,0.0661521,-0.00105614,0.0
172273484,-0.481692,0.0642361,-0.00102553,0.0
172372115,-0.48363,0.0650244,-0.00104213,0.0
172476579,-0.481773,0.0656941,-0.0010489,0.0
172578528,-0.482108,0.0687666,-0.00109757,0.0
172677525,-0.481453,0.0684135,-0.00109193,0.0
172781483,-0.480104,0.0693201,-0.00110228,0.0
172881559,-0.481151,0.0695473,-0.0011084,0.0
172981500,-0.48317,0.0679918,-0.00108778,0.0
173085515,-0.482361,0.0687158,-0.00109824,0.0
173185541,-0.482755,0.0677879,-0.00108438,0.0
173289523,-0.4809,0.0684967,-0.00109169,0.0
173389516,-0.479434,0.0694164,-0.0011037,0.0
173489482,-0.476849,0.0715609,-0.00113062,0.0
173589529,-0.477585,0.0712811,-0.00112828,0.0
173694492,-0.47759,0.0716511,-0.00113318,0.0
173793641,-0.478568,0.0695406,-0.00110248,0.0
173897472,-0.479931,0.0688519,-0.00109497,0.0
173997605,-0.479274,0.0717086,-0.00113821,0.0
174101482,-0.480389,0.0734693,-0.00116931,0.0
174201572,-0.481843,0.071692,-0.00114435,0.0
174301485,-0.477885,0.0710415,-0.00112472,0.0
174405614,-0.477194,0.0698241,-0.00110426,0.0
174504235,-0.476873,0.0723994,-0.00114332,0.0
174608561,-0.476098,0.07449,-0.00117481,0.0
174709521,-0.476305,0.0752547,-0.00118787,0.0
174809547,-0.474095,0.0774226,-0.00121609,0.0
174913496,-0.474965,0.0781364,-0.00122991,0.0
175013613,-0.474428,0.0755759,-0.00118704,0.0
175113700,-0.476507,0.0773372,-0.00122058,0.0
175217486,-0.475487,0.0784055,-0.00123481,0.0
175317513,-0.474339,0.0790984,-0.00124388,0.0
175417496,-0.47239,0.0790052,-0.00123606,0.0
175521604,-0.471448,0.0801301,-0.00125121,0.0
175621496,-0.470457,0.0786347,-0.00122578,0.0
175725525,-0.468649,0.0791311,-0.00122818,0.0
175825535,-0.468503,0.0788481,-0.00122299,0.0
175925489,-0.469025,0.0807624,-0.00125479,0.0
176029492,-0.468627,0.0817569,-0.0012687,0.0
176130509,-0.469649,0.0806532,-0.00125521,0.0
176229530,-0.47136,0.0819223,-0.00127881,0.0
176334500,-0.471683,0.0806833,-0.00126193,0.0
176433581,-0.470738,0.0787411,-0.00122793,0.0
176537528,-0.469582,0.0785527,-0.0012214,0.0
176636357,-0.469723,0.0784891,-0.00122174,0.0
176737471,-0.470278,0.0794516,-0.00123785,0.0
176837498,-0.471291,0.0814151,-0.00127083,0.0
176942582,-0.471344,0.0809241,-0.00126321,0.0
177041690,-0.471066,0.0809522,-0.00126314,0.0
177145552,-0.47021,0.0795143,-0.00123853,0.0
177245488,-0.469541,0.0809203,-0.00125922,0.0
177349498,-0.467628,0.0790851,-0.00122583,0.0
177449487,-0.466337,0.0807366,-0.00124764,0.0
177549518,-0.466905,0.0815511,-0.00126154,0.0
177653486,-0.465915,0.0831401,-0.00128318,0.0
177753589,-0.467562,0.0826929,-0.00128087,0.0
177853496,-0.466806,0.0827355,-0.00127961,0.0
177958499,-0.466624,0.0810129,-0.00125227,0.0
178058605,-0.468085,0.0787589,-0.0012212,0.0
178158482,-0.466854,0.0782962,-0.00121117,0.0
178262500,-0.465653,0.0784918,-0.00121053,0.0
178362489,-0.468246,0.0799717,-0.00124065,0.0
178465609,-0.467311,0.0799274,-0.00123764,0.0
178565485,-0.46476,0.0811853,-0.00125007,0.0
178665515,-0.463788,0.081659,-0.00125475,0.0
178768288,-0.463152,0.081387,-0.00124881,0.0
178869508,-0.461974,0.0812346,-0.00124307,0.0
178970546,-0.459724,0.0804871,-0.00122563,0.0
179074484,-0.459195,0.0814072,-0.00123797,0.0
179175505,-0.456795,0.0812984,-0.00122968,0.0
179275487,-0.455699,0.0789211,-0.00119149,0.0
179377530,-0.456563,0.0777536,-0.00117606,0.0
179478484,-0.457744,0.0766116,-0.00116106,0.0
179582493,-0.458182,0.0760401,-0.00115388,0.0
179682589,-0.457695,0.076313,-0.00115717,0.0
179785483,-0.458923,0.0782699,-0.00118988,0.0
179885485,-0.457933,0.0778974,-0.00118194,0.0
179985504,-0.456836,0.0763356,-0.00115515,0.0
180085604,-0.45463,0.0777674,-0.00117055,0.0
180189510,-0.453824,0.0789292,-0.00118654,0.0
180289480,-0.451065,0.0809378,-0.00120977,0.0
180394544,-0.450686,0.0810772,-0.00121066,0.0
180494610,-0.450729,0.0815341,-0.00121746,0.0
180594544,-0.450662,0.0814376,-0.00121634,0.0
180697485,-0.449766,0.0824691,-0.00122879,0.0
180796414,-0.44986,0.0790922,-0.00117953,0.0
180900740,-0.449384,0.0784689,-0.00116788,0.0
181001475,-0.449315,0.0797345,-0.00118746,0.0
181102488,-0.449424,0.0801488,-0.00119271,0.0
181206486,-0.449851,0.0805153,-0.00119961,0.0
181305586,-0.449195,0.0806989,-0.00120157,0.0
181406486,-0.44789,0.0799705,-0.00118675,0.0
181510471,-0.447701,0.0813676,-0.00120715,0.0
181610566,-0.447856,0.0828826,-0.00122983,0.0
181713527,-0.445844,0.0842004,-0.00124449,0.0
181813475,-0.446488,0.0867011,-0.00128227,0.0
181913483,-0.447318,0.0851005,-0.00126152,0.0
182017563,-0.448131,0.0829074,-0.00122994,0.0
182118482,-0.447842,0.0855596,-0.00126984,0.0
182218549,-0.447534,0.0850417,-0.00126178,0.0
182322489,-0.446387,0.0862798,-0.00127607,0.0
182422471,-0.446431,0.0845265,-0.00124998,0.0
182525635,-0.445911,0.0846949,-0.0012511,0.0
182626472,-0.446103,0.0808882,-0.00119624,0.0
182728786,-0.448539,0.0802837,-0.00119258,0.0
182830493,-0.448518,0.0825134,-0.00122581,0.0
182928694,-0.448497,0.080779,-0.00120013,0.0
183033538,-0.448307,0.0806261,-0.00119685,0.0
183133471,-0.449952,0.0824724,-0.00122881,0.0
183233483,-0.451303,0.0810629,-0.00121278,0.0
183333506,-0.451739,0.0820142,-0.00122702,0.0
183438525,-0.452394,0.0826575,-0.00123817,0.0
183538559,-0.453799,0.0837899,-0.00125897,0.0
183642543,-0.452882,0.0846527,-0.00127016,0.0
183742486,-0.455787,0.0836192,-0.00126289,0.0
183842484,-0.457012,0.082178,-0.00124475,0.0
183946572,-0.454895,0.0806874,-0.00121612,0.0
184046560,-0.455616,0.0829355,-0.0012519,0.0
184146547,-0.457812,0.0821389,-0.00124513,0.0
184249488,-0.458378,0.0813508,-0.00123544,0.0
184350483,-0.457617,0.0794358,-0.00120375,0.0
184454491,-0.456787,0.0780018,-0.00118001,0.0
184550556,-0.455734,0.0790332,-0.0011928,0.0
184654538,-0.456194,0.0791518,-0.00119609,0.0
184758548,-0.45548,0.0800512,-0.00120711,0.0
184858538,-0.454482,0.0780227,-0.00117437,0.0
184957026,-0.452751,0.0768842,-0.00115303,0.0
185060910,-0.450672,0.0765501,-0.00114273,0.0
185164587,-0.449212,0.0764981,-0.00113865,0.0
185266494,-0.447919,0.0759751,-0.00112767,0.0
185366483,-0.447315,0.074976,-0.00111043,0.0
185466536,-0.447614,0.0741021,-0.00109834,0.0
185570539,-0.446528,0.0756534,-0.00111913,0.0
185670482,-0.447969,0.0735274,-0.00109148,0.0
185770498,-0.447802,0.0739669,-0.00109703,0.0
185874485,-0.446773,0.0727565,-0.00107628,0.0
185974487,-0.446817,0.0758164,-0.0011224,0.0
186078493,-0.445257,0.0768665,-0.00113392,0.0
186178487,-0.444712,0.0753483,-0.0011098,0.0
186278477,-0.445047,0.0763972,-0.00112612,0.0
186382485,-0.443952,0.0772645,-0.00113649,0.0
186482487,-0.447181,0.0771549,-0.00114279,0.0
186582480,-0.445265,0.0772853,-0.00114008,0.0
186686481,-0.443912,0.079328,-0.00116668,0.0
186786535,-0.446075,0.0781455,-0.00115502,0.0
186890481,-0.445568,0.0794853,-0.00117277,0.0
186990527,-0.446624,0.0796803,-0.0011792,0.0
187088695,-0.443378,0.0806408,-0.00118431,0.0
187192833,-0.442147,0.0816933,-0.00119655,0.0
187294492,-0.444476,0.0849442,-0.00125024,0.0
187394619,-0.444901,0.0842131,-0.00124176,0.0
187498488,-0.443446,0.0838274,-0.00123128,0.0
187594483,-0.444977,0.0847711,-0.00124978,0.0
187702493,-0.44456,0.0862415,-0.00127069,0.0
187802482,-0.442697,0.0861297,-0.00126324,0.0
187902495,-0.443969,0.0875681,-0.00128803,0.0
188006489,-0.44733,0.0884555,-0.00131105,0.0
188106485,-0.446142,0.0904452,-0.00133579,0.0
188206672,-0.443786,0.0900221,-0.00132443,0.0
188310490,-0.443212,0.0895421,-0.001315,0.0
188410490,-0.44233,0.0905455,-0.00132629,0.0
188510492,-0.443491,0.0911224,-0.00133864,0.0
188614492,-0.44463,0.0894046,-0.00131668,0.0
188714568,-0.443721,0.0875502,-0.00128692,0.0
188818484,-0.444348,0.0875286,-0.00128862,0.0
188918490,-0.443833,0.0894601,-0.00131566,0.0
189018497,-0.445423,0.089884,-0.00132596,0.0
189122487,-0.444132,0.0924217,-0.00136031,0.0
189222481,-0.445708,0.0911677,-0.00134647,0.0
189326493,-0.445597,0.0922717,-0.00136245,0.0
189424915,-0.447798,0.0922495,-0.00136884,0.0
189528846,-0.447435,0.0929324,-0.00137802,0.0
189630489,-0.448569,0.0925836,-0.00137595,0.0
189730489,-0.449569,0.0919453,-0.0013696,0.0
189830514,-0.448502,0.0921689,-0.00136988,0.0
189934546,-0.447151,0.0919374,-0.0013617,0.0
190034592,-0.448135,0.0920996,-0.00136772,0.0
190134517,-0.448251,0.0909099,-0.00135029,0.0
190238471,-0.447886,0.091484,-0.00135768,0.0
190338487,-0.449068,0.0925158,-0.00137629,0.0
190442518,-0.44949,0.0929048,-0.00138374,0.0
190542626,-0.448668,0.093264,-0.00138693,0.0
190642537,-0.44867,0.0941558,-0.00139942,0.0
190746555,-0.450836,0.0951165,-0.00142082,0.0
190846485,-0.450693,0.0957652,-0.00142993,0.0
190950496,-0.450531,0.0965788,-0.00144151,0.0
191050520,-0.448525,0.0959275,-0.00142476,0.0
191150490,-0.448167,0.0966786,-0.00143637,0.0
191254485,-0.447166,0.0969138,-0.00143609,0.0
191354620,-0.44776,0.0977108,-0.00144971,0.0
191452957,-0.449521,0.0982607,-0.00146354,0.0
191557129,-0.449593,0.0972597,-0.00144911,0.0
191660808,-0.450633,0.0971235,-0.00144911,0.0
191762497,-0.452657,0.0963604,-0.00144504,0.0
191862492,-0.454977,0.0988222,-0.00148977,0.0
191962491,-0.456881,0.0978106,-0.00148033,0.0
192066550,-0.456311,0.0972703,-0.0014707,0.0
192166486,-0.458738,0.0973433,-0.00147942,0.0
192266498,-0.457359,0.0966652,-0.0014651,0.0
192370488,-0.457934,0.0951104,-0.00144339,0.0
192470631,-0.457796,0.0932296,-0.00141425,0.0
192574495,-0.456409,0.0952781,-0.00144026,0.0
192674535,-0.456259,0.0954285,-0.00144201,0.0
192774485,-0.456236,0.0967314,-0.00146178,0.0
192878474,-0.455722,0.09666,-0.00145986,0.0
192978485,-0.454916,0.0978741,-0.00147508,0.0
193079487,-0.455211,0.0971608,-0.00146477,0.0
193182483,-0.451217,0.096135,-0.00143733,0.0
193282535,-0.451122,0.0960792,-0.00143676,0.0
193386495,-0.453099,0.0974841,-0.00146318,0.0
193486482,-0.456491,0.0984083,-0.00148863,0.0
193584949,-0.458612,0.0990181,-0.00150446,0.0
193688850,-0.459246,0.0973704,-0.00148107,0.0
193790485,-0.459654,0.0963633,-0.00146736,0.0
193890692,-0.46152,0.0975317,-0.00149136,0.0
193994553,-0.461511,0.0970623,-0.0014841,0.0
194094488,-0.462926,0.0953416,-0.00146196,0.0
194194490,-0.461803,0.0963896,-0.00147471,0.0
194298609,-0.462254,0.0969316,-0.00148414,0.0
194398478,-0.461982,0.0977285,-0.00149584,0.0
194502486,-0.460555,0.0953142,-0.00145456,0.0
194602472,-0.460261,0.0963727,-0.00146988,0.0
194702544,-0.45866,0.098229,-0.00149311,0.0
194806487,-0.45749,0.0976674,-0.00148007,0.0
194906483,-0.458064,0.099368,-0.0015079,0.0
195010497,-0.45662,0.100749,-0.00152454,0.0
195110483,-0.458662,0.102326,-0.00155495,0.0
195210484,-0.457874,0.101153,-0.00153472,0.0
195311801,-0.457721,0.100035,-0.00151743,0.0
195415496,-0.456947,0.10024,-0.00151754,0.0
195514494,-0.459248,0.103071,-0.00156833,0.0
195618489,-0.456883,0.100692,-0.0015242,0.0
195717044,-0.457274,0.100035,-0.00151476,0.0
195821288,-0.45605,0.101514,-0.0015339,0.0
195922556,-0.453542,0.101044,-0.001518,0.0
196022489,-0.454571,0.100398,-0.00151213,0.0
196126482,-0.455256,0.100437,-0.00151484,0.0
196226602,-0.453443,0.0999577,-0.00150144,0.0
196326503,-0.452402,0.100029,-0.00149911,0.0
196430489,-0.45506,0.0986444,-0.0014859,0.0
196530485,-0.455932,0.100753,-0.00152211,0.0
196634545,-0.453858,0.10083,-0.00151625,0.0
196734569,-0.451897,0.101487,-0.00151863,0.0
196834490,-0.452188,0.100819,-0.00151077,0.0
196938485,-0.452039,0.100534,-0.00150518,0.0
197038488,-0.452612,0.100477,-0.00150632,0.0
197138496,-0.453955,0.0999073,-0.00150289,0.0
197242535,-0.453649,0.101382,-0.00152403,0.0
197342471,-0.454412,0.103132,-0.00155244,0.0
197443486,-0.455191,0.103471,-0.00155993,0.0
197546498,-0.457228,0.100784,-0.00152625,0.0
197646564,-0.455182,0.0991887,-0.0014963,0.0
197750489,-0.456794,0.0977984,-0.00147935,0.0
197848951,-0.45654,0.097281,-0.00147105,0.0
197952967,-0.456138,0.0985941,-0.00148996,0.0
198054518,-0.455392,0.0979176,-0.00147751,0.0
198154518,-0.45438,0.0967461,-0.00145657,0.0
198258494,-0.451959,0.0972992,-0.00145679,0.0
198359484,-0.4499,0.0966115,-0.00143929,0.0
198458489,-0.450409,0.0949987,-0.00141662,0.0
198562539,-0.450558,0.0965041,-0.00144085,0.0
198662487,-0.450298,0.0948328,-0.00141534,0.0
198762548,-0.448918,0.0938099,-0.00139502,0.0
198866485,-0.448644,0.0907565,-0.00134956,0.0
198966487,-0.451314,0.0892875,-0.00133466,0.0
199070493,-0.451395,0.0881283,-0.00131789,0.0
199170484,-0.452576,0.0894172,-0.00134058,0.0
199270534,-0.45168,0.0907147,-0.00135695,0.0
199370485,-0.452971,0.0905925,-0.00135936,0.0
199475539,-0.45257,0.0902574,-0.00135369,0.0
199574483,-0.453047,0.0912847,-0.00136921,0.0
199678474,-0.452687,0.0906626,-0.00135982,0.0
199779596,-0.453297,0.0884759,-0.00132897,0.0
199882541,-0.452479,0.0877889,-0.00131628,0.0
199981103,-0.456096,0.0871713,-0.00131703,0.0
200085176,-0.456401,0.0861569,-0.0013026,0.0
200186563,-0.454389,0.0849119,-0.00127833,0.0
200286562,-0.454298,0.0841279,-0.00126644,0.0
200386494,-0.453505,0.0817743,-0.00122847,0.0
200490517,-0.45319,0.0819882,-0.00123028,0.0
200590517,-0.453597,0.0834498,-0.0012541,0.0
200690483,-0.453489,0.0850949,-0.001278,0.0
200794484,-0.45279,0.0842849,-0.00126463,0.0
200894484,-0.453926,0.0839603,-0.00126264,0.0
200998524,-0.452371,0.0854948,-0.00128085,0.0
201098473,-0.451722,0.0824326,-0.00123378,0.0
201198526,-0.45178,0.0819613,-0.00122738,0.0
201302484,-0.451715,0.0801132,-0.00119918,0.0
201402489,-0.451736,0.0814658,-0.00121914,0.0
201506495,-0.450282,0.0828309,-0.00123502,0.0
201607486,-0.448959,0.0845625,-0.00125823,0.0
201706500,-0.449911,0.0837734,-0.00124884,0.0
201806530,-0.449196,0.0831629,-0.00123823,0.0
201910534,-0.449792,0.0816562,-0.00121708,0.0
202009491,-0.449115,0.0813445,-0.00121101,0.0
202113358,-0.449369,0.0827342,-0.00123148,0.0
202214478,-0.447585,0.0832722,-0.00123502,0.0
202318542,-0.447238,0.0834353,-0.00123699,0.0
202418494,-0.446919,0.0856859,-0.00126906,0.0
202518485,-0.446505,0.0834607,-0.00123527,0.0
202622492,-0.448484,0.0847501,-0.00125905,0.0
202722487,-0.449373,0.08486,-0.00126268,0.0
202822492,-0.449231,0.0849391,-0.00126478,0.0
202926486,-0.449597,0.0833796,-0.00124177,0.0
203026543,-0.449927,0.0839175,-0.00125086,0.0
203130518,-0.449411,0.0849223,-0.00126461,0.0
203230486,-0.447766,0.0849391,-0.00126043,0.0
203330489,-0.446961,0.0844101,-0.00124979,0.0
203434486,-0.444699,0.0846033,-0.00124567,0.0
203534486,-0.444165,0.0836666,-0.00123137,0.0
203634530,-0.44534,0.0829373,-0.00122409,0.0
203738539,-0.444998,0.0839476,-0.00123686,0.0
203838489,-0.443915,0.0842478,-0.00123923,0.0
203942494,-0.445126,0.0849012,-0.00125164,0.0
204042543,-0.44315,0.0834043,-0.00122413,0.0
204141510,-0.445227,0.0822822,-0.00121314,0.0
204245426,-0.446551,0.0835826,-0.00123563,0.0
204346521,-0.444886,0.0810694,-0.00119521,0.0
204446506,-0.44391,0.0828025,-0.0012181,0.0
204550487,-0.444888,0.0828788,-0.00122114,0.0
204650489,-0.445335,0.0839368,-0.00123749,0.0
204754497,-0.447948,0.0849816,-0.00126075,0.0
204854484,-0.447561,0.0845387,-0.00125285,0.0
204954488,-0.446345,0.0851439,-0.0012585,0.0
205058487,-0.444159,0.0846298,-0.0012451,0.0
205159529,-0.444948,0.0842444,-0.00124233,0.0
205258495,-0.443349,0.0830928,-0.0012195,0.0
205362498,-0.44277,0.0828484,-0.00121485,0.0
205462474,-0.442016,0.0835887,-0.0012244,0.0
205562488,-0.443604,0.0832334,-0.0012234,0.0
205666483,-0.443609,0.0810283,-0.00119049,0.0
205766490,-0.444747,0.0834525,-0.00122965,0.0
205870471,-0.443801,0.0821347,-0.00120791,0.0
205970489,-0.444938,0.0828408,-0.00122165,0.0
206070492,-0.443437,0.0837682,-0.00123083,0.0
206175516,-0.440039,0.083095,-0.00121091,0.0
206274051,-0.439026,0.0837612,-0.00121896,0.0
206375529,-0.440256,0.0842152,-0.00122779,0.0
206479497,-0.438841,0.0819773,-0.00119146,0.0
206579489,-0.437977,0.0809598,-0.00117488,0.0
206682484,-0.438563,0.0805219,-0.00117019,0.0
206782482,-0.440989,0.0793109,-0.00115896,0.0
206882650,-0.440031,0.078728,-0.00114764,0.0
206986520,-0.438914,0.0792996,-0.0011533,0.0
207086488,-0.43628,0.0808235,-0.0011682,0.0
207186485,-0.43342,0.079383,-0.00113965,0.0
207291619,-0.432387,0.0770935,-0.00110458,0.0
207390630,-0.433117,0.0775596,-0.00111341,0.0
207494482,-0.432419,0.0781447,-0.00111949,0.0
207594512,-0.431222,0.0775683,-0.00110799,0.0
207694510,-0.429268,0.0788525,-0.00112099,0.0
207798656,-0.42821,0.0791589,-0.00112315,0.0
207899490,-0.429043,0.0803968,-0.00114323,0.0
207998534,-0.428649,0.0817735,-0.00116142,0.0
208103473,-0.424894,0.0815483,-0.00114834,0.0
208202488,-0.424937,0.0834551,-0.00117559,0.0
208301415,-0.426775,0.0849661,-0.00120129,0.0
208405422,-0.427642,0.087187,-0.00123478,0.0
208509711,-0.427251,0.0865507,-0.00122427,0.0
208613565,-0.427805,0.087658,-0.00124258,0.0
208714529,-0.425423,0.0892026,-0.00125781,0.0
208814538,-0.426885,0.0905277,-0.00127997,0.0
208919542,-0.427005,0.0916973,-0.00129779,0.0
209018487,-0.427824,0.0929857,-0.00131791,0.0
209122527,-0.429517,0.0919064,-0.00130794,0.0
209222485,-0.430144,0.0934785,-0.00133294,0.0
209322487,-0.429411,0.0931887,-0.00132607,0.0
209425993,-0.430932,0.0922443,-0.00131692,0.0
209527488,-0.429907,0.092022,-0.00131083,0.0
209627483,-0.430229,0.093949,-0.00133892,0.0
209730493,-0.431192,0.0936164,-0.00133771,0.0
209830472,-0.430047,0.0930019,-0.00132411,0.0
209931513,-0.432031,0.0927269,-0.00132756,0.0
210034540,-0.432243,0.0966413,-0.00138386,0.0
210134475,-0.430878,0.0958888,-0.00136843,0.0
210234484,-0.430164,0.0962095,-0.00137081,0.0
210339506,-0.430528,0.0987855,-0.00140927,0.0
210439482,-0.430189,0.0998988,-0.00142388,0.0
210542486,-0.42947,0.0999264,-0.00142119,0.0
210641684,-0.428567,0.102573,-0.00145646,0.0
210742539,-0.42934,0.102482,-0.0014579,0.0
210846489,-0.429614,0.103372,-0.00147138,0.0
210946472,-0.429391,0.101184,-0.0014397,0.0
211046488,-0.429654,0.10157,-0.00144549,0.0
211151488,-0.428179,0.10075,-0.0014288,0.0
211251520,-0.428738,0.0984962,-0.00139907,0.0
211355493,-0.428745,0.0992421,-0.00141009,0.0
211455667,-0.428508,0.0999474,-0.00141885,0.0
211555563,-0.42927,0.100758,-0.0014325,0.0
211659625,-0.427756,0.0992741,-0.00140717,0.0
211759520,-0.429306,0.099795,-0.00141932,0.0
211859551,-0.430136,0.0995467,-0.0014189,0.0
211962471,-0.428579,0.097791,-0.00138855,0.0
212063488,-0.428892,0.100626,-0.00143007,0.0
212167533,-0.429872,0.0984192,-0.00140119,0.0
212267474,-0.429024,0.0980827,-0.00139392,0.0
212367506,-0.429138,0.0992518,-0.00141126,0.0
212470536,-0.431626,0.0989868,-0.00141525,0.0
212571509,-0.430783,0.0959943,-0.00137039,0.0
212669624,-0.432458,0.095264,-0.001365,0.0
212773954,-0.434226,0.0939224,-0.00135087,0.0
212875488,-0.43502,0.0942818,-0.00135914,0.0
212979521,-0.436896,0.0959974,-0.00138979,0.0
213079568,-0.435924,0.0966814,-0.00139639,0.0
213179482,-0.437264,0.0949507,-0.00137602,0.0
213283484,-0.436769,0.0945429,-0.00136798,0.0
213383487,-0.438213,0.0932151,-0.00135348,0.0
213483516,-0.437781,0.0923082,-0.001339,0.0
213587638,-0.437572,0.0926167,-0.00134278,0.0
213687510,-0.438489,0.0930142,-0.00135079,0.0
213791493,-0.436899,0.0920073,-0.00133166,0.0
213891509,-0.43625,0.0896801,-0.00129651,0.0
213991483,-0.436517,0.0894007,-0.00129261,0.0
214095645,-0.436449,0.0877191,-0.00126877,0.0
214195486,-0.435792,0.087051,-0.00125601,0.0
214295494,-0.43553,0.0864309,-0.00124716,0.0
214399471,-0.438184,0.0854123,-0.00124048,0.0
214499480,-0.436475,0.0865567,-0.00125124,0.0
214603499,-0.43705,0.0874478,-0.00126679,0.0
214703525,-0.436162,0.0887991,-0.00128225,0.0
214801645,-0.437211,0.0874082,-0.00126591,0.0
214905817,-0.438168,0.0875349,-0.00127043,0.0
215007513,-0.437657,0.0878287,-0.0012734,0.0
215107495,-0.438407,0.0863043,-0.00125316,0.0
215211512,-0.439172,0.0877868,-0.00127763,0.0
215311487,-0.440012,0.0888409,-0.00129441,0.0
215415533,-0.437924,0.087418,-0.00126843,0.0
215515489,-0.435929,0.0864219,-0.00124773,0.0
215615479,-0.43469,0.0837705,-0.00120603,0.0
215719609,-0.436546,0.0848831,-0.00122781,0.0
215819483,-0.435942,0.0821918,-0.00118722,0.0
215919518,-0.437696,0.0825031,-0.00119622,0.0
216023487,-0.436515,0.080832,-0.00116914,0.0
216123522,-0.438164,0.0814043,-0.00118193,0.0
216227493,-0.439888,0.0837553,-0.00122051,0.0
216327524,-0.440119,0.083736,-0.00122091,0.0
216425952,-0.441556,0.0866298,-0.00126775,0.0
216531505,-0.44073,0.0888184,-0.00129754,0.0
216631489,-0.441982,0.089087,-0.00130483,0.0
