timestamp,roll_body,pitch_body,yaw_body,yaw_sp_move_rate,q_d[0],q_d[1],q_d[2],q_d[3],thrust,landing_gear,q_d_valid,roll_reset_integral,pitch_reset_integral,yaw_reset_integral,fw_control_yaw,disable_mc_yaw_control,apply_flaps
62423401,0.0,-0.0,-0.0163932,0.0,0.999966,0.0,-0.0,-0.00819648,0.0,-1.0,1,0,0,0,0,0,0
62521340,0.0,-0.0,-0.0153098,0.0,0.999971,0.0,-0.0,-0.0076548,0.0,-1.0,1,0,0,0,0,0,0
62627188,0.0,-0.0,-0.0144652,0.0,0.999974,0.0,-0.0,-0.00723255,0.0,-1.0,1,0,0,0,0,0,0
62730256,0.0,-0.0,-0.0139639,0.0,0.999976,0.0,-0.0,-0.00698192,0.0,-1.0,1,0,0,0,0,0,0
62832821,0.0,-0.0,-0.0134873,0.0,0.999977,0.0,-0.0,-0.00674358,0.0,-1.0,1,0,0,0,0,0,0
62930898,0.0,-0.0,-0.01324,0.0,0.999978,0.0,-0.0,-0.00661997,0.0,-1.0,1,0,0,0,0,0,0
63034924,0.0,-0.0,-0.0126331,0.0,0.99998,0.0,-0.0,-0.00631653,0.0,-1.0,1,0,0,0,0,0,0
63134259,0.0,-0.0,-0.0120578,0.0,0.999982,0.0,-0.0,-0.00602888,0.0,-1.0,1,0,0,0,0,0,0
63238037,0.0,-0.0,-0.011399,0.0,0.999984,0.0,-0.0,-0.00569947,0.0,-1.0,1,0,0,0,0,0,0
63339743,0.0,-0.0,-0.0109958,0.0,0.999985,0.0,-0.0,-0.00549789,0.0,-1.0,1,0,0,0,0,0,0
63442422,0.0,-0.0,-0.0106349,0.0,0.999986,0.0,-0.0,-0.00531745,0.0,-1.0,1,0,0,0,0,0,0
63543065,0.0,-0.0,-0.0101783,0.0,0.999987,0.0,-0.0,-0.00508915,0.0,-1.0,1,0,0,0,0,0,0
63643826,0.0,-0.0,-0.0099061,0.0,0.999988,0.0,-0.0,-0.00495303,0.0,-1.0,1,0,0,0,0,0,0
63742044,0.0,-0.0,-0.0094308,0.0,0.999989,0.0,-0.0,-0.00471538,0.0,-1.0,1,0,0,0,0,0,0
63845222,0.0,-0.0,-0.00928062,0.0,0.999989,0.0,-0.0,-0.00464029,0.0,-1.0,1,0,0,0,0,0,0
63946134,0.0,-0.0,-0.00831765,0.0,0.999991,0.0,-0.0,-0.00415881,0.0,-1.0,1,0,0,0,0,0,0
64050029,0.0,-0.0,-0.00778235,0.0,0.999992,0.0,-0.0,-0.00389116,0.0,-1.0,1,0,0,0,0,0,0
64150125,0.0,-0.0,-0.00734363,0.0,0.999993,0.0,-0.0,-0.00367181,0.0,-1.0,1,0,0,0,0,0,0
64250665,0.0,-0.0,-0.0069823,0.0,0.999994,0.0,-0.0,-0.00349114,0.131591,-1.0,1,0,0,0,0,0,0
64355868,0.0,-0.0,-0.00685864,-1.11989e-13,0.999994,0.0,-0.0,-0.00342931,0.474996,-1.0,1,0,0,0,0,0,0
64455005,0.0,-0.0,-0.00685864,-1.58491e-15,0.999994,0.0,-0.0,-0.00342931,0.482694,-1.0,1,0,0,0,0,0,0
64558318,0.0,-0.0,-0.00685864,2.03887e-17,0.999994,0.0,-0.0,-0.00342931,0.467829,-1.0,1,0,0,0,0,0,0
64659778,0.0,-0.0,-0.00685864,1.03395e-18,0.999994,0.0,-0.0,-0.00342931,0.467454,-1.0,1,0,0,0,0,0,0
64757433,0.0,-0.0,-0.00685864,2.96124e-20,0.999994,0.0,-0.0,-0.00342931,0.467455,-1.0,1,0,0,0,0,0,0
64862087,0.0,-0.0,0.000698392,0.285503,1.0,0.0,0.0,0.000349196,0.537612,-1.0,1,0,0,0,0,0,0
64962025,0.0,-0.0,0.0420849,0.301573,0.999779,0.0,0.0,0.0210409,0.675319,-1.0,1,0,0,0,0,0,0
65066367,0.0,-0.0,0.0499571,-0.00991704,0.999688,0.0,0.0,0.024976,0.672535,-1.0,1,0,0,0,0,0,0
65166021,0.0,-0.0,0.0500034,-0.000203778,0.999687,0.0,0.0,0.0249991,0.672582,-1.0,1,0,0,0,0,0,0
65267371,0.0,-0.0,0.0504327,0.0120459,0.999682,0.0,0.0,0.0252137,0.698713,-1.0,1,0,0,0,0,0,0
65370001,0.0,-0.0,0.0516475,0.00657544,0.999667,0.0,0.0,0.0258209,0.704659,-1.0,1,0,0,0,0,0,0
65471788,0.0,-0.0,0.0518297,-0.000128988,0.999664,0.0,0.0,0.025912,0.70515,-1.0,1,0,0,0,0,0,0
65573029,0.0,-0.0,0.0518289,-5.81206e-06,0.999664,0.0,0.0,0.0259116,0.704068,-1.0,1,0,0,0,0,0,0
65671706,0.0,-0.0,0.0518288,-2.72826e-08,0.999664,0.0,0.0,0.0259115,0.696717,-1.0,1,0,0,0,0,0,0
65775009,-0.0433453,0.0506595,0.0507305,5.38071e-09,0.999109,-0.0222992,0.0247635,0.0258971,0.698134,-1.0,1,0,0,0,0,0,0
65875087,0.00201784,0.00289779,0.0518318,7.84035e-11,0.999663,0.000971035,0.00147455,0.0259115,0.698567,-1.0,1,0,0,0,0,0,0
65978070,-6.45807e-05,0.000236862,0.0447763,-0.182828,0.999749,-3.49335e-05,0.000117678,0.0223863,0.698707,-1.0,1,0,0,0,0,0,0
66079367,-5.69509e-06,8.85522e-06,0.00916755,-0.504469,0.99999,-2.86781e-06,4.41451e-06,0.00458376,0.698921,-1.0,1,0,0,0,0,0,0
66182015,-4.91266e-08,2.69543e-08,-0.0385584,-0.292282,0.999814,-2.42989e-08,1.39482e-08,-0.019278,0.699057,-1.0,1,0,0,0,0,0,0
66282384,4.11515e-09,-8.95321e-09,-0.0475102,0.0157694,0.999718,1.95066e-09,-4.52421e-09,-0.0237529,0.69858,-1.0,1,0,0,0,0,0,0
66382443,7.02012e-11,-1.23778e-10,-0.0474182,0.00014872,0.999719,3.36235e-11,-6.27037e-11,-0.0237069,0.698399,-1.0,1,0,0,0,0,0,0
66486397,0.0,-0.0,-0.0474137,-3.26387e-07,0.999719,0.0,-0.0,-0.0237046,0.698516,-1.0,1,0,0,0,0,0,0
66587072,0.0,-0.0,-0.0474137,-1.90628e-07,0.999719,0.0,-0.0,-0.0237046,0.698233,-1.0,1,0,0,0,0,0,0
66687244,-0.0399158,1.5663e-15,-0.0474137,-2.30927e-09,0.99952,-0.019951,0.000473063,-0.0236999,0.699027,-1.0,1,0,0,0,0,0,0
66792263,-0.105964,1.65484e-17,-0.0474137,-1.05454e-11,0.998316,-0.0529421,0.00125533,-0.0236714,0.698919,-1.0,1,0,0,0,0,0,0
66890575,-0.0876454,-9.72442e-19,-0.0474137,2.15311e-12,0.998759,-0.0437964,0.00103847,-0.0236819,0.698999,-1.0,1,0,0,0,0,0,0
66994219,0.000422207,-1.84057e-20,-0.0474137,3.12388e-14,0.999719,0.000211044,-5.00413e-06,-0.0237046,0.697942,-1.0,1,0,0,0,0,0,0
67095741,6.72278e-05,1.86434e-22,-0.0474137,-9.01233e-16,0.999719,3.36045e-05,-7.96805e-07,-0.0237046,0.698618,-1.0,1,0,0,0,0,0,0
67195042,7.03141e-07,9.04214e-24,-0.0474137,-2.27938e-17,0.999719,3.51472e-07,-8.33385e-09,-0.0237046,0.698605,-1.0,1,0,0,0,0,0,0
67298127,-0.009292,2.02507e-25,-0.0474444,-0.0129793,0.999708,-0.00464468,0.000110203,-0.0237197,0.698778,-1.0,1,0,0,0,0,0,0
67399706,0.000588199,-9.89837e-29,-0.0674823,-0.476248,0.999431,0.000293932,-9.92138e-06,-0.0337347,0.698171,-1.0,1,0,0,0,0,0,0
67499104,8.06625e-06,-7.4626e-29,-0.147435,-1.00734,0.997284,4.02217e-06,-2.97042e-07,-0.0736507,0.698802,-1.0,1,0,0,0,0,0,0
67604599,-2.70376e-07,-3.74099e-30,-0.252495,-0.904321,0.992041,-1.34112e-07,1.70219e-08,-0.125913,0.698518,-1.0,1,0,0,0,0,0,0
67699491,-6.3653e-09,-2.06033e-32,-0.282645,0.0182359,0.990031,-3.15092e-09,4.48285e-10,-0.140853,0.698713,-1.0,1,0,0,0,0,0,0
67803425,-1.02502e-10,4.93285e-34,-0.275111,0.166156,0.990554,-5.0767e-11,7.02767e-12,-0.137122,0.698568,-1.0,1,0,0,0,0,0,0
67907428,0.0,-0.0,-0.257901,0.155924,0.991697,0.0,-0.0,-0.128593,0.69874,-1.0,1,0,0,0,0,0,0
68006065,0.0,-0.0,-0.24994,0.0229349,0.992201,0.0,-0.0,-0.124645,0.699201,-1.0,1,0,0,0,0,0,0
68111050,0.0,-0.0,-0.248643,0.00493142,0.992282,0.0,-0.0,-0.124002,0.698864,-1.0,1,0,0,0,0,0,0
68211465,0.0,-0.0,-0.248327,0.00207068,0.992302,0.0,-0.0,-0.123845,0.738231,-1.0,1,0,0,0,0,0,0
68311102,0.0,-0.0,-0.24832,3.64835e-05,0.992302,0.0,-0.0,-0.123841,0.777507,-1.0,1,0,0,0,0,0,0
68415027,0.0,-0.0,-0.248319,-5.3387e-07,0.992302,0.0,-0.0,-0.123841,0.778496,-1.0,1,0,0,0,0,0,0
68515220,0.0,-0.0,-0.248319,-2.00158e-08,0.992302,0.0,-0.0,-0.123841,0.779461,-1.0,1,0,0,0,0,0,0
68616305,0.0,-0.0,-0.248319,-4.10647e-10,0.992302,0.0,-0.0,-0.123841,0.801834,-1.0,1,0,0,0,0,0,0
68720362,0.0,-0.0,-0.248319,2.02204e-12,0.992302,0.0,-0.0,-0.123841,0.877092,-1.0,1,0,0,0,0,0,0
68820995,0.0,-0.0,-0.248282,0.0014307,0.992304,0.0,-0.0,-0.123822,0.942077,-1.0,1,0,0,0,0,0,0
68923946,0.0,-0.0,-0.247774,0.00521843,0.992336,0.0,-0.0,-0.123571,0.9667,-1.0,1,0,0,0,0,0,0
69021476,6.34687e-31,-0.0649716,-0.247685,-0.0001701,0.991818,-0.00401215,-0.0322313,-0.123461,0.964731,-1.0,1,0,0,0,0,0,0
69125406,8.7973e-32,-0.193157,-0.247683,-4.05665e-06,0.987717,-0.0119114,-0.0956901,-0.12295,0.962928,-1.0,1,0,0,0,0,0,0
69227635,2.29933e-33,-0.163041,-0.247683,-6.59623e-08,0.989046,-0.0100587,-0.0808066,-0.123115,0.962676,-1.0,1,0,0,0,0,0,0
69326077,1.63868e-35,-0.146091,-0.247683,1.33078e-09,0.989695,-0.00901497,-0.0724218,-0.123196,0.963157,-1.0,1,0,0,0,0,0,0
69430069,-6.22816e-37,-0.145332,-0.247683,4.08434e-11,0.989723,-0.00896818,-0.0720458,-0.123199,0.962841,-1.0,1,0,0,0,0,0,0
69531687,-5.1332e-38,-0.145459,-0.247683,5.55928e-13,0.989718,-0.00897604,-0.072109,-0.123199,0.96276,-1.0,1,0,0,0,0,0,0
69631038,-4.28057e-40,-0.145922,-0.247683,-7.71746e-15,0.989701,-0.00900455,-0.0723381,-0.123197,0.962842,-1.0,1,0,0,0,0,0,0
69735240,3.78659e-41,-0.148716,-0.247683,-1.04837e-15,0.989599,-0.00917664,-0.0737205,-0.123184,0.963103,-1.0,1,0,0,0,0,0,0
69835054,6.37591e-43,-0.175693,-0.247683,-1.05543e-17,0.988515,-0.0108373,-0.0870615,-0.123049,0.963224,-1.0,1,0,0,0,0,0,0
69935425,-8.40779e-45,-0.192199,-0.247683,6.79441e-19,0.987763,-0.0118525,-0.095217,-0.122955,0.96248,-1.0,1,0,0,0,0,0,0
70039650,0.0,-0.20638,-0.247683,1.24758e-20,0.987063,-0.012724,-0.102218,-0.122868,0.962729,-1.0,1,0,0,0,0,0,0
70139047,0.0,-0.211021,-0.247683,-1.49094e-22,0.986823,-0.013009,-0.104508,-0.122838,0.956196,-1.0,1,0,0,0,0,0,0
70239692,0.0,-0.212025,-0.247683,-6.41838e-24,0.98677,-0.0130707,-0.105003,-0.122832,0.911131,-1.0,1,0,0,0,0,0,0
70343667,0.0,-0.212358,-0.247683,-1.57501e-25,0.986753,-0.0130912,-0.105168,-0.12283,0.909089,-1.0,1,0,0,0,0,0,0
70443037,0.0,-0.213462,-0.247683,3.19588e-28,0.986695,-0.013159,-0.105713,-0.122822,0.878001,-1.0,1,0,0,0,0,0,0
70547041,0.0,-0.211677,-0.247683,2.00537e-28,0.986789,-0.0130493,-0.104832,-0.122834,0.846838,-1.0,1,0,0,0,0,0,0
70647423,0.0,-0.213468,-0.247683,2.43791e-30,0.986694,-0.0131594,-0.105716,-0.122822,0.827574,-1.0,1,0,0,0,0,0,0
70747092,0.0,-0.213873,-0.247683,-1.08311e-31,0.986673,-0.0131842,-0.105915,-0.12282,0.805988,-1.0,1,0,0,0,0,0,0
70851019,0.0,-0.219806,-0.247683,-2.26248e-33,0.986354,-0.0135485,-0.108842,-0.12278,0.7835,-1.0,1,0,0,0,0,0,0
70954038,0.0,-0.235857,-0.247683,-3.29184e-35,0.985449,-0.0145334,-0.116754,-0.122667,0.770911,-1.0,1,0,0,0,0,0,0
71053669,-0.00662683,-0.241665,-0.246879,9.4221e-37,0.985101,-0.0181056,-0.119216,-0.122624,0.769155,-1.0,1,0,0,0,0,0,0
71155038,-0.0428766,-0.245345,-0.242396,2.39241e-38,0.984661,-0.0359103,-0.118867,-0.122569,0.746704,-1.0,1,0,0,0,0,0,0
71255033,-0.0496775,-0.267351,-0.241002,1.35542e-40,0.983191,-0.0404524,-0.129312,-0.122386,0.748392,-1.0,1,0,0,0,0,0,0
71359059,-0.0310984,-0.310477,-0.242816,-6.94063e-42,0.980293,-0.0339718,-0.151598,-0.122026,0.746054,-1.0,1,0,0,0,0,0,0
71459661,-0.0203749,-0.31886,-0.244407,-5.14277e-43,0.979707,-0.0293343,-0.156337,-0.121953,0.746541,-1.0,1,0,0,0,0,0,0
71559077,0.000766805,-0.357114,-0.247822,-4.2039e-45,0.976564,-0.0215771,-0.176295,-0.121561,0.746032,-1.0,1,0,0,0,0,0,0
71663063,-5.30231e-06,-0.378096,-0.247682,0.0,0.974661,-0.0232159,-0.186484,-0.121325,0.746569,-1.0,1,0,0,0,0,0,0
71763705,-3.48735e-07,-0.397606,-0.247683,0.0,0.972796,-0.024396,-0.195984,-0.121092,0.746121,-1.0,1,0,0,0,0,0,0
71863167,-1.1834e-08,-0.409319,-0.247683,0.0,0.971631,-0.0251045,-0.201677,-0.120947,0.746573,-1.0,1,0,0,0,0,0,0
71967043,-2.40436e-11,-0.425548,-0.247683,0.0,0.969963,-0.0260851,-0.209555,-0.12074,0.746549,-1.0,1,0,0,0,0,0,0
72067671,1.26996e-11,-0.437468,-0.247683,0.0,0.968697,-0.0268042,-0.215332,-0.120582,0.746548,-1.0,1,0,0,0,0,0,0
72171425,1.71009e-13,-0.447319,-0.247683,0.0,0.967624,-0.0273979,-0.220101,-0.120449,0.746066,-1.0,1,0,0,0,0,0,0
72271037,-6.0514e-15,-0.449198,-0.247683,0.0,0.967417,-0.027511,-0.22101,-0.120423,0.746575,-1.0,1,0,0,0,0,0,0
72371562,-1.39119e-16,-0.450657,-0.247683,0.0,0.967256,-0.0275989,-0.221716,-0.120403,0.722055,-1.0,1,0,0,0,0,0,0
72475032,-2.1972e-18,-0.448826,-0.24761,0.0148357,0.967463,-0.0274806,-0.220831,-0.120393,0.70534,-1.0,1,0,0,0,0,0,0
72575372,4.88914e-20,-0.448631,-0.243063,0.0562973,0.967755,-0.0269669,-0.220798,-0.118195,0.693263,-1.0,1,0,0,0,0,0,0
72675062,2.66269e-21,-0.449377,-0.237924,0.0434117,0.967974,-0.0264426,-0.221228,-0.115698,0.692534,-1.0,1,0,0,0,0,0,0
72779040,1.61865e-23,-0.448605,-0.233366,0.042805,0.96832,-0.0258945,-0.220914,-0.113502,0.646427,-1.0,1,0,0,0,0,0,0
72880321,-2.27378e-24,-0.448701,-0.230564,0.0174515,0.968468,-0.0255904,-0.220997,-0.112144,0.609536,-1.0,1,0,0,0,0,0,0
72984313,-3.48351e-26,-0.450077,-0.229993,-0.000351841,0.968347,-0.0256042,-0.22167,-0.11185,0.562679,-1.0,1,0,0,0,0,0,0
73081309,-3.32094e-28,-0.450557,-0.230007,4.18209e-06,0.968293,-0.0256327,-0.221903,-0.111851,0.52538,-1.0,1,0,0,0,0,0,0
73185607,-0.000951823,-0.451,-0.229789,6.27211e-07,0.968244,-0.026094,-0.222066,-0.111845,0.526615,-1.0,1,0,0,0,0,0,0
73287703,-0.000958545,-0.454433,-0.229786,6.47199e-09,0.967861,-0.0262885,-0.223728,-0.111801,0.52622,-1.0,1,0,0,0,0,0,0
73387066,2.28992e-05,-0.460196,-0.230013,-3.98346e-10,0.967212,-0.026161,-0.226568,-0.111726,0.525786,-1.0,1,0,0,0,0,0,0
73487648,6.46753e-07,-0.491814,-0.230008,-7.41734e-12,0.96351,-0.0279341,-0.241828,-0.111298,0.525722,-1.0,1,0,0,0,0,0,0
73591655,6.38071e-09,-0.497373,-0.230008,8.20918e-14,0.962834,-0.0282437,-0.244505,-0.11122,0.525676,-1.0,1,0,0,0,0,0,0
73691021,-1.53676e-10,-0.499777,-0.230008,3.73255e-15,0.962539,-0.0283773,-0.245663,-0.111186,0.5189,-1.0,1,0,0,0,0,0,0
73795112,-6.24383e-12,-0.521071,-0.230008,8.21172e-17,0.95987,-0.0295595,-0.255896,-0.110878,0.50116,-1.0,1,0,0,0,0,0,0
73895398,-1.42336e-13,-0.533185,-0.230008,-1.17227e-19,0.958302,-0.0302305,-0.261705,-0.110697,0.500974,-1.0,1,0,0,0,0,0,0
73995077,4.62214e-16,-0.541945,-0.230008,-3.12423e-20,0.957147,-0.0307151,-0.2659,-0.110563,0.500986,-1.0,1,0,0,0,0,0,0
74099064,1.9112e-16,-0.546029,-0.230008,-1.47763e-21,0.956602,-0.0309408,-0.267854,-0.1105,0.500986,-1.0,1,0,0,0,0,0,0
74199473,2.27326e-18,-0.553506,-0.230008,-7.49802e-24,0.955593,-0.0313537,-0.271429,-0.110384,0.500986,-1.0,1,0,0,0,0,0,0
74299172,-1.07087e-19,-0.56548,-0.230008,1.33893e-24,0.953951,-0.032014,-0.277145,-0.110194,0.500986,-1.0,1,0,0,0,0,0,0
74403059,-2.18479e-21,-0.558432,-0.230008,1.97667e-26,0.954922,-0.0316254,-0.273781,-0.110306,0.500986,-1.0,1,0,0,0,0,0,0
74503053,1.17855e-23,-0.551091,-0.230008,-5.42831e-28,0.955921,-0.0312204,-0.270275,-0.110422,0.500986,-1.0,1,0,0,0,0,0,0
74607057,9.40112e-25,-0.55363,-0.230008,-1.40737e-29,0.955577,-0.0313605,-0.271488,-0.110382,0.500986,-1.0,1,0,0,0,0,0,0
74707711,3.48399e-26,-0.556306,-0.230008,-9.30922e-32,0.955212,-0.0315082,-0.272767,-0.11034,0.500986,-1.0,1,0,0,0,0,0,0
74807102,1.02687e-28,-0.556401,-0.230008,3.91317e-33,0.9552,-0.0315134,-0.272812,-0.110338,0.500986,-1.0,1,0,0,0,0,0,0
74911202,-7.14629e-30,-0.564404,-0.230008,1.3767e-34,0.9541,-0.0319547,-0.276632,-0.110211,0.500986,-1.0,1,0,0,0,0,0,0
75012334,-4.90754e-31,-0.569185,-0.230008,2.54266e-36,0.953436,-0.0322181,-0.278912,-0.110135,0.500986,-1.0,1,0,0,0,0,0,0
75109604,1.6257e-32,-0.572589,-0.230008,-2.31957e-37,0.95296,-0.0324055,-0.280534,-0.11008,0.500986,-1.0,1,0,0,0,0,0,0
75213444,3.84627e-34,-0.569941,-0.230008,-3.87497e-39,0.953331,-0.0322597,-0.279272,-0.110123,0.500986,-1.0,1,0,0,0,0,0,0
75317298,6.12117e-36,-0.531459,-0.230008,-4.30058e-41,0.958527,-0.030135,-0.260878,-0.110723,0.500986,-1.0,1,0,0,0,0,0,0
75419683,-1.20116e-37,-0.399335,-0.230008,2.29953e-42,0.973658,-0.02276,-0.197033,-0.112471,0.500986,-1.0,1,0,0,0,0,0,0
75520097,-3.45221e-39,0.00533394,-0.230008,4.34403e-44,0.993391,0.000306036,0.00264935,-0.11475,0.500986,-1.0,1,0,0,0,0,0,0
75620773,-4.56067e-41,0.00284266,-0.230008,0.0,0.993393,0.000163098,0.00141194,-0.11475,0.500986,-1.0,1,0,0,0,0,0,0
75723447,6.69821e-43,5.71189e-05,-0.230008,0.0,0.993394,3.27721e-06,2.83708e-05,-0.11475,0.500986,-1.0,1,0,0,0,0,0,0
75824759,3.36312e-44,7.9991e-07,-0.230008,0.0,0.993394,4.5895e-08,3.97313e-07,-0.11475,0.500986,-1.0,1,0,0,0,0,0,0
75924044,2.8026e-45,-2.53972e-08,-0.230008,0.0,0.993394,-1.45717e-09,-1.26147e-08,-0.11475,0.517718,-1.0,1,0,0,0,0,0,0
76027051,0.0,-6.13209e-10,-0.230008,0.0,0.993394,-3.5183e-11,-3.04579e-10,-0.11475,0.535178,-1.0,1,0,0,0,0,0,0
76127401,0.0,-0.0,-0.230008,0.0,0.993394,0.0,-0.0,-0.11475,0.557125,-1.0,1,0,0,0,0,0,0
76231378,0.0,-0.0,-0.230008,0.0,0.993394,0.0,-0.0,-0.11475,0.556794,-1.0,1,0,0,0,0,0,0
76331046,0.0,-0.0,-0.230008,0.0,0.993394,0.0,-0.0,-0.11475,0.557199,-1.0,1,0,0,0,0,0,0
76431733,0.0,-0.0,-0.230008,0.0,0.993394,0.0,-0.0,-0.11475,0.556772,-1.0,1,0,0,0,0,0,0
76535706,0.0,-0.0,-0.230008,0.0,0.993394,0.0,-0.0,-0.11475,0.557224,-1.0,1,0,0,0,0,0,0
76635430,0.0,-0.0,-0.230008,0.0,0.993394,0.0,-0.0,-0.11475,0.556996,-1.0,1,0,0,0,0,0,0
76735096,0.0,-0.0,-0.230008,0.0,0.993394,0.0,-0.0,-0.11475,0.557254,-1.0,1,0,0,0,0,0,0
76743037,0.0,-0.0,-0.230008,0.0,0.993394,0.0,-0.0,-0.11475,0.557226,-1.0,1,0,0,0,0,0,0
76743037,0.0,-0.0,-0.230008,0.0,0.993394,0.0,-0.0,-0.11475,0.557226,-1.0,1,0,0,0,0,0,0
76743037,0.0,-0.0,-0.230008,0.0,0.993394,0.0,-0.0,-0.11475,0.557226,-1.0,1,0,0,0,0,0,0
76743037,0.0,-0.0,-0.230008,0.0,0.993394,0.0,-0.0,-0.11475,0.557226,-1.0,1,0,0,0,0,0,0
76743037,0.0,-0.0,-0.230008,0.0,0.993394,0.0,-0.0,-0.11475,0.557226,-1.0,1,0,0,0,0,0,0
76743037,0.0,-0.0,-0.230008,0.0,0.993394,0.0,-0.0,-0.11475,0.557226,-1.0,1,0,0,0,0,0,0
76743037,0.0,-0.0,-0.230008,0.0,0.993394,0.0,-0.0,-0.11475,0.557226,-1.0,1,0,0,0,0,0,0
76743037,0.0,-0.0,-0.230008,0.0,0.993394,0.0,-0.0,-0.11475,0.557226,-1.0,1,0,0,0,0,0,0
76743037,0.0,-0.0,-0.230008,0.0,0.993394,0.0,-0.0,-0.11475,0.557226,-1.0,1,0,0,0,0,0,0
76743037,0.0,-0.0,-0.230008,0.0,0.993394,0.0,-0.0,-0.11475,0.557226,-1.0,1,0,0,0,0,0,0
76743037,0.0,-0.0,-0.230008,0.0,0.993394,0.0,-0.0,-0.11475,0.557226,-1.0,1,0,0,0,0,0,0
76743037,0.0,-0.0,-0.230008,0.0,0.993394,0.0,-0.0,-0.11475,0.557226,-1.0,1,0,0,0,0,0,0
76743037,0.0,-0.0,-0.230008,0.0,0.993394,0.0,-0.0,-0.11475,0.557226,-1.0,1,0,0,0,0,0,0
76743037,0.0,-0.0,-0.230008,0.0,0.993394,0.0,-0.0,-0.11475,0.557226,-1.0,1,0,0,0,0,0,0
76743037,0.0,-0.0,-0.230008,0.0,0.993394,0.0,-0.0,-0.11475,0.557226,-1.0,1,0,0,0,0,0,0
76743037,0.0,-0.0,-0.230008,0.0,0.993394,0.0,-0.0,-0.11475,0.557226,-1.0,1,0,0,0,0,0,0
76743037,0.0,-0.0,-0.230008,0.0,0.993394,0.0,-0.0,-0.11475,0.557226,-1.0,1,0,0,0,0,0,0
76743037,0.0,-0.0,-0.230008,0.0,0.993394,0.0,-0.0,-0.11475,0.557226,-1.0,1,0,0,0,0,0,0
76743037,0.0,-0.0,-0.230008,0.0,0.993394,0.0,-0.0,-0.11475,0.557226,-1.0,1,0,0,0,0,0,0
76743037,0.0,-0.0,-0.230008,0.0,0.993394,0.0,-0.0,-0.11475,0.557226,-1.0,1,0,0,0,0,0,0
76743037,0.0,-0.0,-0.230008,0.0,0.993394,0.0,-0.0,-0.11475,0.557226,-1.0,1,0,0,0,0,0,0
76743037,0.0,-0.0,-0.230008,0.0,0.993394,0.0,-0.0,-0.11475,0.557226,-1.0,1,0,0,0,0,0,0
76743037,0.0,-0.0,-0.230008,0.0,0.993394,0.0,-0.0,-0.11475,0.557226,-1.0,1,0,0,0,0,0,0
76743037,0.0,-0.0,-0.230008,0.0,0.993394,0.0,-0.0,-0.11475,0.557226,-1.0,1,0,0,0,0,0,0
76743037,0.0,-0.0,-0.230008,0.0,0.993394,0.0,-0.0,-0.11475,0.557226,-1.0,1,0,0,0,0,0,0
76743037,0.0,-0.0,-0.230008,0.0,0.993394,0.0,-0.0,-0.11475,0.557226,-1.0,1,0,0,0,0,0,0
76743037,0.0,-0.0,-0.230008,0.0,0.993394,0.0,-0.0,-0.11475,0.557226,-1.0,1,0,0,0,0,0,0
76743037,0.0,-0.0,-0.230008,0.0,0.993394,0.0,-0.0,-0.11475,0.557226,-1.0,1,0,0,0,0,0,0
76743037,0.0,-0.0,-0.230008,0.0,0.993394,0.0,-0.0,-0.11475,0.557226,-1.0,1,0,0,0,0,0,0
76743037,0.0,-0.0,-0.230008,0.0,0.993394,0.0,-0.0,-0.11475,0.557226,-1.0,1,0,0,0,0,0,0
76743037,0.0,-0.0,-0.230008,0.0,0.993394,0.0,-0.0,-0.11475,0.557226,-1.0,1,0,0,0,0,0,0
76743037,0.0,-0.0,-0.230008,0.0,0.993394,0.0,-0.0,-0.11475,0.557226,-1.0,1,0,0,0,0,0,0
76743037,0.0,-0.0,-0.230008,0.0,0.993394,0.0,-0.0,-0.11475,0.557226,-1.0,1,0,0,0,0,0,0
76743037,0.0,-0.0,-0.230008,0.0,0.993394,0.0,-0.0,-0.11475,0.557226,-1.0,1,0,0,0,0,0,0
76743037,0.0,-0.0,-0.230008,0.0,0.993394,0.0,-0.0,-0.11475,0.557226,-1.0,1,0,0,0,0,0,0
76743037,0.0,-0.0,-0.230008,0.0,0.993394,0.0,-0.0,-0.11475,0.557226,-1.0,1,0,0,0,0,0,0
76743037,0.0,-0.0,-0.230008,0.0,0.993394,0.0,-0.0,-0.11475,0.557226,-1.0,1,0,0,0,0,0,0
76743037,0.0,-0.0,-0.230008,0.0,0.993394,0.0,-0.0,-0.11475,0.557226,-1.0,1,0,0,0,0,0,0
76743037,0.0,-0.0,-0.230008,0.0,0.993394,0.0,-0.0,-0.11475,0.557226,-1.0,1,0,0,0,0,0,0
76743037,0.0,-0.0,-0.230008,0.0,0.993394,0.0,-0.0,-0.11475,0.557226,-1.0,1,0,0,0,0,0,0
76743037,0.0,-0.0,-0.230008,0.0,0.993394,0.0,-0.0,-0.11475,0.557226,-1.0,1,0,0,0,0,0,0
76743037,0.0,-0.0,-0.230008,0.0,0.993394,0.0,-0.0,-0.11475,0.557226,-1.0,1,0,0,0,0,0,0
76743037,0.0,-0.0,-0.230008,0.0,0.993394,0.0,-0.0,-0.11475,0.557226,-1.0,1,0,0,0,0,0,0
76743037,0.0,-0.0,-0.230008,0.0,0.993394,0.0,-0.0,-0.11475,0.557226,-1.0,1,0,0,0,0,0,0
76743037,0.0,-0.0,-0.230008,0.0,0.993394,0.0,-0.0,-0.11475,0.557226,-1.0,1,0,0,0,0,0,0
76743037,0.0,-0.0,-0.230008,0.0,0.993394,0.0,-0.0,-0.11475,0.557226,-1.0,1,0,0,0,0,0,0
76743037,0.0,-0.0,-0.230008,0.0,0.993394,0.0,-0.0,-0.11475,0.557226,-1.0,1,0,0,0,0,0,0
76743037,0.0,-0.0,-0.230008,0.0,0.993394,0.0,-0.0,-0.11475,0.557226,-1.0,1,0,0,0,0,0,0
76743037,0.0,-0.0,-0.230008,0.0,0.993394,0.0,-0.0,-0.11475,0.557226,-1.0,1,0,0,0,0,0,0
76743037,0.0,-0.0,-0.230008,0.0,0.993394,0.0,-0.0,-0.11475,0.557226,-1.0,1,0,0,0,0,0,0
76743037,0.0,-0.0,-0.230008,0.0,0.993394,0.0,-0.0,-0.11475,0.557226,-1.0,1,0,0,0,0,0,0
76743037,0.0,-0.0,-0.230008,0.0,0.993394,0.0,-0.0,-0.11475,0.557226,-1.0,1,0,0,0,0,0,0
76743037,0.0,-0.0,-0.230008,0.0,0.993394,0.0,-0.0,-0.11475,0.557226,-1.0,1,0,0,0,0,0,0
76743037,0.0,-0.0,-0.230008,0.0,0.993394,0.0,-0.0,-0.11475,0.557226,-1.0,1,0,0,0,0,0,0
76743037,0.0,-0.0,-0.230008,0.0,0.993394,0.0,-0.0,-0.11475,0.557226,-1.0,1,0,0,0,0,0,0
76743037,0.0,-0.0,-0.230008,0.0,0.993394,0.0,-0.0,-0.11475,0.557226,-1.0,1,0,0,0,0,0,0
76743037,0.0,-0.0,-0.230008,0.0,0.993394,0.0,-0.0,-0.11475,0.557226,-1.0,1,0,0,0,0,0,0
76743037,0.0,-0.0,-0.230008,0.0,0.993394,0.0,-0.0,-0.11475,0.557226,-1.0,1,0,0,0,0,0,0
76743037,0.0,-0.0,-0.230008,0.0,0.993394,0.0,-0.0,-0.11475,0.557226,-1.0,1,0,0,0,0,0,0
76743037,0.0,-0.0,-0.230008,0.0,0.993394,0.0,-0.0,-0.11475,0.557226,-1.0,1,0,0,0,0,0,0
76743037,0.0,-0.0,-0.230008,0.0,0.993394,0.0,-0.0,-0.11475,0.557226,-1.0,1,0,0,0,0,0,0
76743037,0.0,-0.0,-0.230008,0.0,0.993394,0.0,-0.0,-0.11475,0.557226,-1.0,1,0,0,0,0,0,0
76743037,0.0,-0.0,-0.230008,0.0,0.993394,0.0,-0.0,-0.11475,0.557226,-1.0,1,0,0,0,0,0,0
76743037,0.0,-0.0,-0.230008,0.0,0.993394,0.0,-0.0,-0.11475,0.557226,-1.0,1,0,0,0,0,0,0
76743037,0.0,-0.0,-0.230008,0.0,0.993394,0.0,-0.0,-0.11475,0.557226,-1.0,1,0,0,0,0,0,0
76743037,0.0,-0.0,-0.230008,0.0,0.993394,0.0,-0.0,-0.11475,0.557226,-1.0,1,0,0,0,0,0,0
76743037,0.0,-0.0,-0.230008,0.0,0.993394,0.0,-0.0,-0.11475,0.557226,-1.0,1,0,0,0,0,0,0
76743037,0.0,-0.0,-0.230008,0.0,0.993394,0.0,-0.0,-0.11475,0.557226,-1.0,1,0,0,0,0,0,0
76743037,0.0,-0.0,-0.230008,0.0,0.993394,0.0,-0.0,-0.11475,0.557226,-1.0,1,0,0,0,0,0,0
76743037,0.0,-0.0,-0.230008,0.0,0.993394,0.0,-0.0,-0.11475,0.557226,-1.0,1,0,0,0,0,0,0
76743037,0.0,-0.0,-0.230008,0.0,0.993394,0.0,-0.0,-0.11475,0.557226,-1.0,1,0,0,0,0,0,0
76743037,0.0,-0.0,-0.230008,0.0,0.993394,0.0,-0.0,-0.11475,0.557226,-1.0,1,0,0,0,0,0,0
76743037,0.0,-0.0,-0.230008,0.0,0.993394,0.0,-0.0,-0.11475,0.557226,-1.0,1,0,0,0,0,0,0
76743037,0.0,-0.0,-0.230008,0.0,0.993394,0.0,-0.0,-0.11475,0.557226,-1.0,1,0,0,0,0,0,0
76743037,0.0,-0.0,-0.230008,0.0,0.993394,0.0,-0.0,-0.11475,0.557226,-1.0,1,0,0,0,0,0,0
76743037,0.0,-0.0,-0.230008,0.0,0.993394,0.0,-0.0,-0.11475,0.557226,-1.0,1,0,0,0,0,0,0
76743037,0.0,-0.0,-0.230008,0.0,0.993394,0.0,-0.0,-0.11475,0.557226,-1.0,1,0,0,0,0,0,0
76743037,0.0,-0.0,-0.230008,0.0,0.993394,0.0,-0.0,-0.11475,0.557226,-1.0,1,0,0,0,0,0,0
76743037,0.0,-0.0,-0.230008,0.0,0.993394,0.0,-0.0,-0.11475,0.557226,-1.0,1,0,0,0,0,0,0
76743037,0.0,-0.0,-0.230008,0.0,0.993394,0.0,-0.0,-0.11475,0.557226,-1.0,1,0,0,0,0,0,0
76743037,0.0,-0.0,-0.230008,0.0,0.993394,0.0,-0.0,-0.11475,0.557226,-1.0,1,0,0,0,0,0,0
76743037,0.0,-0.0,-0.230008,0.0,0.993394,0.0,-0.0,-0.11475,0.557226,-1.0,1,0,0,0,0,0,0
85158157,0.0,-0.0,2.32903,0.0,0.395198,0.0,0.0,0.918596,0.557166,-1.0,1,0,0,0,0,0,0
85263955,0.0,-0.0,2.32903,0.0,0.395198,0.0,0.0,0.918596,0.556715,-1.0,1,0,0,0,0,0,0
85366407,0.0,-0.0,2.32903,0.0,0.395198,0.0,0.0,0.918596,0.557166,-1.0,1,0,0,0,0,0,0
85463036,0.0,-0.0,2.32903,0.0,0.395198,0.0,0.0,0.918596,0.55699,-1.0,1,0,0,0,0,0,0
85567418,0.0,-0.0,2.32903,0.0,0.395198,0.0,0.0,0.918596,0.556884,-1.0,1,0,0,0,0,0,0
85667062,0.0,-0.0,2.32903,0.0,0.395198,0.0,0.0,0.918596,0.55699,-1.0,1,0,0,0,0,0,0
85771419,0.0,-0.0,2.32903,0.0,0.395198,0.0,0.0,0.918596,0.556772,-1.0,1,0,0,0,0,0,0
85871034,0.0,-0.0,2.32903,0.0,0.395198,0.0,0.0,0.918596,0.557199,-1.0,1,0,0,0,0,0,0
85975416,0.0,-0.0,2.32903,0.0,0.395198,0.0,0.0,0.918596,0.556717,-1.0,1,0,0,0,0,0,0
86075024,0.0,-0.0,2.32903,0.0,0.395198,0.0,0.0,0.918596,0.556884,-1.0,1,0,0,0,0,0,0
86175096,0.0,-0.0,2.32903,0.0,0.395198,0.0,0.0,0.918596,0.55699,-1.0,1,0,0,0,0,0,0
86279290,0.0,-0.0,2.32903,0.0,0.395198,0.0,0.0,0.918596,0.556884,-1.0,1,0,0,0,0,0,0
86381267,0.0,-0.0,2.32903,0.0,0.395198,0.0,0.0,0.918596,0.557199,-1.0,1,0,0,0,0,0,0
86479127,0.0,-0.0,2.32903,0.0,0.395198,0.0,0.0,0.918596,0.556772,-1.0,1,0,0,0,0,0,0
86583052,0.0,-0.0,2.32903,0.0,0.395198,0.0,0.0,0.918596,0.557199,-1.0,1,0,0,0,0,0,0
86683711,0.0,-0.0,2.32903,0.0,0.395198,0.0,0.0,0.918596,0.556964,-1.0,1,0,0,0,0,0,0
86787052,0.0,-0.0,2.32903,0.0,0.395198,0.0,0.0,0.918596,0.557224,-1.0,1,0,0,0,0,0,0
86886755,0.0,-0.0,2.32903,0.0,0.395198,0.0,0.0,0.918596,0.0801317,-1.0,1,0,0,0,0,0,0
86987250,0.0,-0.0,2.32903,0.0,0.395198,0.0,0.0,0.918596,0.08,-1.0,1,0,0,0,0,0,0
87091212,0.0,-0.0,2.32903,0.0,0.395198,0.0,0.0,0.918596,0.08,-1.0,1,0,0,0,0,0,0
87190798,0.0,-0.0,2.32903,0.0,0.395198,0.0,0.0,0.918596,0.08,-1.0,1,0,0,0,0,0,0
87294836,0.0,-0.0,2.32903,0.0,0.395198,0.0,0.0,0.918596,0.08,-1.0,1,0,0,0,0,0,0
87395040,0.0,-0.0,2.32903,0.0,0.395198,0.0,0.0,0.918596,0.08,-1.0,1,0,0,0,0,0,0
87495143,0.0,-0.0,2.32903,0.0,0.395198,0.0,0.0,0.918596,0.08,-1.0,1,0,0,0,0,0,0
87595039,0.0,-0.0,2.32903,0.0,0.395198,0.0,0.0,0.918596,0.08,-1.0,1,0,0,0,0,0,0
87700181,0.0,-0.0,2.32903,0.0,0.395198,0.0,0.0,0.918596,0.08,-1.0,1,0,0,0,0,0,0
87799070,0.0,-0.0,2.32903,0.0,0.395198,0.0,0.0,0.918596,0.08,-1.0,1,0,0,0,0,0,0
87903480,0.0,-0.0,2.32903,0.0,0.395198,0.0,0.0,0.918596,0.08,-1.0,1,0,0,0,0,0,0
88004442,0.0,-0.0,2.32903,0.0,0.395198,0.0,0.0,0.918596,0.08,-1.0,1,0,0,0,0,0,0
88103595,0.0,-0.0,2.32903,0.0,0.395198,0.0,0.0,0.918596,0.08,-1.0,1,0,0,0,0,0,0
88207730,0.0,-0.0,2.32903,0.0,0.395198,0.0,0.0,0.918596,0.08,-1.0,1,0,0,0,0,0,0
88307251,0.0,-0.0,2.32903,0.0,0.395198,0.0,0.0,0.918596,0.08,-1.0,1,0,0,0,0,0,0
88411072,0.0,-0.0,2.32903,0.0,0.395198,0.0,0.0,0.918596,0.08,-1.0,1,0,0,0,0,0,0
88508724,0.0,-0.0,2.32903,0.0,0.395198,0.0,0.0,0.918596,0.08,-1.0,1,0,0,0,0,0,0
88612097,0.0,-0.0,2.32903,0.0,0.395198,0.0,0.0,0.918596,0.08,-1.0,1,0,0,0,0,0,0
88715052,0.0,-0.0,2.32903,0.0,0.395198,0.0,0.0,0.918596,0.08,-1.0,1,0,0,0,0,0,0
88815190,0.0,-0.0,0.536416,0.0,0.964247,0.0,0.0,0.265004,0.0,-1.0,1,0,0,0,0,0,0
88915636,0.0,-0.0,0.536253,0.0,0.964269,0.0,0.0,0.264925,1.79835e-35,-1.0,1,0,0,0,0,0,0
89020727,0.0,-0.0,0.535205,0.0,0.964408,0.0,0.0,0.26442,6.78734e-37,-1.0,1,0,0,0,0,0,0
89121445,0.0,-0.0,0.533725,0.0,0.964603,0.0,0.0,0.263706,1.40526e-38,-1.0,1,0,0,0,0,0,0
89222239,0.0,-0.0,0.531468,0.0,0.9649,0.0,0.0,0.262617,2.02734e-40,-1.0,1,0,0,0,0,0,0
89323132,0.0,-0.0,0.529181,0.0,0.9652,0.0,0.0,0.261514,1.69837e-42,-1.0,1,0,0,0,0,0,0
89426340,0.0,-0.0,0.527411,0.0,0.965431,0.0,0.0,0.26066,0.0,-1.0,1,0,0,0,0,0,0
89527812,0.0,-0.0,0.526085,0.0,0.965603,0.0,0.0,0.26002,0.0,-1.0,1,0,0,0,0,0,0
89627822,0.0,-0.0,0.524482,0.0,0.965811,0.0,0.0,0.259246,0.0,-1.0,1,0,0,0,0,0,0
89727070,0.0,-0.0,0.524078,0.0,0.965864,0.0,0.0,0.259051,0.0,-1.0,1,0,0,0,0,0,0
89832503,0.0,-0.0,0.525249,0.0,0.965712,0.0,0.0,0.259616,0.08,-1.0,1,0,0,0,0,0,0
89931015,0.0,-0.0,0.525249,0.0,0.965712,0.0,0.0,0.259616,0.08,-1.0,1,0,0,0,0,0,0
90035430,0.0,-0.0,0.525249,0.0,0.965712,0.0,0.0,0.259616,0.08,-1.0,1,0,0,0,0,0,0
90135479,0.0,-0.0,0.525249,0.0,0.965712,0.0,0.0,0.259616,0.08,-1.0,1,0,0,0,0,0,0
90238091,0.0,-0.0,0.525249,0.0,0.965712,0.0,0.0,0.259616,0.08,-1.0,1,0,0,0,0,0,0
90339485,0.0,-0.0,0.525249,0.0,0.965712,0.0,0.0,0.259616,0.08,-1.0,1,0,0,0,0,0,0
90440041,0.0,-0.0,0.525249,0.0,0.965712,0.0,0.0,0.259616,0.08,-1.0,1,0,0,0,0,0,0
90539519,0.0,-0.0,0.525249,0.0,0.965712,0.0,0.0,0.259616,0.08,-1.0,1,0,0,0,0,0,0
90644429,0.0,-0.0,0.525249,0.0,0.965712,0.0,0.0,0.259616,0.08,-1.0,1,0,0,0,0,0,0
90743289,0.0,-0.0,0.525249,0.0,0.965712,0.0,0.0,0.259616,0.08,-1.0,1,0,0,0,0,0,0
90844122,0.0,-0.0,0.525249,0.0,0.965712,0.0,0.0,0.259616,0.08,-1.0,1,0,0,0,0,0,0
90947292,0.0,-0.0,0.525249,0.0,0.965712,0.0,0.0,0.259616,0.08,-1.0,1,0,0,0,0,0,0
91048041,0.0,-0.0,0.525249,0.0,0.965712,0.0,0.0,0.259616,0.08,-1.0,1,0,0,0,0,0,0
91150416,0.0,-0.0,0.525249,0.0,0.965712,0.0,0.0,0.259616,0.08,-1.0,1,0,0,0,0,0,0
91252075,0.0,-0.0,0.525249,0.0,0.965712,0.0,0.0,0.259616,0.08,-1.0,1,0,0,0,0,0,0
91351246,0.0,-0.0,0.525249,0.0,0.965712,0.0,0.0,0.259616,0.08,-1.0,1,0,0,0,0,0,0
91455532,0.0,-0.0,0.525249,0.0,0.965712,0.0,0.0,0.259616,0.08,-1.0,1,0,0,0,0,0,0
91555256,0.0,-0.0,0.525249,0.0,0.965712,0.0,0.0,0.259616,0.08,-1.0,1,0,0,0,0,0,0
91655590,0.0,-0.0,0.525249,0.0,0.965712,0.0,0.0,0.259616,0.08,-1.0,1,0,0,0,0,0,0
91759589,0.0,-0.0,0.525249,0.0,0.965712,0.0,0.0,0.259616,0.08,-1.0,1,0,0,0,0,0,0
91859473,0.0,-0.0,0.525249,0.0,0.965712,0.0,0.0,0.259616,0.08,-1.0,1,0,0,0,0,0,0
91960454,0.0,-0.0,0.525249,0.0,0.965712,0.0,0.0,0.259616,0.08,-1.0,1,0,0,0,0,0,0
92064606,0.0,-0.0,0.525249,0.0,0.965712,0.0,0.0,0.259616,0.08,-1.0,1,0,0,0,0,0,0
92164071,0.0,-0.0,0.525249,0.0,0.965712,0.0,0.0,0.259616,0.08,-1.0,1,0,0,0,0,0,0
92267436,0.0,-0.0,0.525249,0.0,0.965712,0.0,0.0,0.259616,0.08,-1.0,1,0,0,0,0,0,0
92367114,0.0,-0.0,0.525249,0.0,0.965712,0.0,0.0,0.259616,0.08,-1.0,1,0,0,0,0,0,0
92471128,0.0,-0.0,0.525249,0.0,0.965712,0.0,0.0,0.259616,0.08,-1.0,1,0,0,0,0,0,0
92572619,0.0,-0.0,0.525249,0.0,0.965712,0.0,0.0,0.259616,0.117204,-1.0,1,0,0,0,0,0,0
92671370,0.0,-0.0,0.525249,0.0,0.965712,0.0,0.0,0.259616,0.242924,-1.0,1,0,0,0,0,0,0
92773005,0.0,-0.0,0.525249,0.0,0.965712,0.0,0.0,0.259616,0.424226,-1.0,1,0,0,0,0,0,0
92876714,0.0,-0.0,0.525249,0.0,0.965712,0.0,0.0,0.259616,0.49991,-1.0,1,0,0,0,0,0,0
92975642,0.0,-0.0,0.525249,0.0,0.965712,0.0,0.0,0.259616,0.505005,-1.0,1,0,0,0,0,0,0
93079700,0.0,-0.0,0.525249,0.0,0.965712,0.0,0.0,0.259616,0.504932,-1.0,1,0,0,0,0,0,0
93176026,0.0,-0.0,0.525249,0.0,0.965712,0.0,0.0,0.259616,0.504931,-1.0,1,0,0,0,0,0,0
93283516,0.0,-0.0,0.525249,0.0,0.965712,0.0,0.0,0.259616,0.683986,-1.0,1,0,0,0,0,0,0
93384053,0.0,-0.0,0.525249,0.0,0.965712,0.0,0.0,0.259616,0.883307,-1.0,1,0,0,0,0,0,0
93483707,0.0,-0.0,0.525249,0.0,0.965712,0.0,0.0,0.259616,0.991216,-1.0,1,0,0,0,0,0,0
93583448,0.0,-0.0,0.525593,0.008879,0.965667,0.0,0.0,0.259782,0.999791,-1.0,1,0,0,0,0,0,0
93687703,0.0,-0.0,0.526787,0.00772836,0.965512,0.0,0.0,0.260359,0.999999,-1.0,1,0,0,0,0,0,0
93788187,0.0,-0.0,0.527134,-6.17454e-05,0.965467,0.0,0.0,0.260526,1.0,-1.0,1,0,0,0,0,0,0
93892066,0.0,-0.0,0.527119,4.85232e-05,0.965469,0.0,0.0,0.260519,1.0,-1.0,1,0,0,0,0,0,0
93992037,0.0,-0.0,0.527119,6.40278e-07,0.965469,0.0,0.0,0.260519,1.0,-1.0,1,0,0,0,0,0,0
94092830,0.0,-0.0,0.527119,-2.36039e-08,0.965469,0.0,0.0,0.260519,1.0,-1.0,1,0,0,0,0,0,0
94196582,0.0,-0.0,0.527119,-5.3254e-10,0.965469,0.0,0.0,0.260519,1.0,-1.0,1,0,0,0,0,0,0
94295483,0.0,-0.0,0.527119,5.67119e-14,0.965469,0.0,0.0,0.260519,1.0,-1.0,1,0,0,0,0,0,0
94399490,0.0,-0.0,0.527119,1.93651e-13,0.965469,0.0,0.0,0.260519,0.997148,-1.0,1,0,0,0,0,0,0
94499157,0.0,-0.0,0.527119,9.94157e-15,0.965469,0.0,0.0,0.260519,0.985925,-1.0,1,0,0,0,0,0,0
94599626,0.0,-0.0,0.527119,5.64426e-17,0.965469,0.0,0.0,0.260519,0.986186,-1.0,1,0,0,0,0,0,0
94703176,0.0,-0.0,0.527119,-1.26301e-18,0.965469,0.0,0.0,0.260519,0.984535,-1.0,1,0,0,0,0,0,0
94803751,0.0,-0.0,0.527119,-1.31218e-19,0.965469,0.0,0.0,0.260519,0.984688,-1.0,1,0,0,0,0,0,0
94907454,0.0,-0.0,0.527119,-1.2134e-21,0.965469,0.0,0.0,0.260519,0.985036,-1.0,1,0,0,0,0,0,0
95008099,0.0,-0.0,0.527119,9.06033e-23,0.965469,0.0,0.0,0.260519,0.984975,-1.0,1,0,0,0,0,0,0
95109963,0.0,-0.0,0.528154,0.0734317,0.965334,0.0,0.0,0.261018,0.917687,-1.0,1,0,0,0,0,0,0
95206575,0.0,-0.0,0.557613,0.638464,0.961385,0.0,0.0,0.275208,0.08,-1.0,1,0,0,0,0,0,0
95310583,0.0,-0.0,0.557613,0.638464,0.961385,0.0,0.0,0.275208,0.08,-1.0,1,0,0,0,0,0,0
95411439,0.0,-0.0,0.557613,0.638464,0.961385,0.0,0.0,0.275208,0.08,-1.0,1,0,0,0,0,0,0
95514699,0.0,-0.0,0.569368,0.365955,0.959751,0.0,0.0,0.280854,0.102516,-1.0,1,0,0,0,0,0,0
95616599,0.0,-0.0,0.607311,0.360384,0.95425,0.0,0.0,0.299011,0.10221,-1.0,1,0,0,0,0,0,0
95716645,0.0,-0.0,0.635531,0.346156,0.949936,0.0,0.0,0.312445,0.0994364,-1.0,1,0,0,0,0,0,0
95820432,0.0,-0.0,0.635531,0.346156,0.949936,0.0,0.0,0.312445,0.0988094,-1.0,1,0,0,0,0,0,0
95922066,0.0,-0.0,0.635531,0.346156,0.949936,0.0,0.0,0.312445,0.08,-1.0,1,0,0,0,0,0,0
96019060,0.0,-0.0,0.635531,0.346156,0.949936,0.0,0.0,0.312445,0.08,-1.0,1,0,0,0,0,0,0
96124456,0.0,-0.0,0.635531,0.346156,0.949936,0.0,0.0,0.312445,0.08,-1.0,1,0,0,0,0,0,0
96224028,0.0,-0.0,0.635531,0.346156,0.949936,0.0,0.0,0.312445,0.08,-1.0,1,0,0,0,0,0,0
96328066,0.0,-0.0,0.635531,0.346156,0.949936,0.0,0.0,0.312445,0.08,-1.0,1,0,0,0,0,0,0
96428420,0.0,-0.0,0.635531,0.346156,0.949936,0.0,0.0,0.312445,0.08,-1.0,1,0,0,0,0,0,0
96528098,0.0,-0.0,0.635531,0.346156,0.949936,0.0,0.0,0.312445,0.08,-1.0,1,0,0,0,0,0,0
96632027,0.0,-0.0,0.635531,0.346156,0.949936,0.0,0.0,0.312445,0.08,-1.0,1,0,0,0,0,0,0
96728545,0.0,-0.0,0.635531,0.346156,0.949936,0.0,0.0,0.312445,0.08,-1.0,1,0,0,0,0,0,0
96835025,0.0,-0.0,0.635531,0.346156,0.949936,0.0,0.0,0.312445,0.08,-1.0,1,0,0,0,0,0,0
96932049,0.0,-0.0,0.635531,0.346156,0.949936,0.0,0.0,0.312445,0.08,-1.0,1,0,0,0,0,0,0
97035053,0.0,-0.0,0.635531,0.346156,0.949936,0.0,0.0,0.312445,0.08,-1.0,1,0,0,0,0,0,0
97140033,0.0,-0.0,0.635531,0.346156,0.949936,0.0,0.0,0.312445,0.08,-1.0,1,0,0,0,0,0,0
97240455,0.0,-0.0,0.635531,0.346156,0.949936,0.0,0.0,0.312445,0.08,-1.0,1,0,0,0,0,0,0
97338462,0.0,-0.0,0.635531,0.346156,0.949936,0.0,0.0,0.312445,0.08,-1.0,1,0,0,0,0,0,0
97442468,0.0,-0.0,0.635531,0.346156,0.949936,0.0,0.0,0.312445,0.08,-1.0,1,0,0,0,0,0,0
97546033,0.0,-0.0,0.635531,0.346156,0.949936,0.0,0.0,0.312445,0.08,-1.0,1,0,0,0,0,0,0
97644040,0.0,-0.0,0.635531,0.346156,0.949936,0.0,0.0,0.312445,0.08,-1.0,1,0,0,0,0,0,0
97748416,0.0,-0.0,0.635531,0.346156,0.949936,0.0,0.0,0.312445,0.08,-1.0,1,0,0,0,0,0,0
97848030,0.0,-0.0,0.635531,0.346156,0.949936,0.0,0.0,0.312445,0.08,-1.0,1,0,0,0,0,0,0
97952023,0.0,-0.0,0.635531,0.346156,0.949936,0.0,0.0,0.312445,0.08,-1.0,1,0,0,0,0,0,0
98052280,0.0,-0.0,0.635531,0.346156,0.949936,0.0,0.0,0.312445,0.08,-1.0,1,0,0,0,0,0,0
98155034,0.0,-0.0,0.635531,0.346156,0.949936,0.0,0.0,0.312445,0.08,-1.0,1,0,0,0,0,0,0
98256304,0.0,-0.0,0.635531,0.346156,0.949936,0.0,0.0,0.312445,0.08,-1.0,1,0,0,0,0,0,0
98355395,0.0,-0.0,0.635531,0.346156,0.949936,0.0,0.0,0.312445,0.08,-1.0,1,0,0,0,0,0,0
98456267,0.0,-0.0,0.635531,0.346156,0.949936,0.0,0.0,0.312445,0.08,-1.0,1,0,0,0,0,0,0
98560292,0.0,-0.0,0.635531,0.346156,0.949936,0.0,0.0,0.312445,0.08,-1.0,1,0,0,0,0,0,0
98660047,0.0,-0.0,0.635531,0.346156,0.949936,0.0,0.0,0.312445,0.08,-1.0,1,0,0,0,0,0,0
98764071,0.0,-0.0,0.635531,0.346156,0.949936,0.0,0.0,0.312445,0.08,-1.0,1,0,0,0,0,0,0
98864031,0.0,-0.0,0.635531,4.20459e-26,0.949936,0.0,0.0,0.312445,0.103043,-1.0,1,0,0,0,0,0,0
98964453,0.0,-0.0,0.635531,-1.32898e-28,0.949936,0.0,0.0,0.312445,0.334034,-1.0,1,0,0,0,0,0,0
99068246,0.0,-0.0,0.635531,-1.69248e-29,0.949936,0.0,0.0,0.312445,0.626268,-1.0,1,0,0,0,0,0,0
99168055,0.0,-0.0,0.639998,0.1279,0.949236,0.0,0.0,0.314566,0.646763,-1.0,1,0,0,0,0,0,0
99268536,0.0,-0.0,0.645745,-0.00400783,0.948328,0.0,0.0,0.317292,0.646179,-1.0,1,0,0,0,0,0,0
99372743,0.0,-0.0,0.645718,-5.43736e-05,0.948332,0.0,0.0,0.317279,0.646422,-1.0,1,0,0,0,0,0,0
99470206,0.0,-0.0,0.645717,1.87263e-06,0.948332,0.0,0.0,0.317278,0.64645,-1.0,1,0,0,0,0,0,0
99574487,0.0,-0.0,0.645717,4.35452e-08,0.948332,0.0,0.0,0.317278,0.64645,-1.0,1,0,0,0,0,0,0
99677714,0.0,-0.0,0.645717,6.94605e-10,0.948332,0.0,0.0,0.317278,0.646964,-1.0,1,0,0,0,0,0,0
99776308,0.0,-0.0,0.646584,0.0209238,0.948195,0.0,0.0,0.31769,0.646397,-1.0,1,0,0,0,0,0,0
99880320,0.0,-0.0,0.648174,-0.000308803,0.947942,0.0,0.0,0.318444,0.646987,-1.0,1,0,0,0,0,0,0
99980056,0.0,-0.0,0.648582,-0.000351285,0.947877,0.0,0.0,0.318637,0.646459,-1.0,1,0,0,0,0,0,0
100080181,0.0,-0.0,0.648562,5.14868e-05,0.94788,0.0,0.0,0.318628,0.646455,-1.0,1,0,0,0,0,0,0
100184603,0.0,-0.0,0.648563,7.82913e-07,0.94788,0.0,0.0,0.318628,0.64645,-1.0,1,0,0,0,0,0,0
100284045,0.0,-0.0,0.648563,-1.96952e-08,0.94788,0.0,0.0,0.318628,0.64645,-1.0,1,0,0,0,0,0,0
100388054,0.0,-0.0,0.648563,-5.3444e-10,0.94788,0.0,0.0,0.318628,0.64645,-1.0,1,0,0,0,0,0,0
100488408,0.0,-0.0,0.648563,-9.47164e-12,0.94788,0.0,0.0,0.318628,0.64645,-1.0,1,0,0,0,0,0,0
100588124,0.0,-0.0,0.648563,1.34935e-13,0.94788,0.0,0.0,0.318628,0.64645,-1.0,1,0,0,0,0,0,0
100692032,0.0,-0.0,0.648563,5.1497e-15,0.94788,0.0,0.0,0.318628,0.64645,-1.0,1,0,0,0,0,0,0
100792634,0.0,-0.0,0.648563,1.0848e-16,0.94788,0.0,0.0,0.318628,0.64645,-1.0,1,0,0,0,0,0,0
100892039,0.0,-0.0,0.648563,-4.84224e-19,0.94788,0.0,0.0,0.318628,0.64645,-1.0,1,0,0,0,0,0,0
100996070,0.0,-0.0,0.648563,-4.49503e-20,0.94788,0.0,0.0,0.318628,0.64645,-1.0,1,0,0,0,0,0,0
101096635,0.0,-0.0,0.648563,-1.75726e-21,0.94788,0.0,0.0,0.318628,0.64645,-1.0,1,0,0,0,0,0,0
101201045,0.0,-0.0,-0.172589,-6.09279e-24,0.996279,0.0,-0.0,-0.0861875,0.646171,-1.0,1,0,0,0,0,0,0
101300147,0.0,-0.0,-0.172589,1.73826e-24,0.996279,0.0,-0.0,-0.0861875,0.646625,-1.0,1,0,0,0,0,0,0
101399006,-0.179648,-0.0,-0.172589,2.43428e-26,0.992262,-0.0893695,0.00773131,-0.0858401,0.646136,-1.0,1,0,0,0,0,0,0
101502979,-0.357613,-0.0,-0.172589,1.89245e-28,0.980395,-0.177193,0.0153289,-0.0848134,0.64642,-1.0,1,0,0,0,0,0,0
101604029,-0.332123,-0.0,-0.172589,-1.86614e-29,0.982574,-0.164684,0.0142468,-0.0850019,0.645936,-1.0,1,0,0,0,0,0,0
101704417,-0.0928638,-0.0,-0.172589,-3.062e-31,0.995205,-0.0462425,0.00400041,-0.0860946,0.646449,-1.0,1,0,0,0,0,0,0
101808397,-0.00104711,-0.0,-0.172589,-3.30274e-33,0.996279,-0.000521609,4.51241e-05,-0.0861875,0.64645,-1.0,1,0,0,0,0,0,0
101908075,3.93867e-05,-0.0,-0.172589,1.87072e-34,0.996279,1.96201e-05,-1.69732e-06,-0.0861875,0.64645,-1.0,1,0,0,0,0,0,0
102012054,8.80912e-07,-0.0,-0.172589,3.57875e-36,0.996279,4.38817e-07,-3.79618e-08,-0.0861875,0.64645,-1.0,1,0,0,0,0,0,0
102110744,1.36243e-08,0.0346416,-0.172589,4.75363e-38,0.996129,0.00149277,0.0172555,-0.0861746,0.646171,-1.0,1,0,0,0,0,0,0
102212108,-0.0188504,0.255591,-0.175011,-1.72466e-39,0.988111,0.00182529,0.127772,-0.085481,0.646967,-1.0,1,0,0,0,0,0,0
102316089,-0.0289712,0.425734,-0.178851,-3.91859e-41,0.973695,0.00476361,0.211661,-0.0842338,0.646601,-1.0,1,0,0,0,0,0,0
102416290,-0.0242865,0.440134,-0.178022,-6.16571e-43,0.972183,0.00760043,0.218468,-0.084103,0.646168,-1.0,1,0,0,0,0,0,0
102516089,-0.0234015,0.439042,-0.177811,9.80909e-45,0.972307,0.00795882,0.217901,-0.0841137,0.646452,-1.0,1,0,0,0,0,0,0
102620048,-0.0314265,0.321878,-0.177691,0.0,0.983286,-0.00123178,0.16097,-0.0850635,0.646513,-1.0,1,0,0,0,0,0,0
102721838,-0.298541,0.21966,-0.205754,0.0,0.979399,-0.135908,0.122998,-0.0847272,0.646762,-1.0,1,0,0,0,0,0,0
102824340,-0.385673,0.154777,-0.20287,0.0,0.974998,-0.182404,0.0948361,-0.0843465,0.645939,-1.0,1,0,0,0,0,0,0
102924335,-0.372018,0.0864572,-0.188869,0.0,0.978211,-0.179937,0.0597027,-0.0846245,0.646509,-1.0,1,0,0,0,0,0,0
103024139,-0.272888,-0.00326961,-0.17214,0.0,0.987018,-0.135657,0.0100793,-0.0853864,0.646654,-1.0,1,0,0,0,0,0,0
103128187,-0.210038,0.000156235,-0.172606,0.0,0.99079,-0.104429,0.00911296,-0.0857127,0.646737,-1.0,1,0,0,0,0,0,0
103228401,-0.106068,3.19759e-06,-0.172589,0.0,0.994878,-0.0528116,0.00457031,-0.0860664,0.646766,-1.0,1,0,0,0,0,0,0
103326408,-0.0911339,4.53899e-08,-0.172589,0.0,0.995245,-0.0453817,0.00392597,-0.0860981,0.646993,-1.0,1,0,0,0,0,0,0
103430670,-0.119162,-1.39072e-09,-0.172589,0.0,0.994511,-0.0593241,0.00513209,-0.0860346,0.646904,-1.0,1,0,0,0,0,0,0
103534298,-0.301362,-3.37029e-11,-0.172589,0.0,0.98499,-0.149553,0.0129377,-0.0852109,0.646705,-1.0,1,0,0,0,0,0,0
103636579,-0.423372,-5.5133e-13,-0.172589,0.0,0.97404,-0.209327,0.0181087,-0.0842637,0.646445,-1.0,1,0,0,0,0,0,0
103736046,-0.469677,1.0232e-14,-0.172589,0.0,0.968933,-0.23182,0.0200546,-0.0838218,0.646958,-1.0,1,0,0,0,0,0,0
103836109,-0.50236,3.2688e-16,-0.172589,0.0,0.965016,-0.247622,0.0214216,-0.0834829,0.64631,-1.0,1,0,0,0,0,0,0
103940036,-0.507113,6.32612e-18,-0.172589,0.0,0.964424,-0.249915,0.02162,-0.0834318,0.646969,-1.0,1,0,0,0,0,0,0
104040446,-0.506319,-5.46841e-20,-0.172589,0.0,0.964523,-0.249532,0.0215869,-0.0834404,0.646944,-1.0,1,0,0,0,0,0,0
104140074,-0.539088,-2.97118e-21,-0.172589,0.0,0.960306,-0.265301,0.022951,-0.0830755,0.646397,-1.0,1,0,0,0,0,0,0
104244044,-0.607076,-0.00071005,-0.172367,0.0,0.950734,-0.297818,0.0253906,-0.0822475,0.646277,-1.0,1,0,0,0,0,0,0
104344693,-0.604982,-0.0281494,-0.163804,0.0,0.95096,-0.29797,0.0109786,-0.082267,0.646682,-1.0,1,0,0,0,0,0,0
104448422,-0.60497,-0.0299192,-0.163252,0.0,0.950951,-0.298032,0.0100538,-0.0822662,0.645912,-1.0,1,0,0,0,0,0,0
104548206,-0.605197,-0.0442652,-0.158768,0.0,0.950803,-0.298665,0.00256719,-0.0822534,0.646589,-1.0,1,0,0,0,0,0,0
104648501,-0.601108,-0.116155,-0.136551,0.0,0.950168,-0.298644,-0.0351504,-0.0821985,0.645931,-1.0,1,0,0,0,0,0,0
104752416,-0.571759,-0.228184,-0.105252,0.0,0.950168,-0.285525,-0.0943356,-0.0821985,0.646813,-1.0,1,0,0,0,0,0,0
104852050,-0.533248,-0.313633,-0.086272,0.0,0.950168,-0.266498,-0.139294,-0.0821985,0.647026,-1.0,1,0,0,0,0,0,0
104952415,-0.511116,-0.350561,-0.0796127,0.0134755,0.950189,-0.255429,-0.158682,-0.0819603,0.646599,-1.0,1,0,0,0,0,0,0
105056073,-0.471627,-0.403893,-0.0707522,0.0371364,0.950312,-0.235641,-0.186808,-0.0805233,0.64665,-1.0,1,0,0,0,0,0,0
105156869,-0.457759,-0.419809,-0.0666046,0.0387194,0.950442,-0.22854,-0.195431,-0.0789653,0.646757,-1.0,1,0,0,0,0,0,0
105260037,-0.4576,-0.419984,-0.0568638,0.133206,0.950815,-0.227508,-0.196632,-0.0743387,0.646764,-1.0,1,0,0,0,0,0,0
105361034,-0.458483,-0.419008,-0.0418698,0.154594,0.951347,-0.226461,-0.197837,-0.0671896,0.64642,-1.0,1,0,0,0,0,0,0
105460435,-0.538071,-0.286539,-0.047831,0.127612,0.95297,-0.266295,-0.131313,-0.060757,0.646448,-1.0,1,0,0,0,0,0,0
105564151,-0.329408,-0.0328253,-0.109331,0.117095,0.984714,-0.164578,-0.00720835,-0.0565783,0.646418,-1.0,1,0,0,0,0,0,0
105663058,-0.117716,-0.000541655,-0.105523,0.041773,0.996878,-0.0587565,0.00283222,-0.0526615,0.646474,-1.0,1,0,0,0,0,0,0
105766962,0.00306117,-5.75838e-06,-0.103441,0.0132021,0.998662,0.00152839,-8.20023e-05,-0.0516972,0.646988,-1.0,1,0,0,0,0,0,0
105868215,-0.00015049,3.36728e-07,-0.102494,0.00642076,0.998687,-7.51375e-05,4.02252e-06,-0.0512245,0.645907,-1.0,1,0,0,0,0,0,0
105968473,-3.02539e-06,6.37415e-09,-0.0986983,0.0845783,0.998783,-1.51069e-06,7.7803e-08,-0.0493291,0.646759,-1.0,1,0,0,0,0,0,0
106072432,-4.23902e-08,8.36505e-11,-0.0891735,0.0859276,0.999006,-2.11722e-08,9.8649e-10,-0.044572,0.646487,-1.0,1,0,0,0,0,0,0
106172029,1.34407e-09,-3.12436e-12,-0.0816541,0.0587085,0.999167,6.71414e-10,-2.89905e-11,-0.0408157,0.646455,-1.0,1,0,0,0,0,0,0
106272094,0.0,-0.0,-0.0770884,0.0167348,0.999257,0.0,-0.0,-0.0385347,0.646566,-1.0,1,0,0,0,0,0,0
106376029,0.0,-0.0,-0.0761214,0.0044743,0.999276,0.0,-0.0,-0.0380515,0.646937,-1.0,1,0,0,0,0,0,0
106476371,0.0,-0.0,-0.0754538,0.00546483,0.999288,0.0,-0.0,-0.037718,0.646118,-1.0,1,0,0,0,0,0,0
106576138,0.0,-0.0,-0.0750928,0.00348096,0.999295,0.0,-0.0,-0.0375376,0.646454,-1.0,1,0,0,0,0,0,0
106680035,0.0,-0.0,-0.0750626,1.62197e-05,0.999296,0.0,-0.0,-0.0375225,0.64588,-1.0,1,0,0,0,0,0,0
106780066,0.0,-0.0,-0.0750616,-5.42622e-07,0.999296,0.0,-0.0,-0.037522,0.646961,-1.0,1,0,0,0,0,0,0
106884137,0.0,-0.0,-0.0750616,-4.69931e-08,0.999296,0.0,-0.0,-0.037522,0.645915,-1.0,1,0,0,0,0,0,0
106984667,0.0,-0.0,-0.0750616,-4.01842e-10,0.999296,0.0,-0.0,-0.037522,0.646963,-1.0,1,0,0,0,0,0,0
107084133,0.0,-0.0,-0.0750616,2.14412e-12,0.999296,0.0,-0.0,-0.037522,0.645915,-1.0,1,0,0,0,0,0,0
107188091,0.0,-0.0,-0.0750616,5.8031e-13,0.999296,0.0,-0.0,-0.037522,0.647024,-1.0,1,0,0,0,0,0,0
107288029,0.0,-0.0,-0.0750616,6.61306e-15,0.999296,0.0,-0.0,-0.037522,0.645915,-1.0,1,0,0,0,0,0,0
107388378,0.0,-0.0,-0.075295,-0.0115372,0.999291,0.0,-0.0,-0.0376386,0.646992,-1.0,1,0,0,0,0,0,0
107492069,0.0,-0.0,-0.105144,-0.565839,0.998618,0.0,-0.0,-0.0525475,0.646451,-1.0,1,0,0,0,0,0,0
107592126,0.0,-0.0,-0.188759,-1.08838,0.99555,0.0,-0.0,-0.0942394,0.646964,-1.0,1,0,0,0,0,0,0
107696037,0.0,-0.0,-0.311595,-1.22727,0.987888,0.0,-0.0,-0.155168,0.646257,-1.0,1,0,0,0,0,0,0
107796957,0.0,-0.0,-0.435115,-1.20845,0.976428,0.0,-0.0,-0.215845,0.646112,-1.0,1,0,0,0,0,0,0
107894420,0.0,-0.0,-0.551939,-1.17823,0.962162,0.0,-0.0,-0.27248,0.64611,-1.0,1,0,0,0,0,0,0
107999527,0.0,-0.0,-0.675636,-1.17575,0.94348,0.0,-0.0,-0.331429,0.646562,-1.0,1,0,0,0,0,0,0
108100393,0.0,-0.0,-0.788894,-0.934205,0.923209,0.0,-0.0,-0.384298,0.646422,-1.0,1,0,0,0,0,0,0
108200044,0.0,-0.0,-0.83062,0.000849451,0.914991,0.0,-0.0,-0.403473,0.645911,-1.0,1,0,0,0,0,0,0
108304561,0.0,-0.0,-0.826354,0.109987,0.91585,0.0,-0.0,-0.401521,0.646338,-1.0,1,0,0,0,0,0,0
108404046,0.0,-0.0,-0.813038,0.155731,0.918503,0.0,-0.0,-0.395414,0.647025,-1.0,1,0,0,0,0,0,0
108504393,-0.0432808,-0.0,-0.796658,0.165128,0.921495,-0.0199446,0.0083932,-0.387788,0.646223,-1.0,1,0,0,0,0,0,0
108608676,-0.204683,-0.0,-0.780158,0.15913,0.92004,-0.0944883,0.0388486,-0.378272,0.646476,-1.0,1,0,0,0,0,0,0
108708106,-0.2597,-0.0,-0.764203,0.161686,0.920072,-0.120147,0.0482813,-0.369732,0.646246,-1.0,1,0,0,0,0,0,0
108812048,-0.265655,-0.0,-0.747613,0.159302,0.922744,-0.123292,0.0483609,-0.361945,0.646677,-1.0,1,0,0,0,0,0,0
108912214,-0.281359,-0.0,-0.73167,0.157864,0.9246,-0.130937,0.0501594,-0.354195,0.646479,-1.0,1,0,0,0,0,0,0
109012714,-0.324793,-0.0,-0.715809,0.156622,0.924309,-0.151438,0.0566398,-0.345703,0.64645,-1.0,1,0,0,0,0,0,0
109116405,-0.341115,-0.0,-0.700742,0.131926,0.925617,-0.15942,0.0582598,-0.338266,0.646621,-1.0,1,0,0,0,0,0,0
109216106,-0.216609,-0.0,-0.694066,-0.00529226,0.934876,-0.101649,0.0367634,-0.338117,0.646732,-1.0,1,0,0,0,0,0,0
109316265,-0.0621128,-0.0,-0.693924,0.000850336,0.939957,-0.029201,0.0105588,-0.339879,0.646479,-1.0,1,0,0,0,0,0,0
109421063,0.00185463,-0.0,-0.683006,0.200807,0.942252,0.000873764,-0.000310561,-0.334904,0.646309,-1.0,1,0,0,0,0,0,0
109520324,3.91438e-05,-0.0,-0.675002,0.0256254,0.943585,1.84677e-05,-6.48084e-06,-0.33113,0.646167,-1.0,1,0,0,0,0,0,0
109624451,-1.43966e-07,-0.0,-0.673667,0.00647873,0.943806,-6.79379e-08,2.37904e-08,-0.3305,0.646726,-1.0,1,0,0,0,0,0,0
109724131,-1.60144e-08,-0.0,-0.673533,-0.000134189,0.943828,-7.5574e-09,2.64587e-09,-0.330437,0.646968,-1.0,1,0,0,0,0,0,0
109824217,-6.5941e-10,-0.0,-0.673532,-5.96784e-06,0.943828,-3.11185e-10,1.08947e-10,-0.330437,0.646601,-1.0,1,0,0,0,0,0,0
109928659,0.0,-0.0,-0.673532,-2.73821e-08,0.943828,0.0,-0.0,-0.330437,0.646992,-1.0,1,0,0,0,0,0,0
110026769,0.0,-0.0,-0.670967,0.0591379,0.944251,0.0,-0.0,-0.329226,0.646429,-1.0,1,0,0,0,0,0,0
110130470,0.0,-0.0,-0.668811,-0.00105142,0.944606,0.0,-0.0,-0.328208,0.645161,-1.0,1,0,0,0,0,0,0
110232525,0.0,-0.0,-0.668815,-5.51396e-05,0.944605,0.0,-0.0,-0.32821,0.645692,-1.0,1,0,0,0,0,0,0
110332344,0.0,-0.0,-0.668816,-3.21255e-07,0.944605,0.0,-0.0,-0.32821,0.645266,-1.0,1,0,0,0,0,0,0
110436152,0.0,-0.0,-0.668816,4.78214e-08,0.944605,0.0,-0.0,-0.32821,0.645214,-1.0,1,0,0,0,0,0,0
110536592,0.0,-0.0,-0.668816,7.25356e-10,0.944605,0.0,-0.0,-0.32821,0.645492,-1.0,1,0,0,0,0,0,0
110637156,0.0,-0.0,-0.668816,6.78328e-12,0.944605,0.0,-0.0,-0.32821,0.645784,-1.0,1,0,0,0,0,0,0
110740074,0.0,-0.0,-0.668816,-4.9693e-13,0.944605,0.0,-0.0,-0.32821,0.645038,-1.0,1,0,0,0,0,0,0
110840040,0.0,-0.0,-0.668816,-8.78551e-15,0.944605,0.0,-0.0,-0.32821,0.645724,-1.0,1,0,0,0,0,0,0
110944064,0.0,-0.0,-0.668816,1.26568e-16,0.944605,0.0,-0.0,-0.32821,0.645788,-1.0,1,0,0,0,0,0,0
111044543,0.0,-0.0,-0.668816,4.79458e-18,0.944605,0.0,-0.0,-0.32821,0.64541,-1.0,1,0,0,0,0,0,0
111144098,0.0,-0.0,-0.668816,9.99034e-20,0.944605,0.0,-0.0,-0.32821,0.645882,-1.0,1,0,0,0,0,0,0
111248256,0.0,-0.0,-0.668816,-4.64789e-22,0.944605,0.0,-0.0,-0.32821,0.646632,-1.0,1,0,0,0,0,0,0
111348037,0.0,-0.0,-0.668816,-4.19304e-23,0.944605,0.0,-0.0,-0.32821,0.645328,-1.0,1,0,0,0,0,0,0
111448332,0.0,-0.0,-0.668816,-1.6239e-24,0.944605,0.0,-0.0,-0.32821,0.646601,-1.0,1,0,0,0,0,0,0
111552427,0.0,-0.0,-0.668816,-5.48861e-27,0.944605,0.0,-0.0,-0.32821,0.64585,-1.0,1,0,0,0,0,0,0
111652093,0.0,-0.0,-0.668816,3.12012e-28,0.944605,0.0,-0.0,-0.32821,0.646611,-1.0,1,0,0,0,0,0,0
111756045,0.0,-0.0,-0.668816,2.25374e-29,0.944605,0.0,-0.0,-0.32821,0.646529,-1.0,1,0,0,0,0,0,0
111856310,0.0,-0.0,-0.668816,1.73962e-31,0.944605,0.0,-0.0,-0.32821,0.645756,-1.0,1,0,0,0,0,0,0
111956417,0.0,-0.0,-0.668816,-1.73418e-32,0.944605,0.0,-0.0,-0.32821,0.646531,-1.0,1,0,0,0,0,0,0
112060404,0.0,-0.0,-0.668816,-2.83859e-34,0.944605,0.0,-0.0,-0.32821,0.646186,-1.0,1,0,0,0,0,0,0
112158755,0.0,-0.0,-0.668816,-3.04968e-36,0.944605,0.0,-0.0,-0.32821,0.645592,-1.0,1,0,0,0,0,0,0
112261508,0.0,-0.0,-0.668816,1.74047e-37,0.944605,0.0,-0.0,-0.32821,0.645838,-1.0,1,0,0,0,0,0,0
112364040,0.0,-0.0,-0.668816,3.32121e-39,0.944605,0.0,-0.0,-0.32821,0.646518,-1.0,1,0,0,0,0,0,0
112464267,0.0,-0.0,-0.668816,-3.17114e-41,0.944605,0.0,-0.0,-0.32821,0.646669,-1.0,1,0,0,0,0,0,0
112568038,0.0,-0.0,-0.668816,-1.60869e-42,0.944605,0.0,-0.0,-0.32821,0.64622,-1.0,1,0,0,0,0,0,0
112668047,-0.0103062,-0.0,-0.668816,-3.92364e-44,0.944592,-0.00486761,0.00169129,-0.328206,0.645418,-1.0,1,0,0,0,0,0,0
112768619,-0.0594618,-0.0,-0.668816,0.0,0.944187,-0.0280798,0.00975654,-0.328065,0.64599,-1.0,1,0,0,0,0,0,0
112872569,0.00183219,-0.0,-0.668816,0.0,0.944604,0.000865349,-0.000300672,-0.32821,0.646149,-1.0,1,0,0,0,0,0,0
112972229,3.06048e-05,-0.0,-0.668816,0.0,0.944605,1.44547e-05,-5.0224e-06,-0.32821,0.645959,-1.0,1,0,0,0,0,0,0
113072534,-0.0363123,-0.0,-0.668816,0.0,0.944449,-0.0171494,0.0059587,-0.328156,0.646243,-1.0,1,0,0,0,0,0,0
113177546,-0.240775,-0.0,-0.668816,0.0,0.937768,-0.113444,0.0394171,-0.325835,0.64596,-1.0,1,0,0,0,0,0,0
113277245,-0.353471,-0.0,-0.668816,0.0,0.929891,-0.166077,0.0577048,-0.323098,0.645909,-1.0,1,0,0,0,0,0,0
113380159,-0.279055,-0.0,-0.668816,0.0,0.935425,-0.131371,0.0456459,-0.325021,0.647025,-1.0,1,0,0,0,0,0,0
113481259,-0.0978041,-0.0,-0.668816,0.0,0.943475,-0.0461747,0.0160438,-0.327818,0.645369,-1.0,1,0,0,0,0,0,0
113580097,0.00476218,-0.0,-0.668816,0.0,0.944602,0.00224919,-0.000781498,-0.328209,0.646011,-1.0,1,0,0,0,0,0,0
113681059,7.28226e-05,-0.00100749,-0.668817,0.0,0.944605,-0.000130939,-0.000487789,-0.32821,0.645476,-1.0,1,0,0,0,0,0,0
113784034,-1.81221e-06,-0.138694,-0.668816,0.0,0.942334,-0.022743,-0.0654526,-0.327421,0.64636,-1.0,1,0,0,0,0,0,0
113884338,-0.00182036,-0.315274,-0.668527,0.0,0.932892,-0.0523517,-0.148001,-0.324141,0.646418,-1.0,1,0,0,0,0,0,0
113988306,-0.00620921,-0.199141,-0.668196,0.0,0.939921,-0.0355153,-0.0928962,-0.326583,0.646362,-1.0,1,0,0,0,0,0,0
114089379,0.000198081,-0.00586661,-0.668817,0.0,0.944601,-0.000869186,-0.00280332,-0.328209,0.646102,-1.0,1,0,0,0,0,0,0
114192168,-1.25104e-05,-0.00023394,-0.668816,0.0,0.944605,-4.42994e-05,-0.000108437,-0.32821,0.646449,-1.0,1,0,0,0,0,0,0
114293039,-4.1148e-07,-0.00756109,-0.668816,0.0,0.944598,-0.001241,-0.00357104,-0.328208,0.645566,-1.0,1,0,0,0,0,0,0
114392306,-6.66763e-09,-0.094102,-0.667924,0.0218964,0.943706,-0.0154171,-0.0444351,-0.327426,0.647107,-1.0,1,0,0,0,0,0,0
114496503,6.51373e-11,-0.182578,-0.665414,0.0043971,0.941226,-0.0297738,-0.086163,-0.325243,0.646764,-1.0,1,0,0,0,0,0,0
114596180,1.11779e-11,-0.148119,-0.665298,-0.00015996,0.94259,-0.0241619,-0.0699357,-0.325653,0.646445,-1.0,1,0,0,0,0,0,0
114696175,1.18471e-13,-0.113078,-0.6653,-9.83005e-07,0.94367,-0.018453,-0.0534113,-0.326027,0.645967,-1.0,1,0,0,0,0,0,0
114800328,-0.0499689,-0.17568,-0.682139,-0.641253,0.937738,-0.0527873,-0.0743241,-0.335167,0.646244,-1.0,1,0,0,0,0,0,0
114899931,-0.128691,-0.173461,-0.780526,-1.58881,0.917307,-0.092128,-0.0555725,-0.383368,0.646498,-1.0,1,0,0,0,0,0,0
115000002,-0.163202,-0.153458,-0.974354,-2.11582,0.875201,-0.10758,-0.0294646,-0.470724,0.646363,-1.0,1,0,0,0,0,0,0
115104988,-0.192967,-0.122385,-1.2008,-2.16739,0.816407,-0.113727,0.0040997,-0.566153,0.64665,-1.0,1,0,0,0,0,0,0
115204292,-0.221908,-0.11978,-1.41452,-2.16639,0.74981,-0.122669,0.0265978,-0.649638,0.646219,-1.0,1,0,0,0,0,0,0
115307948,-0.271106,-0.119741,-1.63501,-2.14073,0.670657,-0.13552,0.0578445,-0.726986,0.646335,-1.0,1,0,0,0,0,0,0
115409474,-0.28749,-0.120849,-1.85034,-2.11259,0.587497,-0.133772,0.0782482,-0.794248,0.645972,-1.0,1,0,0,0,0,0,0
115509508,-0.288737,-0.12281,-2.05314,-1.92369,0.503852,-0.126302,0.0914085,-0.849603,0.64576,-1.0,1,0,0,0,0,0,0
115611995,-0.288616,-0.121403,-2.23652,-1.75449,0.424062,-0.116755,0.102844,-0.892168,0.645612,-1.0,1,0,0,0,0,0,0
115713293,-0.257039,-0.102392,-2.39999,-1.20255,0.35279,-0.0936841,0.100909,-0.925516,0.646467,-1.0,1,0,0,0,0,0,0
115812296,-0.0540308,-0.0206859,-2.48024,-0.106238,0.324283,-0.0185488,0.0221904,-0.945518,0.646171,-1.0,1,0,0,0,0,0,0
115917185,-0.000753041,-0.000378647,-2.46871,0.149814,0.330131,-0.00030301,0.000292909,-0.943935,0.646135,-1.0,1,0,0,0,0,0,0
116016130,2.42023e-05,4.61229e-06,-2.46387,0.00512792,0.332413,6.19758e-06,-1.06464e-05,-0.943134,0.646137,-1.0,1,0,0,0,0,0,0
116115528,5.81012e-07,1.95911e-07,-2.46373,-0.0001822,0.33248,1.8897e-07,-2.41411e-07,-0.94311,0.646422,-1.0,1,0,0,0,0,0,0
116219004,9.49356e-09,4.22272e-09,-2.46373,-4.53497e-06,0.33248,3.56945e-09,-3.77475e-09,-0.94311,0.646449,-1.0,1,0,0,0,0,0,0
116320041,-1.88215e-10,-1.06688e-11,-2.46373,-2.14872e-08,0.33248,-3.63199e-11,8.69803e-11,-0.94311,0.64645,-1.0,1,0,0,0,0,0,0
116422652,0.0,-0.0,-2.46373,1.36931e-09,0.33248,0.0,-0.0,-0.94311,0.645967,-1.0,1,0,0,0,0,0,0
116524453,-0.00684158,-4.41203e-14,-2.46641,-0.171639,0.331212,-0.00113301,0.0032277,-0.94355,0.646652,-1.0,1,0,0,0,0,0,0
116628423,-0.0672831,-3.33756e-16,-2.50946,-0.666087,0.310655,-0.0104549,0.0319691,-0.949927,0.646599,-1.0,1,0,0,0,0,0,0
116728109,-0.0911651,1.17145e-17,-2.57305,-0.495584,0.280166,-0.0127796,0.043738,-0.958869,0.64519,-1.0,1,0,0,0,0,0,0
116828699,0.00440041,4.28516e-19,-2.59334,0.0186484,0.270706,0.000595609,-0.00211805,-0.96266,0.646349,-1.0,1,0,0,0,0,0,0
116932673,-0.000265835,8.43971e-21,-2.59287,-0.000264932,0.270934,-3.60118e-05,0.000127946,-0.962598,0.645695,-1.0,1,0,0,0,0,0,0
117032037,-4.97941e-06,-4.777e-23,-2.59286,-1.01297e-05,0.270936,-6.74551e-07,2.39658e-06,-0.962597,0.646249,-1.0,1,0,0,0,0,0,0
117132500,5.32605e-08,-1.23295e-23,-2.59286,-2.13958e-07,0.270936,7.2151e-09,-2.56342e-08,-0.962597,0.646624,-1.0,1,0,0,0,0,0,0
117236044,2.48218e-09,-1.39701e-25,-2.59286,9.45189e-10,0.270936,3.36257e-10,-1.19467e-09,-0.962597,0.646446,-1.0,1,0,0,0,0,0,0
117336404,0.0,-0.0,-2.59286,2.9883e-10,0.270936,0.0,-0.0,-0.962597,0.645586,-1.0,1,0,0,0,0,0,0
117440326,0.0,-0.0,-2.59286,3.46297e-12,0.270936,0.0,-0.0,-0.962597,0.646639,-1.0,1,0,0,0,0,0,0
117540511,0.0,-0.0,-2.59286,1.2081e-14,0.270936,0.0,-0.0,-0.962597,0.646584,-1.0,1,0,0,0,0,0,0
117639769,0.0,-0.0,-2.59286,-3.4217e-15,0.270936,0.0,-0.0,-0.962597,0.646677,-1.0,1,0,0,0,0,0,0
117744030,0.0,-0.0,-2.59286,-4.79497e-17,0.270936,0.0,-0.0,-0.962597,0.645652,-1.0,1,0,0,0,0,0,0
117845056,0.0,-0.0,-2.59286,-3.7342e-19,0.270936,0.0,-0.0,-0.962597,0.646529,-1.0,1,0,0,0,0,0,0
117946203,0.0,-0.0,-2.59286,3.67249e-20,0.270936,0.0,-0.0,-0.962597,0.646415,-1.0,1,0,0,0,0,0,0
118049695,0.0,-0.0,-2.59286,6.02949e-22,0.270936,0.0,-0.0,-0.962597,0.646537,-1.0,1,0,0,0,0,0,0
118149036,0.0,-0.0,-2.59286,6.50986e-24,0.270936,0.0,-0.0,-0.962597,0.646911,-1.0,1,0,0,0,0,0,0
118252130,0.0,-0.0,-2.59286,-3.68043e-25,0.270936,0.0,-0.0,-0.962597,0.646702,-1.0,1,0,0,0,0,0,0
118353030,0.0,-0.0,-2.59286,-7.04517e-27,0.270936,0.0,-0.0,-0.962597,0.64654,-1.0,1,0,0,0,0,0,0
118452929,0.0,-0.0,-2.59286,6.59199e-29,0.270936,0.0,-0.0,-0.962597,0.646626,-1.0,1,0,0,0,0,0,0
118555576,0.0,-0.0,-2.59286,3.39178e-30,0.270936,0.0,-0.0,-0.962597,0.646757,-1.0,1,0,0,0,0,0,0
118656101,0.0,-0.0,-2.59286,9.82667e-32,0.270936,0.0,-0.0,-0.962597,0.646755,-1.0,1,0,0,0,0,0,0
118756406,0.0,-0.0,-2.59286,2.25786e-35,0.270936,0.0,-0.0,-0.962597,0.646485,-1.0,1,0,0,0,0,0,0
118860697,0.0,-0.0,-2.59286,-2.7651e-35,0.270936,0.0,-0.0,-0.962597,0.6466,-1.0,1,0,0,0,0,0,0
118960090,0.0,-0.0,-2.59286,-1.45537e-36,0.270936,0.0,-0.0,-0.962597,0.646568,-1.0,1,0,0,0,0,0,0
119064036,0.0,-0.0,-2.59286,-8.51571e-39,0.270936,0.0,-0.0,-0.962597,0.6467,-1.0,1,0,0,0,0,0,0
119164554,0.0,-0.0,-2.59286,1.77736e-40,0.270936,0.0,-0.0,-0.962597,0.646649,-1.0,1,0,0,0,0,0,0
119264090,0.0,-0.0,-2.59286,1.91347e-41,0.270936,0.0,-0.0,-0.962597,0.646903,-1.0,1,0,0,0,0,0,0
119368063,0.0,-0.0,-2.59286,1.80768e-43,0.270936,0.0,-0.0,-0.962597,0.64631,-1.0,1,0,0,0,0,0,0
119468707,0.0,-0.0,-2.59286,-1.4013e-44,0.270936,0.0,-0.0,-0.962597,0.646336,-1.0,1,0,0,0,0,0,0
119568187,0.0,-0.0,-2.59286,0.0,0.270936,0.0,-0.0,-0.962597,0.646144,-1.0,1,0,0,0,0,0,0
119672050,0.0,-0.0,-2.59286,0.0,0.270936,0.0,-0.0,-0.962597,0.646563,-1.0,1,0,0,0,0,0,0
119772051,0.0,-0.0,-2.59286,0.0,0.270936,0.0,-0.0,-0.962597,0.646701,-1.0,1,0,0,0,0,0,0
119876778,0.0,-0.0,-2.59286,0.0,0.270936,0.0,-0.0,-0.962597,0.646625,-1.0,1,0,0,0,0,0,0
119978220,0.0,-0.0,-2.59286,0.0,0.270936,0.0,-0.0,-0.962597,0.646878,-1.0,1,0,0,0,0,0,0
120077089,0.0,-0.0,-2.59286,0.0,0.270936,0.0,-0.0,-0.962597,0.646029,-1.0,1,0,0,0,0,0,0
120177043,0.0,-0.0,-2.59286,0.0,0.270936,0.0,-0.0,-0.962597,0.646567,-1.0,1,0,0,0,0,0,0
120281437,0.0,-0.0,-2.59286,0.0,0.270936,0.0,-0.0,-0.962597,0.646563,-1.0,1,0,0,0,0,0,0
120381979,0.0,-0.0,-2.59286,0.0,0.270936,0.0,-0.0,-0.962597,0.646787,-1.0,1,0,0,0,0,0,0
120485480,0.0,-0.0,-2.59286,0.0,0.270936,0.0,-0.0,-0.962597,0.646628,-1.0,1,0,0,0,0,0,0
120583961,0.0,-0.0,-2.59286,0.0,0.270936,0.0,-0.0,-0.962597,0.6466,-1.0,1,0,0,0,0,0,0
120687938,0.0,-0.0,-2.59286,0.0,0.270936,0.0,-0.0,-0.962597,0.646306,-1.0,1,0,0,0,0,0,0
120788100,0.0,-0.0,-2.59286,0.0,0.270936,0.0,-0.0,-0.962597,0.646336,-1.0,1,0,0,0,0,0,0
120889392,0.0,-0.0,-2.59286,0.0,0.270936,0.0,-0.0,-0.962597,0.646144,-1.0,1,0,0,0,0,0,0
120992414,0.0,-0.0,-2.59286,0.0,0.270936,0.0,-0.0,-0.962597,0.646701,-1.0,1,0,0,0,0,0,0
121092641,0.0,-0.0,-2.59286,0.0,0.270936,0.0,-0.0,-0.962597,0.646961,-1.0,1,0,0,0,0,0,0
121143883,0.0,-0.0,-2.59286,0.0,0.270936,0.0,-0.0,-0.962597,0.645908,-1.0,1,0,0,0,0,0,0
121143883,0.0,-0.0,-2.59286,0.0,0.270936,0.0,-0.0,-0.962597,0.645908,-1.0,1,0,0,0,0,0,0
121143883,0.0,-0.0,-2.59286,0.0,0.270936,0.0,-0.0,-0.962597,0.645908,-1.0,1,0,0,0,0,0,0
121143883,0.0,-0.0,-2.59286,0.0,0.270936,0.0,-0.0,-0.962597,0.645908,-1.0,1,0,0,0,0,0,0
121143883,0.0,-0.0,-2.59286,0.0,0.270936,0.0,-0.0,-0.962597,0.645908,-1.0,1,0,0,0,0,0,0
121143883,0.0,-0.0,-2.59286,0.0,0.270936,0.0,-0.0,-0.962597,0.645908,-1.0,1,0,0,0,0,0,0
121143883,0.0,-0.0,-2.59286,0.0,0.270936,0.0,-0.0,-0.962597,0.645908,-1.0,1,0,0,0,0,0,0
121143883,0.0,-0.0,-2.59286,0.0,0.270936,0.0,-0.0,-0.962597,0.645908,-1.0,1,0,0,0,0,0,0
121143883,0.0,-0.0,-2.59286,0.0,0.270936,0.0,-0.0,-0.962597,0.645908,-1.0,1,0,0,0,0,0,0
121143883,0.0,-0.0,-2.59286,0.0,0.270936,0.0,-0.0,-0.962597,0.645908,-1.0,1,0,0,0,0,0,0
121143883,0.0,-0.0,-2.59286,0.0,0.270936,0.0,-0.0,-0.962597,0.645908,-1.0,1,0,0,0,0,0,0
121143883,0.0,-0.0,-2.59286,0.0,0.270936,0.0,-0.0,-0.962597,0.645908,-1.0,1,0,0,0,0,0,0
121143883,0.0,-0.0,-2.59286,0.0,0.270936,0.0,-0.0,-0.962597,0.645908,-1.0,1,0,0,0,0,0,0
121143883,0.0,-0.0,-2.59286,0.0,0.270936,0.0,-0.0,-0.962597,0.645908,-1.0,1,0,0,0,0,0,0
121143883,0.0,-0.0,-2.59286,0.0,0.270936,0.0,-0.0,-0.962597,0.645908,-1.0,1,0,0,0,0,0,0
121143883,0.0,-0.0,-2.59286,0.0,0.270936,0.0,-0.0,-0.962597,0.645908,-1.0,1,0,0,0,0,0,0
121143883,0.0,-0.0,-2.59286,0.0,0.270936,0.0,-0.0,-0.962597,0.645908,-1.0,1,0,0,0,0,0,0
121143883,0.0,-0.0,-2.59286,0.0,0.270936,0.0,-0.0,-0.962597,0.645908,-1.0,1,0,0,0,0,0,0
121143883,0.0,-0.0,-2.59286,0.0,0.270936,0.0,-0.0,-0.962597,0.645908,-1.0,1,0,0,0,0,0,0
121143883,0.0,-0.0,-2.59286,0.0,0.270936,0.0,-0.0,-0.962597,0.645908,-1.0,1,0,0,0,0,0,0
121143883,0.0,-0.0,-2.59286,0.0,0.270936,0.0,-0.0,-0.962597,0.645908,-1.0,1,0,0,0,0,0,0
121143883,0.0,-0.0,-2.59286,0.0,0.270936,0.0,-0.0,-0.962597,0.645908,-1.0,1,0,0,0,0,0,0
121143883,0.0,-0.0,-2.59286,0.0,0.270936,0.0,-0.0,-0.962597,0.645908,-1.0,1,0,0,0,0,0,0
121143883,0.0,-0.0,-2.59286,0.0,0.270936,0.0,-0.0,-0.962597,0.645908,-1.0,1,0,0,0,0,0,0
121143883,0.0,-0.0,-2.59286,0.0,0.270936,0.0,-0.0,-0.962597,0.645908,-1.0,1,0,0,0,0,0,0
121143883,0.0,-0.0,-2.59286,0.0,0.270936,0.0,-0.0,-0.962597,0.645908,-1.0,1,0,0,0,0,0,0
121143883,0.0,-0.0,-2.59286,0.0,0.270936,0.0,-0.0,-0.962597,0.645908,-1.0,1,0,0,0,0,0,0
121143883,0.0,-0.0,-2.59286,0.0,0.270936,0.0,-0.0,-0.962597,0.645908,-1.0,1,0,0,0,0,0,0
121143883,0.0,-0.0,-2.59286,0.0,0.270936,0.0,-0.0,-0.962597,0.645908,-1.0,1,0,0,0,0,0,0
