timestamp,roll,pitch,yaw,thrust
21301483,0.0,0.0,0.0,0.08
21305895,0.0,0.0,0.0,0.08
21409489,0.0,0.0,0.0,0.08
21509493,0.0,0.0,0.0,0.08
21609465,0.0,0.0,-0.0312145,0.277476
21713471,0.0,0.0,-0.0306433,0.584209
21813471,0.0,0.0,-0.0151553,0.572173
21917458,0.0,0.0,-0.0182586,0.565928
22017473,0.0,0.0,-0.0180618,0.565861
22115884,0.0,0.0,-0.0179984,0.563974
22219842,0.0,0.0,-0.0180208,0.564068
22323874,0.0,0.0,-0.0180172,0.564803
22421502,0.0,0.0,-0.0180172,0.565161
22525494,0.0,0.0,-0.0180173,0.564395
22625463,0.0,0.0,-0.0180173,0.572787
22729484,0.0,0.0,-0.0180173,0.642695
22829463,0.0,0.0,-0.0180173,0.716329
22929569,0.0,0.0,-0.0180173,0.751087
23033463,0.0,0.0,-0.0180173,0.801965
23133591,0.0,0.0,-0.0768634,0.964784
23233489,0.0,0.0,-0.0564746,1.0
23337506,0.0,0.0,-0.0440254,0.998799
23437486,0.0,0.0,-0.0472913,0.999923
23541463,0.0,0.0,-0.0398663,0.991509
23641498,0.0,0.0,-0.0117223,0.956987
23741622,0.0,0.0,-0.0261405,0.886205
23845490,0.0,0.0,-0.0131577,0.779519
23945463,0.0,0.0,-0.0164641,0.766145
24045465,0.0,0.0,-0.0206124,0.771776
24149469,0.0,0.0,-0.0200976,0.770374
24248346,0.0,0.0,-0.0200699,0.771198
24353652,0.0,0.0,-0.0200967,0.77055
24453585,0.0,0.0,-0.0200904,0.770338
24553540,0.0,0.0,-0.0200908,0.771254
24657465,0.0,0.0,-0.0200909,0.770537
24757491,0.0,0.0,-0.0200909,0.792771
24857513,0.0,0.0,-0.12701,0.945462
24961547,0.0,0.0,-0.118243,0.980722
25061466,0.0,0.0,-0.0746291,0.976408
25165542,0.0,0.0,-0.0845995,1.0
25265463,0.0,0.0,-0.0837742,1.0
25365526,0.0,0.0,-0.0836024,0.999803
25469478,3.83972,0.0,0.0,0.999803
25569482,3.83972,0.0,0.0,0.999803
25669502,3.83972,0.0,0.0,0.999803
25773614,3.83972,0.0,0.0,0.999803
25873466,3.83972,0.0,0.0,0.999803
25977473,3.83972,0.0,0.0,0.999803
26077461,3.83972,0.0,0.0,0.999803
26177600,3.83972,0.0,0.0,0.999803
26281464,3.83972,0.0,0.0,0.999803
26379978,3.83972,0.0,0.0,0.999803
26484023,3.83972,0.0,0.0,0.999803
26585444,3.83972,0.0,0.0,0.999803
26685428,3.83972,0.0,0.0,0.999803
26789443,3.83972,0.0,0.0,0.999803
26889428,3.83972,0.0,0.0,0.999803
26989511,3.83972,0.0,0.0,0.999803
27093604,3.83972,0.0,0.0,0.999803
27193474,3.83972,0.0,0.0,0.999803
27293453,0.0,0.0,0.0,1.0
27397490,0.0,0.0,1.79973e-19,1.0
27497500,0.0,0.0,1.41913e-19,1.0
27601484,0.0,0.0,3.96407e-19,1.0
27701465,0.0,0.0,3.78266e-19,1.0
27801532,0.0,0.0,3.81069e-19,1.0
27905465,0.0,0.0,3.8105e-19,1.0
28005507,0.0,0.0,3.80933e-19,1.0
28105629,0.0,0.0,3.80955e-19,1.0
28209450,0.0,0.0,3.80963e-19,1.0
28309490,-0.0310442,-3.31404e-21,3.80959e-19,1.0
28413615,-0.839944,0.308621,1.02829e-09,1.0
28511978,-3.0874,0.860116,-6.70852e-09,1.0
28616097,-3.8197,0.831592,1.28424e-08,1.0
28717487,-3.81791,0.839782,5.8352e-09,1.0
28817467,-3.64976,0.528826,2.85234e-09,1.0
28917452,-2.86525,-0.0021881,-1.54992e-11,1.0
29021470,-0.520775,0.00246237,-1.13704e-12,1.0
29121465,0.139757,0.000861968,9.04126e-14,1.0
29225464,0.528605,-0.000314231,3.71684e-13,1.0
29325450,1.42488,-3.89543e-05,-1.67162e-13,1.0
29425671,2.95253,2.48384e-05,-2.70796e-13,1.0
29529462,3.32961,-4.84038e-06,1.8012e-14,1.0
29629557,1.39698,2.87263e-07,4.08127e-16,1.0
29729462,-0.104594,-4.81921e-08,1.56233e-17,1.0
29833507,0.024946,-5.41254e-09,8.74806e-20,1.0
29933465,0.0068524,5.86875e-09,-1.89129e-19,1.0
30037483,-0.00221118,4.3834e-11,6.96853e-25,1.0
30137461,0.000301283,-2.36211e-10,4.97902e-23,1.0
30237522,7.93342e-06,5.85723e-11,-2.03048e-25,1.0
30341467,-1.3576e-05,-5.88344e-12,1.11003e-25,1.0
30441468,9.02097e-07,7.29997e-13,8.86137e-28,1.0
30540128,-2.8519e-07,4.15662e-13,-1.33726e-28,1.0
30644140,-4.83731e-08,-7.74564e-14,-1.82098e-30,0.893668
30748012,2.32744e-08,3.81959e-15,-4.20763e-32,0.812923
30849459,-4.08204e-09,1.99567e-15,-8.0244e-35,0.818639
30949504,0.0,0.0,0.0107298,0.772624
31049624,0.000173457,-0.0507517,0.0278415,0.740882
31153503,0.00219762,-0.518991,0.0182953,0.760333
31253465,9.46399e-05,-1.12751,-0.0347009,0.949232
31355463,0.00529677,-1.25235,0.0673928,1.0
31457457,0.0160531,-1.80808,0.0416809,0.998141
31559593,0.0162357,-2.89374,0.0262718,0.999902
31661464,-0.061017,-1.71663,0.0301068,1.0
31761469,-0.00298733,0.131008,0.0300864,0.999979
31861540,-0.145663,0.0424928,0.0300336,1.0
31961466,-1.16942,0.102753,0.0299377,1.0
32065624,-2.03378,0.0412202,0.0296862,1.0
32165526,-1.52005,-0.0247361,0.0298503,1.0
32269509,0.701646,0.00671368,0.0300129,1.0
32369467,0.244634,0.0724301,0.0300509,1.0
32473500,0.879001,0.891675,0.0299169,1.0
32573465,0.838299,1.47978,0.0297983,1.0
32672327,0.236581,1.32129,0.029896,1.0
32776001,0.224966,0.730108,0.0300047,1.0
32877479,0.237083,0.15786,0.0300494,1.0
32977497,0.11659,0.390829,0.0300419,1.0
33081471,0.0751698,0.538894,0.0300303,1.0
33181507,-0.00216165,-0.0277843,0.0300566,1.0
33285463,-0.00233174,-0.013582,0.0300566,1.0
33385661,0.000677669,0.00452988,0.0300567,1.0
33486446,3.83972,0.0,0.0,1.0
33589468,3.83972,0.0,0.0,1.0
33689444,3.83972,0.0,0.0,1.0
33789428,3.83972,0.0,0.0,1.0
33893428,3.83972,0.0,0.0,1.0
33993444,3.83972,0.0,0.0,1.0
34097428,3.83972,0.0,0.0,1.0
34197428,3.83972,0.0,0.0,1.0
34297512,3.83972,0.0,0.0,1.0
34401442,3.83972,0.0,0.0,1.0
34501465,3.83972,0.0,0.0,1.0
34601475,3.83972,0.0,0.0,1.0
34705613,3.83972,0.0,0.0,1.0
34803981,3.83972,0.0,0.0,1.0
34908034,3.83972,0.0,0.0,1.0
35009441,3.83972,0.0,0.0,1.0
35109519,0.0,0.0,1.81493e-28,1.0
35213465,0.0,0.0,-1.08895e-28,1.0
35313470,0.0,0.0,-1.01211e-29,1.0
35413544,0.0,0.0,-2.40877e-29,1.0
35517474,0.0,0.0,-2.44251e-29,1.0
35617494,0.0,0.0,-2.38334e-29,1.0
35721463,0.0,0.0,-2.39714e-29,1.0
35821489,0.0,0.0,-2.39576e-29,1.0
35921573,0.0,0.0,-2.39556e-29,1.0
36025621,0.0,0.0,-2.39567e-29,1.0
36125463,0.0,0.0,-2.39565e-29,1.0
36225507,0.0,0.0,0.0663278,1.0
36329473,0.0,0.0,0.235353,1.0
36429463,0.0,0.0,0.257152,1.0
36533468,0.0,0.0,0.182241,1.0
36633469,0.0,0.0,0.1808,1.0
36733545,0.0,0.0,0.181007,1.0
36837508,0.0,0.0,0.18051,1.0
36936014,0.0,0.0,0.180642,1.0
37040197,0.0,0.0,0.18063,1.0
37141498,0.0,0.0,0.180628,1.0
37241472,-0.00326362,-0.000165338,0.180629,1.0
37345678,-0.426693,-0.0216166,0.180532,1.0
37445518,-1.38401,-0.0701148,0.1796,1.0
37545522,-2.32627,-0.117851,0.177706,1.0
37649465,-2.88805,-0.146311,0.176104,1.0
37749472,-3.03586,-0.153799,0.175622,1.0
37849505,-3.00245,-0.152107,0.175733,1.0
37953519,-0.921618,-0.0466899,0.180173,1.0
38053538,0.0431029,0.00218362,0.180628,1.0
38157506,0.139839,0.00708436,0.180619,1.0
38257486,1.3255,0.067151,0.179685,1.0
38358541,2.97807,0.150871,0.175813,1.0
38461486,3.54442,0.179563,0.173768,1.0
38561452,3.83972,0.197788,0.172269,1.0
38662463,1.88755,0.0956247,0.17871,1.0
38765531,0.225773,0.0114379,0.180602,1.0
38865468,-0.0684072,-0.00346556,0.180627,1.0
38969468,0.00879201,0.00044541,0.180629,1.0
39068068,0.00568819,0.000288168,0.180629,1.0
39172419,-0.0238187,-0.00120667,0.180629,1.0
39273465,-0.812881,-0.0411812,0.180275,1.0
39373541,-2.62779,-0.133126,0.176891,1.0
39473466,-2.93426,-0.148652,0.175956,1.0
39577494,-2.46218,-0.124736,0.177351,1.0
39677607,-2.01109,-0.101883,0.178449,1.0
39781486,-0.87726,-0.0444427,0.180216,1.0
39881465,-0.0318777,-0.00161495,0.180629,1.0
39981568,0.0862058,0.00436725,0.180625,1.0
40085516,2.00521,0.101585,0.178462,1.0
40185470,2.98523,0.151234,0.17579,1.0
40285485,3.08079,0.156075,0.17547,1.0
40389504,1.51487,0.0767445,0.179395,1.0
40489485,-0.341393,-0.0172952,0.180567,1.0
40593469,-0.683925,-0.0346482,0.180378,1.0
40693556,-0.611193,-0.0309635,0.180429,1.0
40793584,0.252563,0.012795,0.180595,1.0
40897533,1.05737,0.053567,0.180029,1.0
40996119,1.42802,0.0723448,0.179533,1.0
41100231,-0.309263,-0.0156675,0.180578,1.0
41201472,-2.36691,-0.11991,0.177602,1.0
41301658,-3.52853,-0.178758,0.17383,1.0
41405472,-3.72599,-0.188761,0.173031,1.0
41505611,-2.48008,-0.125642,0.177303,1.0
41605545,0.00233631,0.000118359,0.180629,1.0
41709725,0.301075,0.0152527,0.180581,1.0
41809493,2.07299,0.105019,0.178312,1.0
41909511,3.83972,0.196177,0.172408,1.0
42013492,3.83972,0.197788,0.172269,1.0
42113463,3.5982,0.182287,0.173554,1.0
42217491,2.30921,0.116986,0.177749,1.0
42317594,0.354699,0.0179693,0.180562,1.0
42417521,-0.133797,-0.00677827,0.18062,1.0
42521498,0.0179903,0.000381221,-0.288594,1.0
42621526,0.000537041,-0.00010365,-2.1825,1.0
42721490,-0.000757137,0.000338813,-3.24355,1.0
42825455,0.000151447,-0.000115748,-3.39435,1.0
42925484,-1.23533e-05,1.141e-05,-2.92875,1.0
43029465,-2.18926e-06,2.0793e-06,-2.72742,1.0
43129490,1.02324e-06,-9.77311e-07,-2.7188,1.0
43232067,-1.77123e-07,1.69505e-07,-2.70463,1.0
43333544,5.98337e-09,-5.72407e-09,-2.70316,1.0
43433464,5.26835e-09,-5.03618e-09,-2.697,1.0
43533465,-1.59997e-09,1.4757e-09,-2.43491,1.0
43637586,0.0,0.0,-1.88743,1.0
43738471,0.0,0.0,-1.25827,1.0
43841507,0.0,0.0,-1.02576,1.0
43941476,0.0,0.0,-1.44985,1.0
44041548,0.0,0.0,-1.5341,1.0
44145452,0.0,0.0,-1.50726,1.0
44245489,0.0,0.0,-1.4897,1.0
44345455,0.0,0.0,-1.19479,1.0
44449492,0.0,0.0,-0.639799,1.0
44549452,0.0,0.0,-0.116783,1.0
44653485,0.0,0.0,0.131053,1.0
44753496,0.0,0.0,-0.0404474,1.0
44853526,0.00163456,-9.24101e-05,-0.202711,1.0
44957592,0.16295,-0.00943266,-0.211509,1.0
45057466,0.863074,-0.0499762,-0.204576,1.0
45156225,1.33265,-0.0771314,-0.205367,1.0
45260039,0.700357,-0.0405474,-0.206081,1.0
45364331,-0.0831708,0.00481507,-0.206349,1.0
45461463,-0.00565197,0.000327212,-0.206363,1.0
45565485,0.00463082,-0.000268095,-0.206362,1.0
45665577,-0.0662111,0.0038332,-0.206359,1.0
45769487,-0.965814,0.0559144,-0.205789,1.0
45869468,-2.34034,0.13549,-0.202979,1.0
45969584,-2.37834,0.13769,-0.202867,1.0
46073467,-1.87858,0.108758,-0.204188,1.0
46173463,-0.868957,0.0503071,-0.205899,1.0
46277583,0.0248928,-0.00144113,-0.206361,1.0
46377463,0.0196479,-0.00113749,-0.206361,1.0
46477610,0.0299911,-0.00173629,-0.206361,1.0
46581454,0.652552,-0.0377786,-0.206101,1.0
46681502,1.29698,-0.0750866,-0.205329,1.0
46781466,1.12026,-0.0648562,-0.205591,1.0
46885549,0.206002,-0.0119262,-0.206336,1.0
46985463,0.00701103,-0.000405894,-0.206362,1.0
47089490,0.594382,-0.0344109,-0.206145,1.0
47189465,0.217959,-0.0126185,-0.206333,1.0
47288064,-0.053435,0.00309354,-0.20636,1.0
47392184,0.0289093,0.351341,-0.206286,1.0
47493455,0.0926855,1.09148,-0.205628,1.0
47593486,0.0207661,0.354025,-0.206285,1.0
47697469,-0.00629053,-0.0879072,-0.206357,1.0
47797486,0.000808258,0.0088473,-0.206362,1.0
47901452,0.00330494,0.0575953,-0.20636,1.0
48001486,0.00184925,0.0320085,-0.206361,1.0
48101592,-0.227648,0.00629015,-0.20633,1.0
48205486,-0.75774,0.0416421,-0.20601,1.0
48305502,-1.07721,0.0624936,-0.20565,1.0
48405466,0.0953574,-0.00557391,-0.206356,1.0
48510587,0.017668,-0.00101425,-0.206362,1.0
48609586,-0.00816317,0.000472442,-0.206362,1.0
48713474,0.00140481,-8.16209e-05,-0.206362,1.0
48813447,-1.33669e-05,2.35637e-08,-3.64542e-30,1.0
48913526,-1.24715e-05,-2.72859e-09,1.12049e-31,1.0
49017448,3.69377e-06,-2.0751e-10,1.11198e-31,1.0
49117473,-4.64006e-07,1.57556e-10,-3.26608e-32,1.0
49217446,-2.32736e-08,-3.22329e-11,4.06741e-33,1.0
49321474,2.37284e-08,2.1807e-12,2.1482e-34,1.0
49420095,-5.16027e-09,6.79678e-13,-2.10756e-34,1.0
49525465,4.06449e-10,-2.56989e-13,4.55229e-35,1.0
49624274,1.59775e-09,-9.95826e-14,2.00754e-31,1.0
49728356,0.0,0.0,-5.48109e-36,1.0
49829466,0.0,0.0,-3.17853e-36,1.0
49929586,0.0,0.0,-3.8253e-36,1.0
50029496,0.0,0.0,-3.80535e-36,1.0
50133455,0.0,0.0,-3.73509e-36,1.0
50233483,0.0,0.0,-3.74677e-36,1.0
50337466,0.0,0.0,-3.74649e-36,1.0
50437511,0.0,0.0,-3.7462e-36,1.0
50537578,-0.0130712,4.06707e-20,7.58706e-31,1.0
50641550,-0.0309725,0.0505502,-2.07853e-12,1.0
50741463,1.21559,0.0847893,-1.96181e-10,1.0
50841466,3.83972,-0.0134931,4.03693e-10,1.0
50945469,3.32591,0.000235952,1.23596e-12,1.0
51045453,1.02413,0.000463953,-3.77249e-13,1.0
51149465,-0.0833153,-2.77241e-05,5.06578e-15,1.0
51249586,-0.00262898,1.47446e-05,-1.18071e-17,1.0
51349551,0.00618448,1.13227e-06,3.42818e-18,1.0
51450652,-0.00147674,-8.54183e-07,1.21123e-18,1.0
51553486,0.000139552,1.74471e-07,1.06583e-20,1.0
51652140,2.10268e-05,-1.17515e-08,1.60169e-22,1.0
51756593,-0.335739,-3.69186e-09,6.89748e-18,1.0
51860293,-2.34357,0.115775,5.68636e-10,1.0
51961503,-3.83972,0.187599,4.4062e-09,1.0
52061450,-3.64407,0.0341764,-6.5532e-10,1.0
52161521,-1.48215,-0.00644259,1.83489e-11,1.0
52265502,0.119532,0.000318708,-1.29537e-13,1.0
52365469,0.0203854,0.000166274,1.06832e-14,1.0
52466502,-0.0097833,-5.4634e-05,5.57051e-16,1.0
52569661,0.00171388,7.56052e-06,5.30648e-18,1.0
52669555,-6.20495e-05,1.6633e-07,7.84186e-21,1.0
52773450,-4.9889e-05,-3.32327e-07,-1.73543e-20,1.0
52873485,1.5105e-05,7.83925e-08,-4.78678e-22,1.0
52973636,-1.94005e-06,-7.25378e-09,1.69052e-23,1.0
53077462,3.83972,0.0,0.0,1.0
53177457,3.83972,0.0,0.0,1.0
53277441,3.83972,0.0,0.0,1.0
53381466,3.83972,0.0,0.0,1.0
53481439,3.83972,0.0,0.0,1.0
53585428,3.83972,0.0,0.0,1.0
53685441,3.83972,0.0,0.0,1.0
53784215,3.83972,0.0,0.0,1.0
53888110,3.83972,0.0,0.0,1.0
53989476,3.83972,0.0,0.0,1.0
54089441,3.83972,0.0,0.0,1.0
54193476,3.83972,0.0,0.0,1.0
54293481,3.83972,0.0,0.0,1.0
54397465,3.83972,0.0,0.0,1.0
54497439,3.83972,0.0,0.0,1.0
54597489,3.83972,0.0,0.0,1.0
54701442,3.83972,0.0,0.0,1.0
54801439,3.83972,0.0,0.0,1.0
54901676,0.0,0.0,0.0,1.0
55005464,0.0,0.0,0.0,1.0
55105486,0.0,0.0,0.0,1.0
55209587,0.0,0.0,0.0,1.0
55309505,0.0,0.0,0.0,1.0
55409607,-0.0934866,1.55339e-25,3.18745e-35,1.0
55513493,-1.06799,-2.50234e-26,5.25274e-35,1.0
55613461,-2.93681,0.0210155,-3.63662e-10,1.0
55713457,-3.83972,0.0350566,4.07421e-10,1.0
55817473,-3.83972,-0.00565859,1.20563e-11,1.0
55916235,-2.61503,9.93772e-05,5.73218e-13,1.0
56020155,-0.0555153,0.000194762,-2.33741e-14,1.0
56121466,0.39163,-5.35088e-05,-5.49519e-14,1.0
56221675,2.18698,6.15381e-06,1.1191e-14,1.0
56325507,3.57235,4.68712e-07,-1.12272e-14,1.0
56425484,3.83972,-3.52662e-07,5.95435e-15,1.0
56525464,3.17101,7.24269e-08,-5.18453e-16,1.0
56629511,0.252036,-4.92775e-09,-8.70947e-20,1.0
56730464,-0.125088,-1.54835e-09,-1.36221e-18,1.0
56833540,0.028014,5.83921e-10,3.06188e-21,1.0
56933556,-0.00234941,-8.95767e-11,-1.75336e-22,1.0
57033509,-0.0102783,4.59562e-13,-6.23501e-24,1.0
57137463,-0.151763,0.667227,-2.40979e-10,1.0
57237453,-0.163317,2.46059,-1.65981e-09,1.0
57337499,-0.117062,2.8913,1.10885e-09,1.0
57441450,0.00730074,1.02251,-1.95842e-11,1.0
57542463,0.00266229,-0.121074,-2.07407e-13,1.0
57645503,-0.000959336,-0.00836334,5.90108e-14,1.0
57745488,0.0001426,-0.420804,4.01887e-14,1.0
57845590,4.01293e-07,-2.44754,2.86033e-16,1.0
57944185,-5.50812e-06,-3.36998,-1.22704e-13,1.0
58048234,-0.0406057,-2.43092,-2.95392e-11,1.0
58152520,-0.192422,-0.636196,-2.88261e-10,1.0
58253508,0.00287509,0.0980767,6.79493e-13,1.0
58355651,0.00664803,-0.000612936,3.92302e-16,1.0
58457461,-0.277451,-0.00360405,2.55374e-12,1.0
58557507,-0.74614,0.000641315,3.79581e-13,1.0
58657550,-2.6122,-0.000101615,1.81104e-12,1.0
58761463,-2.04886,-1.00145e-05,-3.7986e-14,1.0
58861673,-0.578595,6.48608e-06,-4.94812e-15,1.0
58961467,0.0732163,-1.26941e-06,-3.55586e-16,1.0
59065496,0.00351667,7.5022e-08,-4.04959e-20,1.0
59165507,-0.0081613,1.19689e-07,-2.83287e-18,1.0
59265467,0.0608041,-1.25219e-08,1.76016e-18,1.0
59369501,2.08775,1.5165e-09,-5.15057e-18,1.0
59469641,2.27563,1.06346e-11,3.27252e-20,1.0
59573461,0.290497,-6.1123e-11,-7.76919e-21,1.0
59673465,-0.104259,1.51826e-11,-1.83622e-21,1.0
59773486,-0.0134245,3.90789e-12,-2.96598e-22,1.0
59877513,0.00833976,-1.33021e-12,1.43438e-23,1.0
59977484,-0.00161257,1.89469e-13,-4.21467e-25,1.0
60081464,0.000152643,-2.00892e-14,-2.93656e-27,1.0
60180359,-1.56715e-05,9.96994e-16,-8.92193e-30,1.0
60284374,-1.85542e-06,5.15983e-16,-7.39213e-31,1.0
60385484,1.92372e-06,-1.86207e-16,-4.7393e-31,1.0
60485450,2.02466e-08,-2.63005e-17,-2.2899e-35,1.0
60585461,-7.89272e-08,1.38486e-17,-1.05694e-33,1.0
60689467,1.93565e-08,-2.52406e-18,-5.43086e-36,1.0
60789502,-1.70201e-09,2.43812e-19,-3.50656e-37,1.0
60893467,0.0,0.0,0.0,1.0
60993466,0.0,0.0,-0.0267203,1.0
61093539,0.0,0.0,-0.191764,1.0
61197464,0.0,0.0,-0.260301,1.0
61297487,0.0,0.0,-0.306969,1.0
61397512,0.0,0.0,-0.526362,1.0
61501629,0.0,0.0,-0.77014,1.0
61601512,0.0,0.0,-0.849883,1.0
61705485,0.0,0.0,-0.704056,1.0
61805471,0.0,0.0,-0.644659,1.0
61905783,0.0,0.0,-0.659627,1.0
62009507,0.0,0.0,-0.658078,1.0
62109723,0.0,0.0,-0.657899,1.0
62208272,0.0,0.0,-0.658002,1.0
62312251,0.0,0.0,-0.657983,1.0
62416265,0.0,0.0,-0.657984,1.0
62517611,0.0,0.0,-0.649151,1.0
62617490,0.0,0.0,-0.593003,1.0
62717678,0.0,0.0,-0.547416,1.0
62821625,0.0,0.0,-0.512405,1.0
62921464,0.0,0.0,-0.512413,1.0
63021501,0.0,0.0,-0.537223,1.0
63125457,0.0,0.0,-0.540219,1.0
63225479,0.0,0.0,-0.540579,1.0
63326578,0.0,0.0,-0.540509,1.0
63426625,0.0,0.0,-0.540513,1.0
63530497,0.0,0.0,-0.540515,1.0
63633468,0.0,0.0,-0.540514,1.0
63733526,0.0,0.0,-0.540514,1.0
63833584,0.0,0.0,-0.540514,1.0
63937500,0.0,0.0,-0.540514,1.0
64037452,0.0,0.0,-0.540514,1.0
64141622,0.0,0.0,-0.540514,1.0
64242466,0.0,0.0,-0.540514,1.0
64341510,0.0,0.0,-0.540514,1.0
64441152,0.0,0.0,-0.540514,1.0
64544378,0.0,0.0,-0.540514,1.0
64645581,0.0,0.0,-0.540514,1.0
64749468,0.0,0.0,-0.540514,1.0
64849499,0.0,0.0,-0.540514,1.0
64953463,0.0,0.0,-0.540514,1.0
65053486,0.0,0.0,-0.540514,1.0
65154537,0.0,0.0,-0.540514,1.0
65257485,0.0,0.0,-0.540514,1.0
65357463,0.0,0.0,-0.540514,1.0
65458505,0.0,0.0,-0.540514,1.0
65562502,0.0,0.0,-0.540514,1.0
65661500,0.0,0.0,-0.540514,1.0
65761489,0.0,0.0,-0.540514,1.0
65866463,0.0,0.0,-0.540514,1.0
65966507,0.0,0.0,-0.540514,1.0
66069452,0.0,0.0,-0.540514,1.0
66169485,0.0,0.0,-0.540514,1.0
66269468,0.0,0.0,-0.540514,1.0
66374586,0.0,0.0,-0.540514,1.0
66472479,0.0,0.0,-0.540514,1.0
66576351,0.0,0.0,-0.540514,1.0
66677469,0.0,0.0,-0.540514,1.0
66777510,0.0,0.0,-0.540514,1.0
66881512,0.0,0.0,-0.540514,1.0
66981468,0.0,0.0,-0.540514,1.0
67081490,0.0,0.0,-0.540514,1.0
67185472,0.0,0.0,-0.540514,1.0
67285531,0.0,0.0,-0.540514,1.0
67389463,0.0,0.0,-0.540514,1.0
67489532,0.0,0.0,-0.540514,1.0
67589577,0.0,0.0,-0.538747,1.0
67693489,0.0,0.0,-0.533666,1.0
67793590,0.0,0.0,-0.53558,1.0
67893463,0.0,0.0,-0.536665,1.0
67997469,0.0,0.0,-0.53,0.991851
68097465,0.0,0.0,-0.506418,0.938766
68201465,0.0,0.0,-0.501856,0.883818
68301500,0.0,0.0,-0.502305,0.798917
68401538,0.0,0.0,-0.499385,0.736875
68500374,0.0,0.0,-0.50292,0.74191
68604312,0.0,0.0,-0.503993,0.742517
68708334,0.0,0.0,-0.503656,0.742014
68809545,0.0,0.0,-0.503695,0.741916
68909467,0.0,0.0,-0.503702,0.74184
69013488,0.0,0.0,-0.503696,0.742134
69113583,0.0,0.0,-0.503696,0.742107
69213523,0.0,0.0,-0.503696,0.741628
69317467,0.0,0.0,-0.503696,0.7418
69417471,0.0,0.0,-0.503696,0.741965
69518452,0.0,0.0,-0.503696,0.741854
69621467,0.0,0.0,-0.503696,0.742136
69721537,0.0,0.0,-0.503696,0.741625
69825514,0.0,0.0,-0.503696,0.742282
69925506,0.0,0.0,-0.503696,0.741997
70025622,0.0,0.0,-0.503696,0.741535
70125625,0.0,0.0,-0.503696,0.741795
70230461,0.0,0.0,-0.503696,0.742171
70330454,0.0,0.0,-0.503696,0.741903
70434465,0.0,0.0,-0.503696,0.742142
70534468,0.0,0.0,-0.503696,0.742596
70637471,0.0,0.0,-0.503696,0.742419
70736305,0.0,0.0,-0.503696,0.741915
70840445,0.0,0.0,-0.503696,0.741745
70941459,0.0,0.0,-0.503696,0.741967
71041492,0.0,0.0,-0.503696,0.742249
71141468,0.0,0.0,-0.503696,0.741942
71246469,0.0,0.0,-0.503696,0.74174
71345452,0.0,0.0,-0.503696,0.742283
71449491,0.0,0.0,-0.503696,0.742202
71549452,0.0,0.0,-0.503696,0.74208
71649525,0.0,0.0,-0.503696,0.741911
71749492,0.0,0.0,-0.503696,0.742047
71854473,0.0,0.0,-0.503696,0.742113
71954468,0.0,0.0,-0.503696,0.742107
72057473,0.0,0.0,-0.503696,0.741628
72157499,0.0,0.0,-0.503696,0.7418
72261466,0.0,0.0,-0.503696,0.742168
72361552,0.0,0.0,-0.503696,0.742108
72461621,0.0,0.0,-0.503696,0.742109
72560390,0.0,0.0,-0.503696,0.742111
72664581,0.0,0.0,-0.503696,0.74211
72768377,0.0,0.0,-0.503696,0.74211
72869473,0.0,0.0,-0.503696,0.74211
72969463,0.0,0.0,-0.503696,0.74211
73073687,0.0,0.0,-0.503696,0.74211
73173478,0.0,0.0,-0.503696,0.74211
73273537,0.0,0.0,-0.503696,0.741907
73373463,0.0,0.0,-0.503696,0.742251
73477548,0.0,0.0,-0.503696,0.742198
73577452,0.0,0.0,-0.503696,0.742083
73681500,0.0,0.0,-0.503696,0.742114
73782504,0.0,0.0,-0.503696,0.741907
73885503,0.0,0.0,-0.503696,0.742251
73985465,0.0,0.0,-0.503696,0.741994
74086462,0.0,0.0,-0.503696,0.74202
74189467,0.0,0.0,-0.503696,0.742138
74289468,0.0,0.0,-0.503696,0.741624
74389497,0.0,0.0,-0.503696,0.741799
74493468,0.0,0.0,-0.503696,0.742169
74593491,0.0,0.0,-0.503696,0.742108
74697465,0.0,0.0,-0.503696,0.742592
74796369,0.0,0.0,-0.503696,0.742143
74900379,0.0,0.0,-0.503696,0.74188
75001503,0.0,0.0,-0.503696,0.742053
75101475,0.0,0.0,-0.503696,0.741651
75202471,0.0,0.0,-0.503696,0.742075
75305476,0.0,0.0,-0.503696,0.742341
75405592,0.0,0.0,-0.503696,0.742168
75505497,0.0,0.0,-0.503696,0.742087
75609467,0.0,0.0,-0.503696,0.742114
75709542,0.0,0.0,-0.503696,0.741907
75813466,0.0,0.0,-0.503696,0.741768
75913498,0.0,0.0,-0.503696,0.742166
76013468,0.0,0.0,-0.503696,0.742109
76117497,0.0,0.0,-0.503696,0.741905
76217466,0.0,0.0,-0.503696,0.742048
76317496,0.0,0.0,-0.503696,0.742134
76421523,0.0,0.0,-0.503696,0.742107
76521522,0.0,0.0,-0.503696,0.741832
76625512,0.0,0.0,-0.503696,0.741938
76726471,0.0,0.0,-0.503696,0.74205
76828727,0.0,0.0,-0.503696,0.74165
76928812,0.0,0.0,-0.503696,0.742075
77030511,0.0,0.0,-0.503696,0.742137
77133462,0.0,0.0,-0.503696,0.741826
77234465,0.0,0.0,-0.503696,0.742625
77334470,0.0,0.0,-0.503696,0.741941
77437490,0.0,0.0,-0.503696,0.742019
77537464,0.0,0.0,-0.503696,0.74214
77638584,0.0,0.0,-0.503696,0.742106
77742468,0.0,0.0,-0.503696,0.741628
77841452,0.0,0.0,-0.503696,0.742079
77945484,0.0,0.0,-0.503696,0.741654
78045634,0.0,0.0,-0.503696,0.74159
78145547,0.0,0.0,-0.503696,0.742106
78249463,0.0,0.0,-0.503696,0.741649
78349567,0.0,0.0,-0.503696,0.741591
78449461,0.0,0.0,-0.503696,0.742106
78553509,0.0,0.0,-0.503696,0.741853
78654463,0.0,0.0,-0.503696,0.741933
78757499,0.0,0.0,-0.503696,0.74205
78857501,0.0,0.0,-0.503696,0.74165
78956639,0.0,0.0,-0.503696,0.742075
79060399,0.0,0.0,-0.503696,0.742137
79162472,0.0,0.0,-0.503696,0.742105
79262463,0.0,0.0,-0.503696,0.742109
79366465,0.0,0.0,-0.503696,0.742174
79466452,0.0,0.0,-0.503696,0.742087
79566524,0.0,0.0,-0.503696,0.742114
79670471,0.0,0.0,-0.503696,0.74211
79769576,0.0,0.0,-0.503696,0.74211
79873575,0.0,0.0,-0.503696,0.74211
79974466,0.0,0.0,-0.503696,0.74211
80074465,0.0,0.0,-0.503696,0.741565
80177470,0.0,0.0,-0.503696,0.741823
80277523,0.0,0.0,-0.503696,0.741961
80381500,0.0,0.0,-0.503696,0.742044
80481482,0.0,0.0,-0.503696,0.742137
80581539,0.0,0.0,-0.503696,0.742114
80685617,0.0,0.0,-0.503696,0.742109
80785566,0.0,0.0,-0.503696,0.741628
80886455,0.0,0.0,-0.503696,0.742078
80990474,0.0,0.0,-0.503696,0.741858
81088390,0.0,0.0,-0.503696,0.742046
81192411,0.0,0.0,-0.503696,0.742133
81293463,0.0,0.0,-0.503696,0.741828
81393686,0.0,0.0,-0.503696,0.741938
81497498,0.0,0.0,-0.503696,0.742138
81597455,0.0,0.0,-0.503696,0.74191
81698465,0.0,0.0,-0.503696,0.741828
81801533,0.0,0.0,-0.503696,0.742142
81902466,0.0,0.0,-0.503696,0.742113
82005610,0.0,0.0,-0.503696,0.742387
82105565,0.0,0.0,-0.503696,0.741801
82206475,0.0,0.0,-0.503696,0.742342
82309494,0.0,0.0,-0.503696,0.742394
82410455,0.0,0.0,-0.503696,0.742077
82510466,0.0,0.0,-0.503696,0.741625
82613475,0.0,0.0,-0.503696,0.74208
82713720,0.0,0.0,-0.503696,0.74234
82813528,0.0,0.0,-0.503696,0.741964
82918609,0.0,0.0,-0.503696,0.742024
83018462,0.0,0.0,-0.503696,0.742342
83116527,0.0,0.0,-0.503696,0.74217
83220476,0.0,0.0,-0.503696,0.742086
83324426,0.0,0.0,-0.503696,0.742114
83425497,0.0,0.0,-0.503696,0.74211
83525468,0.0,0.0,-0.503696,0.741907
83625523,0.0,0.0,-0.503696,0.742047
83730469,0.0,0.0,-0.503696,0.742338
83830452,0.0,0.0,-0.503696,0.74217
83930592,0.0,0.0,-0.503696,0.742087
84033468,0.0,0.0,-0.503696,0.742114
84134480,0.0,0.0,-0.503696,0.742389
84237463,0.0,0.0,-0.503696,0.741596
84337640,0.0,0.0,-0.503696,0.741797
84437465,0.0,0.0,-0.503696,0.74217
84542463,0.0,0.0,-0.503696,0.742107
84641574,0.0,0.0,-0.503696,0.742109
84745630,0.0,0.0,-0.503696,0.742111
84846474,0.0,0.0,-0.503696,0.74211
84945469,0.0,0.0,-0.503696,0.74211
85050470,0.0,0.0,-0.503696,0.74211
85150468,0.0,0.0,-0.503696,0.742389
85249491,0.0,0.0,-0.503696,0.7418
85353669,0.0,0.0,-0.503696,0.742139
85456468,0.0,0.0,-0.503696,0.741911
85554499,0.0,0.0,-0.503696,0.741766
85658495,0.0,0.0,-0.503696,0.741962
85758463,0.0,0.0,-0.503696,0.724682
85862466,0.0,0.0,-0.503696,0.712734
85961453,0.0,0.0,-0.503696,0.713998
86062524,0.0,0.0,-0.503696,0.714054
86161513,0.0,0.0,-0.503696,0.714474
86268486,0.0,0.0,-0.503696,0.717469
86366476,0.0,0.0,-0.503696,0.718798
86470465,0.0,0.0,-0.503696,0.718871
86569492,0.0,0.0,-0.503696,0.718956
86670474,0.0,0.0,-0.503696,0.718932
86773496,0.0,0.0,-0.503696,0.718935
86873473,0.0,0.0,-0.503696,0.718935
86978506,0.0,0.0,-0.503696,0.718935
87078523,0.0,0.0,-0.503696,0.718935
87178461,0.0,0.0,-0.503696,0.718935
87282476,0.0,0.0,-0.503696,0.718935
87382457,0.0,0.0,-0.503696,0.718731
87486471,0.0,0.0,-0.503696,0.718593
87586611,0.0,0.0,-0.503696,0.718507
87686580,0.0,0.0,-0.503696,0.718419
87790471,0.0,0.0,-0.503696,0.718445
87890470,0.0,0.0,-0.503696,0.718925
87990475,0.0,0.0,-0.503696,0.718956
88093502,0.0,0.0,-0.503696,0.71893
88194479,0.0,0.0,-0.503696,0.718935
88298482,0.0,0.0,-0.503696,0.718935
88398472,0.0,0.0,-0.503696,0.718935
88498526,0.0,0.0,-0.503696,0.718731
88602471,0.0,0.0,-0.503696,0.718593
88702439,3.83972,0.0,0.0,0.718903
88800484,3.83972,0.0,0.0,0.718903
88904631,3.83972,0.0,0.0,0.718903
89008529,3.83972,0.0,0.0,0.718903
89110445,3.83972,0.0,0.0,0.718903
89210448,3.83972,0.0,0.0,0.718903
89310498,3.83972,0.0,0.0,0.718903
89414464,3.83972,0.0,0.0,0.718903
89514450,3.83972,0.0,0.0,0.718903
89614450,3.83972,0.0,0.0,0.718903
89718449,3.83972,0.0,0.0,0.718903
89818447,3.83972,0.0,0.0,0.718903
89922449,3.83972,0.0,0.0,0.718903
90023445,3.83972,0.0,0.0,0.718903
90121484,3.83972,0.0,0.0,0.718903
90226591,3.83972,0.0,0.0,0.718903
90325674,3.83972,0.0,0.0,0.718903
90426469,3.83972,0.0,0.0,0.718903
90530479,0.0,0.0,0.0,0.718451
90630467,0.0,0.0,0.0,0.718901
90734471,0.0,0.0,0.0,0.718962
90834473,0.0,0.0,0.0,0.718934
90932697,0.0,0.0,0.0,0.718729
91036567,0.0,0.0,0.0,0.718593
91138468,0.0,0.0,0.0,0.718758
91238619,0.0,0.0,0.0,0.718587
91342476,0.0,0.0,0.0,0.718787
91442480,0.0,0.0,0.0,0.718479
91546620,0.0,0.0,0.0,0.718897
91646470,0.0,0.0,0.0,0.718962
91746504,3.83972,0.0,0.0,0.718962
91850445,3.83972,0.0,0.0,0.718962
91950483,3.83972,0.0,0.0,0.718962
92050451,3.83972,0.0,0.0,0.718962
92154452,3.83972,0.0,0.0,0.718962
92254463,3.83972,0.0,0.0,0.718962
92354450,3.83972,0.0,0.0,0.718962
92458445,3.83972,0.0,0.0,0.718962
92558683,3.83972,0.0,0.0,0.718962
92662449,3.83972,0.0,0.0,0.718962
92762466,3.83972,0.0,0.0,0.718962
92862582,3.83972,0.0,0.0,0.718962
92966456,3.83972,0.0,0.0,0.718962
93064713,3.83972,0.0,0.0,0.718962
93168716,3.83972,0.0,0.0,0.718962
93270598,3.83972,0.0,0.0,0.718962
93370505,3.83972,0.0,0.0,0.718962
93474643,3.83972,0.0,0.0,0.718962
93574445,3.83972,0.0,0.0,0.718962
93674448,3.83972,0.0,0.0,0.718962
93778447,3.83972,0.0,0.0,0.718962
93878590,3.83972,0.0,0.0,0.718962
93982447,3.83972,0.0,0.0,0.718962
94082506,3.83972,0.0,0.0,0.718962
94182502,3.83972,0.0,0.0,0.718962
94286446,3.83972,0.0,0.0,0.718962
94386434,3.83972,0.0,0.0,0.718962
94486451,3.83972,0.0,0.0,0.718962
94590434,3.83972,0.0,0.0,0.718962
94690447,3.83972,0.0,0.0,0.718962
94794494,3.83972,0.0,0.0,0.718962
94894483,3.83972,0.0,0.0,0.718962
94994541,3.83972,0.0,0.0,0.718962
95098445,3.83972,0.0,0.0,0.718962
95196593,3.83972,0.0,0.0,0.718962
95300562,3.83972,0.0,0.0,0.718962
95402469,3.83972,0.0,0.0,0.718962
95502449,3.83972,0.0,0.0,0.718962
95606465,3.83972,0.0,0.0,0.718962
95706449,3.83972,0.0,0.0,0.718962
95806503,3.83972,0.0,0.0,0.718962
95910448,3.83972,0.0,0.0,0.718962
96010450,3.83972,0.0,0.0,0.718962
96110448,3.83972,0.0,0.0,0.718962
96214455,3.83972,0.0,0.0,0.718962
96314437,3.83972,0.0,0.0,0.718962
96418484,3.83972,0.0,0.0,0.718962
96518564,3.83972,0.0,0.0,0.718962
96618573,3.83972,0.0,0.0,0.718962
96722463,3.83972,0.0,0.0,0.718962
96822470,3.83972,0.0,0.0,0.718962
96922482,3.83972,0.0,0.0,0.718962
97026445,3.83972,0.0,0.0,0.718962
97126475,3.83972,0.0,0.0,0.718962
97230446,3.83972,0.0,0.0,0.718962
97328663,3.83972,0.0,0.0,0.718962
97433108,3.83972,0.0,0.0,0.718962
97534463,3.83972,0.0,0.0,0.718962
97634445,3.83972,0.0,0.0,0.718962
97734464,3.83972,0.0,0.0,0.718962
97838642,3.83972,0.0,0.0,0.718962
97938461,3.83972,0.0,0.0,0.718962
98038447,3.83972,0.0,0.0,0.718962
98142500,3.83972,0.0,0.0,0.718962
98243445,3.83972,0.0,0.0,0.718962
98346456,0.0,0.0,0.0,0.718479
98446505,0.0,0.0,0.0,0.718897
98546475,0.0,0.0,0.0,0.718962
98650467,0.0,0.0,0.0,0.718929
98750472,0.0,0.0,0.0,0.718935
98854468,0.0,0.0,0.0,0.718935
98954563,0.0,0.0,0.0,0.718935
99054531,-0.203128,0.0,0.0,0.718935
99158589,-1.0756,0.0,0.0,0.718935
99258474,-1.35465,0.0,0.0,0.718452
99356880,-1.32974,0.0,0.0,0.71842
99460625,-1.29318,0.0,0.0,0.71893
99564640,-1.26454,0.0,0.0,0.718956
99666467,-1.13581,0.0,0.0,0.718726
99766458,-0.332009,0.0,0.0,0.718593
99866585,0.0688056,0.0,0.0,0.718508
99970474,0.0234192,0.0,0.0,0.718619
100070514,-0.00140899,0.0,0.0,0.71896
100170592,0.000544193,0.0,0.0,0.71893
100274524,-8.47873e-05,-1.03848e-07,0.0300921,0.672935
100374473,7.61213e-07,5.58229e-09,0.0717851,0.593083
100478593,3.05654e-06,4.66206e-08,0.108586,0.298806
100578485,-5.69175e-07,-9.69816e-09,0.114958,0.08
100678528,-1.8743e-07,-3.19361e-09,0.114958,0.08
100782469,8.28054e-09,1.41092e-10,0.114958,0.08
100882458,-5.52943e-09,-9.42157e-11,0.114958,0.08
100982478,1.09294e-09,1.86226e-11,0.114958,0.08
101086476,0.0,0.0,0.114958,0.08
101186475,0.0,0.0,0.114958,0.08
101290482,0.0,0.0,0.114958,0.08
101390470,0.0,0.0,0.114958,0.08
101488728,0.0,0.0,0.114958,0.08
101592575,0.0,0.0,0.114958,0.08
101696609,0.0,0.0,0.114958,0.08
101794458,0.0,0.0,0.114958,0.08
101898543,0.0,0.0,0.114958,0.08
101998458,0.0,0.0,0.114958,0.08
102102490,0.0,0.0,0.114958,0.08
102202473,0.0,0.0,0.114958,0.08
102302604,0.0,0.0,0.114958,0.08
102406524,0.0,0.0,0.114958,0.08
102506473,0.0,0.0,0.114958,0.08
102606473,0.0,0.0,0.114958,0.08
102710483,0.0,0.0,0.114958,0.08
102811508,0.0,0.0,0.114958,0.08
102914473,0.0,0.0,0.114958,0.08
103014477,0.0,0.0,0.114958,0.08
103114611,0.0,0.0,0.114958,0.08
103218472,0.0,0.0,0.114958,0.08
103318475,0.0,0.0,0.114958,0.08
103418477,0.0,0.0,0.114958,0.08
103522542,0.0,0.0,0.114958,0.08
103620742,0.0,0.0,0.114958,0.08
103725327,0.0,0.0,0.114958,0.08
103826475,0.0,0.0,0.114958,0.08
103926515,0.0,0.0,0.114958,0.08
104030475,0.0,0.0,0.114958,0.08
104130596,0.0,0.0,0.114958,0.08
104231474,0.0,0.0,0.114958,0.08
104334470,0.0,0.0,0.114958,0.08
104434486,0.0,0.0,0.114958,0.08
104538473,0.0,0.0,0.114958,0.08
104638475,0.0,0.0,0.114958,0.08
104738649,0.0,0.0,0.114958,0.08
104838473,0.0,0.0,0.114958,0.08
104942510,0.0,0.0,0.114958,0.08
105043629,0.0,0.0,0.114958,0.08
105146473,0.0,0.0,0.114958,0.08
105246477,0.0,0.0,0.114958,0.08
105350476,0.0,0.0,0.114958,0.08
105450591,0.0,0.0,0.114958,0.08
105548686,0.0,0.0,0.114958,0.08
105653222,0.0,0.0,0.114958,0.08
105756736,0.0,0.0,0.114958,0.08
105854475,0.0,0.0,0.114958,0.08
105958480,0.0,0.0,0.114958,0.08
106058460,0.0,0.0,0.114958,0.08
106162513,0.0,0.0,0.114958,0.08
106262470,0.0,0.0,0.114958,0.08
106362525,0.0,0.0,0.114958,0.08
106466458,0.0,0.0,0.114958,0.08
106567500,0.0,0.0,0.114958,0.08
106666458,0.0,0.0,0.114958,0.08
106770662,0.0,0.0,0.114958,0.08
106870469,0.0,0.0,0.114958,0.08
106974469,0.0,0.0,0.114958,0.08
107074457,0.0,0.0,0.114958,0.08
107174593,0.0,0.0,0.114958,0.08
107278465,0.0,0.0,0.114958,0.08
107378457,0.0,0.0,0.114958,0.08
107478458,0.0,0.0,0.114958,0.08
107582477,0.0,0.0,0.114958,0.08
107680704,0.0,0.0,0.114958,0.08
107784632,0.0,0.0,0.114958,0.08
107886477,0.0,0.0,0.114958,0.08
107986515,0.0,0.0,0.114958,0.08
108090698,0.0,0.0,0.114958,0.08
108191473,0.0,0.0,0.114958,0.08
108290523,0.0,0.0,0.114958,0.08
108394478,0.0,0.0,0.114958,0.08
108494476,0.0,0.0,0.114958,0.08
108598458,0.0,0.0,0.114958,0.08
108698514,0.0,0.0,0.114958,0.08
108798527,0.0,0.0,0.114958,0.08
108902472,0.0,0.0,0.114958,0.08
109002483,0.0,0.0,0.114958,0.08
109102619,0.0,0.0,0.114958,0.08
109206470,0.0,0.0,0.0541586,0.0
109306513,0.0,0.0,0.0541586,0.0
109410655,0.0,0.0,0.0541586,0.0
109510469,0.0,0.0,0.0541586,0.0
109610581,0.0,0.0,0.0541586,0.0
109714471,0.0,0.0,0.0541586,0.0
109812753,0.0,0.0,0.0541586,0.0
109916998,0.0,0.0,0.0541586,0.0
110018527,0.0,0.0,0.0541586,0.0
110118470,0.0,0.0,0.0541586,0.0
110222469,0.0,0.0,0.0541586,0.0
110322468,0.0,0.0,0.0541586,0.0
110422646,0.0,0.0,0.0541586,0.0
110526518,0.0,0.0,0.0541586,0.0
110627474,0.0,0.0,0.0541586,0.0
110726458,0.0,0.0,0.0541586,0.0
110830473,0.0,0.0,0.0541586,0.0
110930486,0.0,0.0,0.0541586,0.0
111034470,0.0,0.0,0.0541586,0.0
111134470,0.0,0.0,0.0541586,0.0
111234560,0.0,0.0,0.0541586,0.0
111338513,0.0,0.0,0.0541586,0.0
111438458,0.0,0.0,0.0541586,0.0
111538471,0.0,0.0,0.0541586,0.0
111642474,0.0,0.0,0.0541586,0.0
111742588,0.0,0.0,0.0541586,0.0
111846458,0.0,0.0,0.0541586,0.0
111944762,0.0,0.0,0.0541586,0.0
112048730,0.0,0.0,0.0541586,0.0
112150469,0.0,0.0,0.0541586,0.0
112250468,0.0,0.0,0.0541586,0.0
112350514,0.0,0.0,0.0541586,0.0
112454510,0.0,0.0,0.0541586,0.0
112554510,0.0,0.0,0.0541586,0.0
112658509,0.0,0.0,0.0541586,0.0
112758468,0.0,0.0,0.0541586,0.0
112858524,0.0,0.0,0.0541586,0.0
112962469,0.0,0.0,0.0541586,0.0
113062584,0.0,0.0,0.0541586,0.0
113162530,0.0,0.0,0.0541586,0.0
113266467,0.0,0.0,0.0541586,0.0
113366469,0.0,0.0,0.0541586,0.0
113470468,0.0,0.0,0.0541586,0.0
113570470,0.0,0.0,0.0541586,0.0
113670656,0.0,0.0,0.0541586,0.0
113774473,0.0,0.0,0.0541586,0.0330026
113874658,0.0,0.0,3.14434e-16,0.238234
113972949,0.0,0.0,8.30598e-17,0.370154
114076788,0.0,0.0,8.39937e-17,0.481265
114180855,0.0,0.0,9.22538e-17,0.473041
114282608,0.0,0.0,9.01109e-17,0.46955
114382594,0.0,0.0,0.0164511,0.467726
114482732,0.0,0.0,0.105792,0.467346
114586458,0.0,0.0,0.144575,0.467473
114686468,0.255268,0.00762066,0.152927,0.467938
114786472,1.78573,-0.117285,0.13713,0.467487
114890475,2.32858,-0.280695,0.126684,0.467429
114990483,2.13075,-0.00932886,0.125193,0.467461
115094471,0.975684,0.0588753,0.130223,0.467455
115194458,-0.104778,-0.00672715,0.139447,0.467456
115294534,-0.0499008,-0.00211224,0.150402,0.467456
115398461,-0.249352,-0.00989871,0.153686,0.467938
115498470,-0.493415,-0.00783015,0.162277,0.467488
115598471,-1.82711,0.192792,0.169915,0.467429
115702603,-2.74862,0.183164,0.202648,0.467461
115802473,-2.23598,-0.0608247,0.237615,0.467455
115906522,-0.822595,-0.0700729,0.272777,0.467938
116006461,0.0164558,0.00355939,0.299188,0.467488
116106530,0.0168367,0.0014156,0.320284,0.467429
116208832,0.00684447,-0.139194,0.343278,0.467461
116312716,0.196817,-1.38267,0.367073,0.467455
116410528,0.484554,-2.61874,0.384472,0.467456
116514475,0.4257,-2.86997,0.404518,0.467456
116614503,0.290356,-2.68932,0.431797,0.467456
116718474,0.17605,-1.49926,0.45983,0.467456
116818474,-0.00459325,0.0449477,0.456072,0.467456
116918590,-0.00475108,0.0368894,0.444669,0.467456
117022590,-0.0677582,-0.0197623,0.446148,0.467456
117122468,-0.00474737,0.000852457,0.445621,0.467456
117222472,0.00380865,0.000542246,0.447388,0.467456
117326475,-0.000789371,-0.000171436,0.451849,0.467456
117426469,0.222535,0.0283873,0.464244,0.467456
117530460,1.84334,0.239004,0.468055,0.467456
117630474,2.81458,0.368909,0.461901,0.467456
117730534,2.43025,0.320497,0.462313,0.467456
117834517,1.11825,0.148056,0.47131,0.467456
117934520,0.234118,0.0310851,0.471973,0.467456
118034591,0.0109544,0.00145456,0.470729,0.467456
118138465,-0.00548758,-0.000728597,0.470982,0.467456
118240982,0.000979729,0.000130209,0.473829,0.467456
118342591,-3.94962e-05,-5.27164e-06,0.477132,0.467456
118442470,-2.74869e-05,-3.68445e-06,0.478133,0.467456
118543565,8.5255e-06,1.14441e-06,0.475924,0.467456
118646473,-1.12077e-06,-1.50415e-07,0.475917,0.467456
118746477,-4.10665e-08,-5.09578e-09,0.313908,0.467456
118847471,5.37372e-08,4.38153e-09,-0.235869,0.467456
118950474,-1.21624e-08,2.98658e-10,-0.853208,0.466286
119050506,1.02567e-09,-1.46023e-10,-1.11839,0.466363
119154458,0.0,0.0,-1.12731,0.466504
119254516,0.0,0.0,-1.05496,0.465982
119354708,0.0,0.0,-1.03716,0.465955
119458458,0.0,0.0,-0.995677,0.466464
119558470,0.0,0.0,-0.985979,0.46649
119658461,0.0,0.0,-0.988669,0.466261
119762477,0.0,0.0,-0.988327,0.466128
119862472,0.0,0.0,-0.988299,0.466525
119966473,0.0,0.0,-0.988319,0.466265
120066470,0.0,0.0,-0.988315,0.465643
120164815,0.0,0.0,-0.988315,0.466493
120268774,0.0,0.0,-0.988315,0.466495
120372765,0.677041,-0.192645,-0.986865,0.466462
120470471,1.74067,-0.495289,-0.978691,0.46647
120574478,1.64883,-0.469156,-0.979684,0.466469
120674588,1.17034,-0.333007,-0.983976,0.466469
120778462,-0.0752685,0.0214168,-0.988297,0.466266
120878461,-0.00286374,0.000812802,-0.965936,0.465924
120978531,0.00363249,-0.000970879,-0.694144,0.4657
121082469,-0.000827941,0.00016873,-0.183924,0.466492
121182474,7.09499e-05,-7.64635e-06,0.182992,0.466493
121282470,7.61675e-05,-3.13081e-06,0.335049,0.466463
121386542,-9.68071e-06,1.24328e-07,0.0386138,0.466264
121486469,1.07717e-06,-1.78787e-08,-0.063683,0.466438
121586458,-3.10324e-08,5.14544e-10,-0.056959,0.466292
121690469,-3.33872e-08,5.48924e-10,-0.0590587,0.466122
121790586,9.70634e-09,-1.59935e-10,-0.0587808,0.466525
121894519,1.90769e-09,-3.14255e-11,-0.0587427,0.466497
121994599,-8.15403e-10,1.34319e-11,-0.0587829,0.466464
122094518,0.0,0.0,-0.0587811,0.46647
122198515,0.0,0.0,-0.0587803,0.466266
122296761,0.487695,-0.00803378,-0.058739,0.465645
122400867,3.44801,-0.0519649,-0.0566746,0.466493
122502475,3.83972,-0.0176605,-0.0560598,0.466551
122602515,3.20157,0.00766918,-0.0569699,0.466463
122706472,1.36558,-0.0328399,-0.058455,0.466468
122806470,0.0968091,-0.0012915,-0.0587787,0.46647
122906479,0.115869,-0.00199149,-0.058778,0.465644
123010483,2.18365,-0.0359893,-0.057945,0.466289
123110461,3.34414,-0.0550765,-0.0568017,0.466069
123214461,3.42034,-0.0563425,-0.0567088,0.466227
123314594,2.807,-0.0462402,-0.0573934,0.466152
123414530,2.3488,-0.0386916,-0.0578127,0.46652
123518470,0.817523,-0.013467,-0.058664,0.466469
123618476,-0.0582578,0.00095968,-0.0587798,0.46647
123718471,-0.0144349,0.000237786,-0.0587803,0.46647
123823500,0.00507099,-8.35344e-05,-0.0587804,0.466469
123922475,-0.041582,0.000684979,-0.0587801,0.466469
124026477,-0.669859,0.0110346,-0.0587022,0.465987
124126475,-1.31756,0.021704,-0.0584776,0.466438
124226583,-1.47924,0.0243674,-0.0583985,0.466496
124330476,-0.69576,0.0114612,-0.0586961,0.466464
124429003,0.0290115,-0.000477905,-0.0587802,0.46647
124532822,0.0122527,-0.000201839,-0.0587803,0.46647
124634599,-0.00423785,6.981e-05,-0.0587803,0.466469
124734471,0.000611179,-1.00679e-05,-0.0587804,0.466469
124838471,6.59508e-06,-1.0864e-07,-0.0587804,0.466469
124938461,-2.51172e-05,4.13755e-07,-0.0587804,0.466469
125038572,6.15404e-06,-1.01375e-07,-0.0587804,0.466469
125142461,0.375338,-0.00618293,-0.0587559,0.466469
125242457,0.984251,-0.0162135,-0.0586116,0.466469
125342473,0.810485,-0.0133511,-0.058666,0.466266
125446478,0.148054,-0.00243889,-0.0587765,0.466127
125546470,-0.0229012,0.000377251,-0.0587803,0.466525
125650474,0.000805661,-1.32716e-05,-0.0587804,0.466469
125750470,0.000672611,-1.10799e-05,-0.0587804,0.466468
125851504,-0.471944,0.00777432,-0.0587416,0.46647
125954589,-0.893578,0.0147199,-0.0586413,0.466469
126054474,-0.359147,0.00591621,-0.0587579,0.466469
126154472,0.0492658,-0.000811555,-0.05878,0.466469
126258477,0.00120599,-1.98662e-05,-0.0587804,0.466266
126358512,-0.0587002,0.000966966,-0.0587798,0.465645
126457538,-0.129727,0.00213699,-0.0587774,0.466289
126560988,0.00155331,-2.55877e-05,-0.0587804,0.466153
126664877,0.0042582,-7.01452e-05,-0.0587803,0.466517
126766470,-0.00114575,1.88738e-05,-0.0587804,0.466469
126866475,-0.0989554,0.00163009,-0.0587787,0.466468
126966591,-0.160214,0.0026392,-0.0587759,0.465987
127070462,-0.138252,0.00227741,-0.058777,0.466437
127170501,-0.110608,0.00182203,-0.0587782,0.466496
127274593,-0.0879922,0.00144949,-0.058779,0.466185
127374473,-0.071379,0.00117582,-0.0587795,0.497874
127474531,-0.0483549,0.000796549,-0.05878,0.516976
127578475,0.00348785,-5.74552e-05,-0.0587804,0.515004
127674471,0.00096443,-1.5887e-05,-0.0587804,0.514695
127778460,-0.000379745,6.25553e-06,-0.0587804,0.514606
127882481,5.98859e-05,-9.86499e-07,-0.0587804,0.513764
127982469,0.142944,-0.00235471,-0.0587768,0.513787
128086470,0.903378,-0.0148813,-0.0586382,0.513813
128186475,0.919047,-0.0151394,-0.0586333,0.513806
128284848,0.120254,-0.00198094,-0.0587778,0.514772
128388843,-0.0454295,0.000748359,-0.05878,0.513667
128490471,0.00697717,-0.000114935,-0.0587804,0.512929
128590469,-0.0310778,0.000511943,-0.0587802,0.513841
128694474,-0.6249,0.0102939,-0.0587124,0.513832
128794486,-0.873439,0.0143881,-0.0586475,0.513799
128898471,-0.108269,0.00178352,-0.0587783,0.513808
128998469,0.0435394,-0.000717223,-0.05878,0.513324
129098584,-0.00695459,0.000114563,-0.0587804,0.513775
129202458,0.000104514,-1.72166e-06,-0.0587804,0.513833
129302476,0.000240006,-3.9536e-06,-0.0587804,0.513318
129402478,-6.52283e-05,1.0745e-06,-0.0587804,0.513775
129506498,7.43579e-06,-1.2249e-07,-0.0587804,0.513351
129606595,6.04373e-07,-9.95581e-09,-0.0587804,0.513769
129707589,-4.3928e-07,7.23625e-09,-0.0587804,0.513834
129810461,8.88782e-08,-1.46409e-09,-0.0587804,0.513597
129910576,-5.82746e-09,9.59955e-11,-0.0587804,0.512778
130014473,-1.92145e-09,3.1652e-11,-0.0587804,0.513005
130114480,7.13573e-10,-1.17547e-11,-0.0587804,0.513373
130214464,0.0,0.0,-0.0587804,0.513793
130318482,0.0,0.0,-0.0587804,0.513827
130417036,0.0,0.0,-0.0587804,0.513802
130521091,0.0,0.0,-0.0587804,0.513807
130622470,0.0,0.0,-0.0587804,0.513807
130722526,0.0,0.0,-0.0587804,0.51312
130826460,0.0,0.0,-0.0587804,0.51295
130926616,0.0,0.0,-0.0587804,0.513857
131026469,0.0,0.0,-0.0587804,0.513684
131130471,0.0,0.0,-0.0587804,0.512943
131230457,0.0,0.0,-0.0587804,0.513858
131334471,0.0,0.0,-0.0587804,0.513827
131434470,0.0,0.0,-0.0587804,0.5138
131534640,0.0,0.0,-0.0587804,0.513808
131638522,0.0,0.0,-0.0587804,0.513807
131738457,0.0,0.0,-0.0587804,0.513807
131838470,0.0,0.0,-0.0587804,0.513807
131942474,0.0,0.0,-0.0587804,0.513807
132042475,0.0,0.0,-0.0587804,0.513807
132146473,0.0,0.0,-0.0587804,0.513807
132246613,0.0,0.0,-0.0587804,0.513807
132346529,0.0,0.0,-0.0587804,0.513807
132450486,0.0,0.0,-0.0587804,0.513807
132548874,0.0,0.0,-0.0587804,0.513603
132653303,0.0,0.0,-0.0587804,0.513465
132754496,0.0,0.0,-0.0587804,0.513379
132854488,0.0,0.0,-0.0587804,0.513491
132958507,0.0,0.0,-0.0587804,0.513653
133058510,0.0,0.0,-0.0587804,0.513464
133158570,0.0,0.0,-0.0587804,0.51386
133262469,0.0,0.0,-0.0587804,0.513801
133362473,0.0,0.0,-0.0587804,0.513807
133462472,0.0,0.0,-0.0587804,0.513807
133566592,0.0,0.0,-0.0587804,0.513324
133666469,0.0,0.0,-0.0587804,0.513292
133770489,0.0,0.0,-0.0587804,0.513801
133870474,0.0,0.0,-0.0587804,0.513345
133970584,0.0,0.0,-0.0587804,0.513861
134074486,0.0,0.0,-0.0587804,0.513834
134170469,0.0,0.0,-0.0587804,0.513801
134274606,0.0,0.0,-0.0587804,0.513807
134378481,0.0,0.0,-0.0587804,0.513807
134478719,0.0,0.0,-0.0587804,0.513324
134582463,0.0,0.0,-0.0587804,0.513775
134680977,0.0,0.0,-0.0587804,0.512943
134784899,0.00939451,-0.000154755,-0.0587803,0.512398
134886746,0.0126574,-0.000208504,-0.0587803,0.512401
134986468,0.137934,-0.00227217,-0.0587771,0.512789
135086460,1.03363,-0.0170269,-0.0585942,0.512845
135190460,2.7061,-0.0445775,-0.0574924,0.512816
135290457,3.31232,-0.0545638,-0.0568398,0.512821
135394508,2.92929,-0.048254,-0.0572683,0.512821
135494475,1.51637,-0.0249791,-0.058379,0.51282
135594515,0.394196,-0.00649357,-0.0587533,0.512338
135698474,0.236697,-0.0038991,-0.0587706,0.512102
135798472,0.930341,-0.0153255,-0.0586296,0.512473
135898592,0.819891,-0.013506,-0.0586633,0.512693
136002463,0.178535,-0.002941,-0.0587748,0.512472
136102512,-0.0267277,0.000440285,-0.0587802,0.512874
136206596,1.07738,-0.0984913,-0.0585765,0.512134
136306488,3.83972,-0.188571,-0.0560598,0.511758
136406592,3.77092,0.00594725,-0.0562531,0.512529
136510527,0.868726,-0.0127918,-0.058649,0.512896
136610510,-0.518534,0.00550698,-0.0587336,0.512813
136709211,1.51129,-0.0241811,-0.0583817,0.512337
136812940,2.97121,-0.0490103,-0.0572241,0.512306
136914492,-1.17204,0.0192965,-0.0585409,0.512815
137018485,-0.220318,0.00363453,-0.0587719,0.512638
137118464,0.0590273,-0.000973285,-0.0587797,0.51199
137218659,-0.0126867,0.000209024,-0.0587803,0.511215
137322472,0.000972791,-1.59984e-05,-0.0587804,0.433218
137422473,0.000238315,-3.93387e-06,-0.0587804,0.08
137522472,-9.80901e-05,1.6169e-06,-0.0587804,0.08
137626493,1.5883e-05,-2.616e-07,-0.0587804,0.08
137726470,-2.90313e-07,4.73127e-09,-0.0587804,0.08
137830525,-5.34962e-07,8.82388e-09,-0.0587804,0.08
137930469,1.4759e-07,-2.43222e-09,-0.0587804,0.08
138030525,-1.7135e-08,2.82072e-10,-0.0587804,0.08
138134461,-1.28835e-09,2.13093e-11,-0.0587804,0.08
138234477,9.85657e-10,-1.62513e-11,-0.0587804,0.08
138334471,0.0,0.0,-0.0587804,0.08
138438516,0.0,0.0,-0.0587804,0.08
138538643,0.0,0.0,-0.0587804,0.08
138642469,0.0,0.0,-0.0587804,0.08
138741134,0.0,0.0,-0.0587804,0.08
138844988,0.0,0.0,-0.0587804,0.08
138946469,0.0,0.0,-0.0587804,0.08
139046510,0.0,0.0,-0.0587804,0.08
139146511,0.0,0.0,-0.0587804,0.08
139250477,0.0,0.0,-0.0587804,0.08
139350468,0.0,0.0,-0.0587804,0.08
139454460,0.0,0.0,-0.0587804,0.08
139554484,0.0,0.0,-0.0587804,0.08
139654529,0.0,0.0,-0.0587804,0.08
139758520,0.0,0.0,-0.0587804,0.08
139858590,0.0,0.0,-0.0587804,0.08
139958472,0.0,0.0,-0.0587804,0.08
140062521,0.0,0.0,-0.0587804,0.08
140162489,0.0,0.0,-0.0587804,0.08
140266472,0.0,0.0,-0.0587804,0.08
140366515,0.0,0.0,-0.0587804,0.08
140466648,0.0,0.0,-0.0587804,0.08
140570520,0.0,0.0,-0.0587804,0.08
140670460,0.0,0.0,-0.0587804,0.08
140768998,0.0,0.0,-0.0587804,0.08
140873510,0.0,0.0,-0.0587804,0.08
140977126,0.0,0.0,-0.0587804,0.08
141078515,0.0,0.0,-0.0587804,0.08
141178589,0.0,0.0,-0.0587804,0.08
141278583,0.0,0.0,-0.0587804,0.08
141382472,0.0,0.0,-0.0587804,0.08
141482461,0.0,0.0,-0.0587804,0.08
141582470,0.0,0.0,-0.0587804,0.08
141686519,0.0,0.0,-0.0587804,0.08
141786470,0.0,0.0,-0.0587804,0.08
141890472,0.0,0.0,-0.0587804,0.08
141990471,0.0,0.0,-0.0587804,0.08
142090524,0.0,0.0,-0.0587804,0.08
142194470,0.0,0.0,-0.0587804,0.08
142294511,0.0,0.0,-0.0587804,0.08
142394473,0.0,0.0,-0.0587804,0.08
142499476,0.0,0.0,-0.0587804,0.08
142598522,0.0,0.0,-0.0587804,0.08
142702471,0.0,0.0,-0.0587804,0.08
142802470,0.0,0.0,-0.0587804,0.08
142901015,0.0,0.0,-0.0587804,0.08
143005254,0.0,0.0,-0.0587804,0.08
143106471,0.0,0.0,-0.0587804,0.08
143206464,0.0,0.0,-0.0587804,0.08
143310478,0.0,0.0,-0.0587804,0.08
143411619,0.0,0.0,-0.0587804,0.08
143510657,0.0,0.0,-0.0587804,0.08
143614521,0.0,0.0,-0.0587804,0.08
143716485,0.0,0.0,-0.0587804,0.08
143818596,0.0,0.0,-0.0587804,0.08
143918476,0.0,0.0,-0.0587804,0.08
144018476,0.0,0.0,-0.0587804,0.08
144122491,0.0,0.0,-0.0587804,0.08
144222525,0.0,0.0,-0.0587804,0.08
144326460,0.0,0.0,-0.0587804,0.08
144422471,0.0,0.0,-0.0587804,0.08
144527473,0.0,0.0,-0.0587804,0.08
144630473,0.0,0.0,-0.0587804,0.08
144730476,0.0,0.0,-0.0587804,0.08
144829223,0.0,0.0,-0.0587804,0.08
144934468,0.0,0.0,-0.0587804,0.08
145033258,0.0,0.0,-0.0587804,0.08
145137182,0.0,0.0,-0.0587804,0.08
145238468,0.0,0.0,-0.0587804,0.08
145338531,0.0,0.0,-0.0587804,0.08
145442469,0.0,0.0,-0.0587804,0.08
145543507,0.0,0.0,-0.0587804,0.08
145642472,0.0,0.0,-0.0587804,0.08
145746479,0.0,0.0,-0.0587804,0.08
145846462,0.0,0.0,-0.0587804,0.08
145950470,0.0,0.0,-0.0587804,0.08
146050468,0.0,0.0,0.0,0.0
146150760,0.0,0.0,0.0,0.0
146254468,0.0,0.0,0.0,0.0
146354468,0.0,0.0,0.0,0.0
146454468,0.0,0.0,0.0,0.0
146558473,0.0,0.0,0.0,0.0
146658471,0.0,0.0,0.0,0.0
146762517,0.0,0.0,0.0,0.0
146862467,0.0,0.0,0.0,0.0
146962517,0.0,0.0,0.0,0.0
147066468,0.0,0.0,0.0,0.0
147165125,0.0,0.0,0.0,0.0
147269093,0.0,0.0,0.0,0.0
147370474,0.0,0.0,0.0,0.0
147470585,0.0,0.0,0.0,0.0
147574456,0.0,0.0,0.0,0.0
147674466,0.0,0.0,0.0,0.0
147774556,0.0,0.0,0.0,0.0
147878473,0.0,0.0,0.0,0.0
147978512,0.0,0.0,0.0,0.0
148078527,0.0,0.0,0.0,0.0
148182473,0.0,0.0,0.0,0.0
148283467,0.0,0.0,0.0,0.0
148386473,0.0,0.0,0.0,0.0
148486455,0.0,0.0,0.0,0.0
148586576,0.0,0.0,0.0,0.0
148690458,0.0,0.0,0.0,0.0
148790586,0.0,0.0,0.0,0.0
148890467,0.0,0.0,0.0,0.0
148994463,0.0,0.0,0.0,0.0
149094462,0.0,0.0,0.0,0.0
149198472,0.0,0.0,0.0,0.0
149297376,0.0,0.0,0.0,0.0
149401141,0.0,0.0,0.0,0.0
149502472,0.0,0.0,0.0,0.0
149602506,0.0,0.0,0.0,0.0
149702471,0.0,0.0,0.0,0.0
149806479,0.0,0.0,0.0,0.0
149906459,0.0,0.0,0.0,0.0
150010468,0.0,0.0,0.0,0.0
150110595,0.0,0.0,0.0,0.0
150210528,0.0,0.0,0.0,0.0
150314472,0.0,0.0,0.0,0.0
150414458,0.0,0.0,0.0,0.0
150514474,0.0,0.0,0.0,0.0
150618469,0.0,0.0,0.0,0.0
150718455,0.0,0.0,0.0,0.0
150819517,0.0,0.0,0.0,0.0
150922458,0.0,0.0,0.0,0.0
151022581,0.0,0.0,0.0,0.0
151126525,0.0,0.0,0.0,0.0
151226470,0.0,0.0,0.0,0.0
151325165,0.0,0.0,0.0,0.0
151429314,0.0,0.0,0.0,0.0
151533049,0.0,0.0,0.0,0.0
151634522,0.0,0.0,0.0,0.0
151735492,0.0,0.0,0.0,0.0
151834513,0.0,0.0,0.0,0.0
151938469,0.0,0.0,0.0,0.0
152038469,0.0,0.0,0.0,0.0
152138472,0.0,0.0,0.0,0.0
152242514,0.0,0.0,0.0,0.0
152343591,0.0,0.0,0.0,0.0
152446469,0.0,0.0,0.0,0.0
152546456,0.0,0.0,0.0,0.0
152646513,0.0,0.0,0.0,0.0
152750640,0.0,0.0,0.0,0.0
152850471,0.0,0.0,0.0,0.0
152950456,0.0,0.0,0.0,0.0
153055493,0.0,0.0,0.0,0.0
153155505,0.0,0.0,0.0,0.0
153258468,0.0,0.0,0.0,0.0
153358462,0.0,0.0,0.0,0.0
153457227,0.0,0.0,0.0,0.0
153561188,0.0,0.0,0.0,0.0
153662470,0.0,0.0,0.0,0.0
153762586,0.0,0.0,0.0,0.0
153866460,0.0,0.0,0.0,0.0
153965311,0.0,0.0,0.0,0.0
154008667,0.0,0.0,0.0,0.0
154206940,0.0,0.0,0.0,0.0
154210015,0.0,0.0,0.0,0.0
154410338,0.0,0.0,0.0,0.0
154412903,0.0,0.0,0.0,0.0
154612942,0.0,0.0,0.0,0.0
154616678,0.0,0.0,0.0,0.0
154815823,0.0,0.0,0.0,0.0
154818834,0.0,0.0,0.0,0.0
155019193,0.0,0.0,0.0,0.0
155020905,0.0,0.0,0.0,0.0
155221945,0.0,0.0,0.0,0.0
155222993,0.0,0.0,0.0,0.0
155424982,0.0,0.0,0.0,0.0
155426335,0.0,0.0,0.0,0.0
155628134,0.0,0.0,0.0,0.0
155628945,0.0,0.0,0.0,0.0
155831040,0.0,0.0,0.0,0.0
155832303,0.0,0.0,0.0,0.0
156034181,0.0,0.0,0.0,0.0
156035421,0.0,0.0,0.0,0.0
156237029,0.0,0.0,0.0,0.0
156237881,0.0,0.0,0.0,0.0
156440381,0.0,0.0,0.0,0.0
156639901,0.0,0.0,0.0,0.0
156659090,0.0,0.0,0.0,0.0
156842491,0.0,0.0,0.0,0.0
156845914,0.0,0.0,0.0,0.0
157045749,0.0,0.0,0.0,0.0
157048244,0.0,0.0,0.0,0.0
157248869,0.0,0.0,0.0,0.0
157250958,0.0,0.0,0.0,0.0
157451880,0.0,0.0,0.0,0.0
157454386,0.0,0.0,0.0,0.0
157654888,0.0,0.0,0.0,0.0
157657025,0.0,0.0,0.0,0.0
157857700,0.0,0.0,0.0,0.0
157859756,0.0,0.0,0.0,0.0
158060636,0.0,0.0,0.0,0.0
158061992,0.0,0.0,0.0,0.0
158263882,0.0,0.0,0.0,0.0
158264866,0.0,0.0,0.0,0.0
158466919,0.0,0.0,0.0,0.0
158666278,0.0,0.0,0.0,0.0
158669283,0.0,0.0,0.0,0.0
158869399,0.0,0.0,0.0,0.0
158871897,0.0,0.0,0.0,0.0
159072197,0.0,0.0,0.0,0.0
159075128,0.0,0.0,0.0,0.0
159275414,0.0,0.0,0.0,0.0
159277986,0.0,0.0,0.0,0.0
159477960,0.0,0.0,0.0,0.0
159496753,0.0,0.0,0.0,0.0
159683406,0.0,0.0,0.0,0.0
159884072,0.0,0.0,0.0,0.0
159886215,0.0,0.0,0.0,0.0
160087222,0.0,0.0,0.0,0.0
160089002,0.0,0.0,0.0,0.0
160290044,0.0,0.0,0.0,0.0
160291752,0.0,0.0,0.0,0.0
160493001,0.0,0.0,0.0,0.0
160494313,0.0,0.0,0.0,0.0
160696385,0.0,0.0,0.0,0.0
160697181,0.0,0.0,0.0,0.0
160899300,0.0,0.0,0.0,0.0
160900116,0.0,0.0,0.0,0.0
161101988,0.0,0.0,0.0,0.0
161103301,0.0,0.0,0.0,0.0
161305332,0.0,0.0,0.0,0.0
161306182,0.0,0.0,0.0,0.0
161508419,0.0,0.0,0.0,0.0
161509391,0.0,0.0,0.0,0.0
161711214,0.0,0.0,0.0,0.0
161712061,0.0,0.0,0.0,0.0
161914126,0.0,0.0,0.0,0.0
161915332,0.0,0.0,0.0,0.0
162117227,0.0,0.0,0.0,0.0
162118050,0.0,0.0,0.0,0.0
162320018,0.0,0.0,0.0,0.0
162320996,0.0,0.0,0.0,0.0
162523285,0.0,0.0,0.0,0.0
162722525,0.0,0.0,0.0,0.0
162726048,0.0,0.0,0.0,0.0
162925674,0.0,0.0,0.0,0.0
162930101,0.0,0.0,0.0,0.0
163128815,0.0,0.0,0.0,0.0
163132235,0.0,0.0,0.0,0.0
163331756,0.0,0.0,0.0,0.0
163334767,0.0,0.0,0.0,0.0
163534724,0.0,0.0,0.0,0.0
163537685,0.0,0.0,0.0,0.0
163737547,0.0,0.0,0.0,0.470982
163740039,0.0,0.0,0.0,0.470982
163940812,0.0,0.0,0.0653847,0.653901
163942868,0.0,0.0,0.0653847,0.653901
164143730,0.0,0.0,0.0937198,0.656696
164146176,0.0,0.0,0.0937198,0.656696
164346826,0.0,0.0,0.0749248,0.881188
164348949,0.0,0.0,0.0749248,0.881188
164549830,0.0,0.0,0.0752542,0.890039
164552507,0.0,0.0,0.0752542,0.890039
164752888,0.0,0.0,0.0752697,0.991207
164754984,0.0,0.0,0.0752697,0.991207
164955730,0.0,0.0,0.075269,0.999725
164958214,0.0,0.0,0.075269,0.999725
165158544,0.0,0.0,0.0681416,1.0
165161092,0.0,0.0,0.0681416,1.0
165361760,0.0,0.0,0.00896146,1.0
165364201,0.0,0.0,0.00896146,1.0
165564761,0.0,0.0,-0.00275972,1.0
165567369,0.0,0.0,-0.00275972,1.0
165767530,0.0,0.0,-0.000116922,1.0
165770119,0.0,0.0,-0.000116922,1.0
165970706,0.0,0.0,0.003024,1.0
165972024,0.0,0.0,0.003024,1.0
166173912,0.0,0.0,0.00306454,1.0
166174843,0.0,0.0,0.00306454,1.0
166376801,0.0,0.0,0.00305949,1.0
166576442,-0.421865,-0.000361678,0.00305787,1.0
166580455,-0.421865,-0.000361678,0.00305787,1.0
166779405,-1.7372,-0.00148935,0.00303205,1.0
166783466,-1.7372,-0.00148935,0.00303205,1.0
166981998,-2.23354,-0.00191488,0.003014,1.0
166986142,-2.37024,-0.00203207,0.00300821,1.0
167185280,-2.52113,-0.00216144,0.0030014,1.0
167188773,-2.52113,-0.00216144,0.0030014,1.0
167388243,-3.18721,-0.00273249,0.00296611,1.0
167391197,-3.18721,-0.00273249,0.00296611,1.0
167591433,-3.54904,-0.0030427,0.00294327,1.0
167594528,-3.63807,-0.00311902,0.00293724,1.0
167794444,-3.33608,-0.00286012,0.00295703,1.0
167797508,-3.33608,-0.00286012,0.00295703,1.0
167996964,0.585415,0.000501894,0.00305639,1.0
167999949,0.585415,0.000501894,0.00305639,1.0
168200257,2.54827,0.00218471,0.00300014,1.0
168203334,3.15959,0.00270881,0.00296775,1.0
168403423,3.78109,0.00324164,0.00292722,1.0
168405938,3.78109,0.00324164,0.00292722,1.0
168606209,-0.259072,0.00066521,0.00305888,1.0
168609278,-0.259072,0.00066521,0.00305888,1.0
168809257,0.0212324,-7.13964e-05,0.00305949,1.0
168812332,0.000945509,-2.92725e-05,0.00305949,1.0
169011932,0.000157281,1.93065e-06,0.00305949,1.0
169014989,0.000157281,1.93065e-06,0.00305949,1.0
169215357,-3.30447e-05,8.25338e-08,0.00305949,1.0
169217894,-3.30447e-05,8.25338e-08,0.00305949,1.0
169418160,1.52779e-07,-3.79767e-09,0.00305949,1.0
169420047,-4.77781e-07,3.51573e-10,0.00305949,1.0
169621208,4.68084e-08,-7.72113e-11,0.00305949,1.0
169622995,4.68084e-08,-7.72113e-11,0.00305949,1.0
169824232,-7.68595e-10,6.48081e-12,0.00305949,1.0
169826421,-7.68595e-10,6.48081e-12,0.00305949,1.0
170027401,0.0,0.0,0.0777028,1.0
170028820,0.0,0.0,0.0661129,0.941125
170230413,0.0,0.0,0.071749,0.0808425
170230960,0.0,0.0,0.071749,0.0808425
170433305,0.0,0.0,0.071749,0.08
170632797,0.0,0.0,0.071749,0.08
170636237,0.0,0.0,0.071749,0.08
170835739,0.0,0.0,0.071749,0.08
170839244,0.0,0.0,0.071749,0.08
171038833,0.0,0.0,0.071749,0.08
171041775,0.0,0.0,0.071749,0.08
171241750,0.0,0.0,0.071749,0.08
171244204,0.0,0.0,0.071749,0.08
171444724,0.0,0.0,0.071749,0.08
171447277,0.0,0.0,0.071749,0.08
171647810,0.0,0.0,0.071749,0.08
171650295,0.0,0.0,0.071749,0.08
171850872,0.0,0.0,0.071749,0.08
171852962,0.0,0.0,0.071749,0.08
172053691,-7.27589e-26,5.78098e-28,2.49813e-14,0.0
172056053,-7.27589e-26,5.78098e-28,2.49813e-14,0.0
172256854,-4.30915e-27,4.59816e-30,-1.71553e-15,0.0
172258797,-4.30915e-27,4.59816e-30,-1.71553e-15,0.0
172459629,1.57051e-28,-9.03383e-31,-1.67921e-17,2.53422e-17
172462040,1.57051e-28,-9.03383e-31,-1.67921e-17,2.53422e-17
172662633,4.51038e-30,3.73801e-33,2.7174e-18,1.30107e-18
172664992,4.51038e-30,3.73801e-33,2.7174e-18,1.30107e-18
172865854,-2.8332e-31,1.28476e-33,-6.89113e-21,0.0
172868290,-2.8332e-31,1.28476e-33,-6.89113e-21,0.0
173068784,-3.33884e-33,-2.04263e-35,-3.91517e-21,0.0
173071119,-3.33884e-33,-2.04263e-35,-3.91517e-21,0.0
173271718,4.55352e-34,-1.65153e-36,5.56308e-23,9.21668e-23
173274140,4.55352e-34,-1.65153e-36,5.56308e-23,9.21668e-23
173474869,-3.82846e-37,4.92245e-38,5.10976e-24,8.46379e-25
173477305,-3.82846e-37,4.92245e-38,5.10976e-24,8.46379e-25
173677757,-6.65031e-37,1.8561e-39,-1.41173e-25,0.0
173680058,-6.65031e-37,1.8561e-39,-1.41173e-25,0.0
173880729,8.29136e-39,-9.39459e-41,-5.87201e-27,4.44693e-28
173883166,8.29136e-39,-9.39459e-41,-5.87201e-27,4.44693e-28
174083820,8.81413e-40,-1.63812e-42,2.75799e-28,2.08523e-28
174086791,8.81413e-40,-1.63812e-42,2.75799e-28,2.08523e-28
174286786,0.0,0.0,0.0,0.08
174288913,0.0,0.0,0.0,0.08
174489579,0.0,0.0,0.0,0.08
174491290,0.0,0.0,0.0,0.08
174692865,0.0,0.0,0.0,0.08
174693664,0.0,0.0,0.0,0.08
174895887,0.0,0.0,0.0,0.08
174896318,0.0,0.0,0.0,0.08
175098595,0.0,0.0,0.0,0.08
175099184,0.0,0.0,0.0,0.08
175301028,0.0,0.0,0.0,0.08
175501270,0.0,0.0,0.0,0.08
175504310,0.0,0.0,0.0,0.08
175704403,0.0,0.0,0.0,0.08
175706873,0.0,0.0,0.0,0.08
175907424,0.0,0.0,0.0,0.08
175910508,0.0,0.0,0.0,0.08
176110421,0.0,0.0,0.0,0.08
176113517,0.0,0.0,0.0,0.08
176313036,0.0,0.0,0.0,0.08
176315985,0.0,0.0,0.0,0.08
176516422,0.0,0.0,0.0,0.08
176518678,0.0,0.0,0.0,0.08
176719077,0.0,0.0,0.0,0.08
176721211,0.0,0.0,0.0,0.08
176922268,0.0,0.0,0.0,0.08
176924386,0.0,0.0,0.0,0.08
177125236,0.0,0.0,0.0,0.08
177127593,0.0,0.0,0.0,0.08
177326027,0.0,0.0,0.0,0.08
177332967,0.0,0.0,0.0,0.08
177531006,0.0,0.0,0.0,0.08
177533647,0.0,0.0,0.0,0.08
177734294,0.0,0.0,0.0,0.08
177735797,0.0,0.0,0.0,0.08
177936832,0.0,0.0,0.0,0.0
177937570,0.0,0.0,0.0,0.0
178139744,0.0,0.0,0.0,0.0
