timestamp,roll_body,pitch_body,yaw_body,yaw_sp_move_rate,q_d[0],q_d[1],q_d[2],q_d[3],thrust,landing_gear,q_d_valid,roll_reset_integral,pitch_reset_integral,yaw_reset_integral,fw_control_yaw,disable_mc_yaw_control,apply_flaps
20906410,0.0,-0.0,0.0,0.0,1.0,0.0,0.0,0.0,0.08,-1.0,1,0,0,0,0,0,0
20990397,0.0,-0.0,0.0,0.0,1.0,0.0,0.0,0.0,0.08,-1.0,1,0,0,0,0,0,0
21095406,0.0,-0.0,0.0,0.0,1.0,0.0,0.0,0.0,0.08,-1.0,1,0,0,0,0,0,0
21200423,0.0,-0.0,0.0,0.0,1.0,0.0,0.0,0.0,0.08,-1.0,1,0,0,0,0,0,0
21305399,0.0,-0.0,0.0,0.0,1.0,0.0,0.0,0.0,0.08,-1.0,1,0,0,0,0,0,0
21410399,0.0,-0.0,0.0,0.0,1.0,0.0,0.0,0.0,0.08,-1.0,1,0,0,0,0,0,0
21515399,0.0,-0.0,0.0,0.0,1.0,0.0,0.0,0.0,0.08,-1.0,1,0,0,0,0,0,0
21599403,0.0,-0.0,-0.00212193,-0.0505462,0.999999,0.0,-0.0,-0.00106096,0.277476,-1.0,1,0,0,0,0,0,0
21704402,0.0,-0.0,-0.00690037,-0.0226444,0.999994,0.0,-0.0,-0.00345018,0.584209,-1.0,1,0,0,0,0,0,0
21809403,0.0,-0.0,-0.00643717,0.00573754,0.999995,0.0,-0.0,-0.00321858,0.572173,-1.0,1,0,0,0,0,0,0
21914422,0.0,-0.0,-0.00641463,-0.000595263,0.999995,0.0,-0.0,-0.00320731,0.565928,-1.0,1,0,0,0,0,0,0
22019400,0.0,-0.0,-0.00643992,-6.81586e-05,0.999995,0.0,-0.0,-0.00321995,0.565861,-1.0,1,0,0,0,0,0,0
22124402,0.0,-0.0,-0.00643433,4.02106e-05,0.999995,0.0,-0.0,-0.00321716,0.563974,-1.0,1,0,0,0,0,0,0
22208423,0.0,-0.0,-0.00643463,-7.6435e-06,0.999995,0.0,-0.0,-0.00321731,0.564068,-1.0,1,0,0,0,0,0,0
22313406,0.0,-0.0,-0.00643479,4.07886e-07,0.999995,0.0,-0.0,-0.00321739,0.564803,-1.0,1,0,0,0,0,0,0
22418409,0.0,-0.0,-0.00643474,1.89037e-07,0.999995,0.0,-0.0,-0.00321736,0.565161,-1.0,1,0,0,0,0,0,0
22523400,0.0,-0.0,-0.00643475,-6.38596e-08,0.999995,0.0,-0.0,-0.00321737,0.564395,-1.0,1,0,0,0,0,0,0
22628401,0.0,-0.0,-0.00643475,9.04099e-09,0.999995,0.0,-0.0,-0.00321737,0.572787,-1.0,1,0,0,0,0,0,0
22733401,0.0,-0.0,-0.00643475,1.42437e-10,0.999995,0.0,-0.0,-0.00321737,0.642695,-1.0,1,0,0,0,0,0,0
22817401,0.0,-0.0,-0.00643475,-3.82999e-10,0.999995,0.0,-0.0,-0.00321737,0.716329,-1.0,1,0,0,0,0,0,0
22922423,0.0,-0.0,-0.00643475,9.22341e-11,0.999995,0.0,-0.0,-0.00321737,0.751087,-1.0,1,0,0,0,0,0,0
23027400,0.0,-0.0,-0.00643475,-8.84156e-12,0.999995,0.0,-0.0,-0.00321737,0.801965,-1.0,1,0,0,0,0,0,0
23132423,0.0,-0.0,-0.0121287,-0.0858064,0.999982,0.0,-0.0,-0.00606429,0.964784,-1.0,1,0,0,0,0,0,0
23237423,0.0,-0.0,-0.0174416,-0.0173114,0.999962,0.0,-0.0,-0.00872071,1.0,-1.0,1,0,0,0,0,0,0
23342410,0.0,-0.0,-0.0167151,0.00629397,0.999965,0.0,-0.0,-0.00835744,0.998799,-1.0,1,0,0,0,0,0,0
23426437,0.0,-0.0,-0.0167216,-0.000941689,0.999965,0.0,-0.0,-0.00836071,0.999923,-1.0,1,0,0,0,0,0,0
23531419,0.0,-0.0,-0.0162816,0.0114445,0.999967,0.0,-0.0,-0.00814073,0.991509,-1.0,1,0,0,0,0,0,0
23636420,0.0,-0.0,-0.0124693,0.0463833,0.999981,0.0,-0.0,-0.00623459,0.956987,-1.0,1,0,0,0,0,0,0
23741426,0.0,-0.0,-0.010728,0.00779572,0.999986,0.0,-0.0,-0.00536397,0.886205,-1.0,1,0,0,0,0,0,0
23846398,0.0,-0.0,-0.00860973,0.0248165,0.999991,0.0,-0.0,-0.00430485,0.779519,-1.0,1,0,0,0,0,0,0
23951400,0.0,-0.0,-0.00710501,0.00777394,0.999994,0.0,-0.0,-0.0035525,0.766145,-1.0,1,0,0,0,0,0,0
24035406,0.0,-0.0,-0.00713206,-0.00128525,0.999994,0.0,-0.0,-0.00356602,0.771776,-1.0,1,0,0,0,0,0,0
24140409,0.0,-0.0,-0.00718303,2.97603e-05,0.999994,0.0,-0.0,-0.00359151,0.770374,-1.0,1,0,0,0,0,0,0
24245402,0.0,-0.0,-0.00717526,4.16901e-05,0.999994,0.0,-0.0,-0.00358762,0.771198,-1.0,1,0,0,0,0,0,0
24350422,0.0,-0.0,-0.00717528,-1.17755e-05,0.999994,0.0,-0.0,-0.00358763,0.77055,-1.0,1,0,0,0,0,0,0
24455401,0.0,-0.0,-0.00717538,1.40514e-06,0.999994,0.0,-0.0,-0.00358768,0.770338,-1.0,1,0,0,0,0,0,0
24560413,0.0,-0.0,-0.00717531,9.30907e-08,0.999994,0.0,-0.0,-0.00358765,0.771254,-1.0,1,0,0,0,0,0,0
24644404,0.0,-0.0,-0.00717532,-7.76242e-08,0.999994,0.0,-0.0,-0.00358765,0.770537,-1.0,1,0,0,0,0,0,0
24749404,0.0,-0.0,-0.00717533,1.6231e-08,0.999994,0.0,-0.0,-0.00358766,0.792771,-1.0,1,0,0,0,0,0,0
24854415,0.0,-0.0,-0.0161151,-0.163776,0.999968,0.0,-0.0,-0.00805745,0.945462,-1.0,1,0,0,0,0,0,0
24959431,0.0,-0.0,-0.0302142,-0.0672873,0.999886,0.0,-0.0,-0.0151065,0.980722,-1.0,1,0,0,0,0,0,0
25064400,0.0,-0.0,-0.0299087,0.0206584,0.999888,0.0,-0.0,-0.0149538,0.976408,-1.0,1,0,0,0,0,0,0
25169400,0.0,-0.0,-0.0297905,-0.00268952,0.999889,0.0,-0.0,-0.0148947,1.0,-1.0,1,0,0,0,0,0,0
25253406,0.0,-0.0,-0.0299006,-0.000106077,0.999888,0.0,-0.0,-0.0149497,1.0,-1.0,1,0,0,0,0,0,0
25358406,0.0,-0.0,-0.0298814,0.000130184,0.999888,0.0,-0.0,-0.0149402,0.999803,-1.0,1,0,0,0,0,0,0
25379400,0.0,-0.0,-0.0298787,0.0,0.999888,0.0,-0.0,-0.0149388,0.999803,-1.0,1,0,0,0,0,0,0
25379400,0.0,-0.0,-0.0298787,0.0,0.999888,0.0,-0.0,-0.0149388,0.999803,-1.0,1,0,0,0,0,0,0
25379400,0.0,-0.0,-0.0298787,0.0,0.999888,0.0,-0.0,-0.0149388,0.999803,-1.0,1,0,0,0,0,0,0
25379400,0.0,-0.0,-0.0298787,0.0,0.999888,0.0,-0.0,-0.0149388,0.999803,-1.0,1,0,0,0,0,0,0
25379400,0.0,-0.0,-0.0298787,0.0,0.999888,0.0,-0.0,-0.0149388,0.999803,-1.0,1,0,0,0,0,0,0
25379400,0.0,-0.0,-0.0298787,0.0,0.999888,0.0,-0.0,-0.0149388,0.999803,-1.0,1,0,0,0,0,0,0
25379400,0.0,-0.0,-0.0298787,0.0,0.999888,0.0,-0.0,-0.0149388,0.999803,-1.0,1,0,0,0,0,0,0
25379400,0.0,-0.0,-0.0298787,0.0,0.999888,0.0,-0.0,-0.0149388,0.999803,-1.0,1,0,0,0,0,0,0
25379400,0.0,-0.0,-0.0298787,0.0,0.999888,0.0,-0.0,-0.0149388,0.999803,-1.0,1,0,0,0,0,0,0
25379400,0.0,-0.0,-0.0298787,0.0,0.999888,0.0,-0.0,-0.0149388,0.999803,-1.0,1,0,0,0,0,0,0
25379400,0.0,-0.0,-0.0298787,0.0,0.999888,0.0,-0.0,-0.0149388,0.999803,-1.0,1,0,0,0,0,0,0
25379400,0.0,-0.0,-0.0298787,0.0,0.999888,0.0,-0.0,-0.0149388,0.999803,-1.0,1,0,0,0,0,0,0
25379400,0.0,-0.0,-0.0298787,0.0,0.999888,0.0,-0.0,-0.0149388,0.999803,-1.0,1,0,0,0,0,0,0
25379400,0.0,-0.0,-0.0298787,0.0,0.999888,0.0,-0.0,-0.0149388,0.999803,-1.0,1,0,0,0,0,0,0
25379400,0.0,-0.0,-0.0298787,0.0,0.999888,0.0,-0.0,-0.0149388,0.999803,-1.0,1,0,0,0,0,0,0
25379400,0.0,-0.0,-0.0298787,0.0,0.999888,0.0,-0.0,-0.0149388,0.999803,-1.0,1,0,0,0,0,0,0
25379400,0.0,-0.0,-0.0298787,0.0,0.999888,0.0,-0.0,-0.0149388,0.999803,-1.0,1,0,0,0,0,0,0
25379400,0.0,-0.0,-0.0298787,0.0,0.999888,0.0,-0.0,-0.0149388,0.999803,-1.0,1,0,0,0,0,0,0
27290404,0.0,-0.0,0.0,0.0,1.0,0.0,0.0,0.0,1.0,-1.0,1,0,0,0,0,0,0
27395402,0.0,-0.0,1.75562e-19,-6.23203e-19,1.0,0.0,0.0,8.77811e-20,1.0,-1.0,1,0,0,0,0,0,0
27500409,0.0,-0.0,1.32293e-19,-4.89759e-20,1.0,0.0,0.0,6.61465e-20,1.0,-1.0,1,0,0,0,0,0,0
27605405,0.0,-0.0,1.3584e-19,3.63888e-20,1.0,0.0,0.0,6.79198e-20,1.0,-1.0,1,0,0,0,0,0,0
27689403,0.0,-0.0,1.36417e-19,-7.40417e-21,1.0,0.0,0.0,6.82086e-20,1.0,-1.0,1,0,0,0,0,0,0
27794403,0.0,-0.0,1.36008e-19,4.93379e-22,1.0,0.0,0.0,6.8004e-20,1.0,-1.0,1,0,0,0,0,0,0
27899402,0.0,-0.0,1.36061e-19,1.58052e-22,1.0,0.0,0.0,6.80305e-20,1.0,-1.0,1,0,0,0,0,0,0
28004407,0.0,-0.0,1.36058e-19,-5.92342e-23,1.0,0.0,0.0,6.80291e-20,1.0,-1.0,1,0,0,0,0,0,0
28109407,0.0,-0.0,1.36057e-19,9.04919e-24,1.0,0.0,0.0,6.80284e-20,1.0,-1.0,1,0,0,0,0,0,0
28214426,0.0,-0.0,1.36057e-19,-3.70131e-26,1.0,0.0,0.0,6.80286e-20,1.0,-1.0,1,0,0,0,0,0,0
28298438,-0.00477603,-0.0,1.36057e-19,-3.37539e-25,0.999997,-0.00238801,-1.62453e-22,6.80284e-20,1.0,-1.0,1,0,0,0,0,0,0
28403407,-0.129421,0.0473853,-0.00307119,8.7519e-26,0.997628,-0.064611,0.0237401,-2.53825e-11,1.0,-1.0,1,0,0,0,0,0,0
28508406,-0.482682,0.128595,-0.0316933,-9.38191e-27,0.969134,-0.237493,0.0661628,6.94666e-10,1.0,-1.0,1,0,0,0,0,0,0
28613411,-0.60003,0.122321,-0.037883,-9.62662e-28,0.953717,-0.293823,0.0639686,9.53197e-10,1.0,-1.0,1,0,0,0,0,0,0
28718415,-0.600942,0.11713,-0.0363307,6.05295e-28,0.953717,-0.294398,0.061267,2.52671e-09,1.0,-1.0,1,0,0,0,0,0,0
28823435,-0.518249,0.0285749,-0.00757523,-1.17487e-28,0.966523,-0.256154,0.0147803,4.34344e-10,1.0,-1.0,1,0,0,0,0,0,0
28907434,-0.444458,-0.000328352,7.41948e-05,-4.39653e-29,0.975409,-0.220404,-0.000168315,-2.49665e-12,1.0,-1.0,1,0,0,0,0,0,0
29012405,-0.0801406,0.000378521,-1.51756e-05,2.7807e-30,0.999197,-0.0400596,0.000189413,-1.93992e-13,1.0,-1.0,1,0,0,0,0,0,0
29117417,0.0215014,0.000132603,1.42563e-06,-9.68486e-31,0.999942,0.0107505,6.63053e-05,-1.00976e-15,1.0,-1.0,1,0,0,0,0,0,0
29222407,0.0813463,-4.83033e-05,-1.96573e-06,1.4042e-31,0.999173,0.0406619,-2.41716e-05,-1.7427e-14,1.0,-1.0,1,0,0,0,0,0,0
29327407,0.364715,7.09029e-06,1.30749e-06,1.31698e-33,0.983419,0.181348,3.60492e-06,6.61903e-14,1.0,-1.0,1,0,0,0,0,0,0
29432406,0.510479,4.64032e-09,1.2108e-09,-5.72017e-33,0.967603,0.252477,2.39784e-09,5.06862e-17,1.0,-1.0,1,0,0,0,0,0,0
29516412,0.518021,-7.19834e-07,-1.90729e-07,7.80754e-34,0.966644,0.256124,-3.72337e-07,-4.75791e-15,1.0,-1.0,1,0,0,0,0,0,0
29621405,0.215336,4.39384e-08,4.74913e-09,3.67635e-34,0.994209,0.10746,2.20972e-08,-1.14925e-17,1.0,-1.0,1,0,0,0,0,0,0
29726405,-0.0160916,-7.41393e-09,5.96522e-11,-1.83061e-35,0.999968,-0.00804571,-3.70709e-09,-8.25528e-19,1.0,-1.0,1,0,0,0,0,0,0
29831404,0.00383784,-8.32697e-10,-1.59788e-12,1.00368e-35,0.999998,0.00191892,-4.16349e-10,1.25647e-20,1.0,-1.0,1,0,0,0,0,0,0
29936406,-0.000361948,4.96696e-10,-8.98891e-14,-1.85826e-36,1.0,-0.000180974,2.48348e-10,0.0,1.0,-1.0,1,0,0,0,0,0,0
30041416,-5.48313e-05,-9.47689e-11,2.59815e-15,8.91601e-38,1.0,-2.74156e-05,-4.73845e-11,0.0,1.0,-1.0,1,0,0,0,0,0,0
30125402,4.63513e-05,-3.63402e-11,-8.42208e-16,1.78522e-37,1.0,2.31756e-05,-1.81701e-11,0.0,1.0,-1.0,1,0,0,0,0,0,0
30230411,1.22053e-06,9.01112e-12,5.49916e-18,-1.70317e-38,1.0,6.10263e-07,4.50556e-12,0.0,1.0,-1.0,1,0,0,0,0,0,0
30335405,-2.08862e-06,-9.05145e-13,9.4525e-19,-2.50074e-39,1.0,-1.04431e-06,-4.52572e-13,0.0,1.0,-1.0,1,0,0,0,0,0,0
30440407,1.38784e-07,1.12307e-13,7.79323e-21,5.24408e-41,1.0,6.9392e-08,5.61536e-14,0.0,1.0,-1.0,1,0,0,0,0,0,0
30545432,-4.33893e-08,1.63901e-15,-3.55577e-23,-9.65186e-41,1.0,-2.16946e-08,8.19504e-16,0.0,0.970257,-1.0,1,0,0,0,0,0,0
30650441,5.74627e-09,-4.72437e-15,-1.35737e-23,2.26128e-41,1.0,2.87314e-09,-2.36218e-15,0.0,0.828817,-1.0,1,0,0,0,0,0,0
30734409,3.58067e-09,5.8763e-16,1.05205e-24,6.39272e-42,1.0,1.79033e-09,2.93815e-16,0.0,0.812923,-1.0,1,0,0,0,0,0,0
30839400,-6.28006e-10,3.07025e-16,-9.64068e-26,-2.01507e-42,1.0,-3.14003e-10,1.53513e-16,0.0,0.818639,-1.0,1,0,0,0,0,0,0
30944428,0.0,-0.0,0.00108842,0.0153644,1.0,0.0,0.0,0.000544211,0.772624,-1.0,1,0,0,0,0,0,0
31049427,1.82402e-11,-0.00780802,0.00435594,0.0312899,0.99999,8.5028e-06,-0.00390399,0.00217795,0.740882,-1.0,1,0,0,0,0,0,0
31154408,-1.01153e-12,-0.131997,0.00461337,-0.0373046,0.99782,0.000152127,-0.0659502,0.00230166,0.835396,-1.0,1,0,0,0,0,0,0
31259406,4.65458e-13,-0.190967,0.000401992,0.0140469,0.995445,1.91627e-05,-0.0953386,0.000200081,1.0,-1.0,1,0,0,0,0,0,0
31343405,3.09949e-14,-0.19297,0.00539045,0.10474,0.995345,0.000259646,-0.0963352,0.00268269,1.0,-1.0,1,0,0,0,0,0,0
31448403,-3.6024e-14,-0.279082,0.0113155,0.0206109,0.990264,0.000786923,-0.139086,0.00560273,0.998141,-1.0,1,0,0,0,0,0,0
31553404,-0.00134871,-0.448957,0.0110266,-0.00597497,0.974896,0.000569822,-0.222598,0.00522485,0.999902,-1.0,1,0,0,0,0,0,0
31658414,-0.0119212,-0.264777,0.0123029,0.000733801,0.991218,-0.00509631,-0.132034,0.00531067,1.0,-1.0,1,0,0,0,0,0,0
31763414,-0.000289804,0.0201586,0.0107362,4.19243e-05,0.999935,-0.000198998,0.0100782,0.00536924,0.999979,-1.0,1,0,0,0,0,0,0
31868409,-0.0922139,0.0070473,0.0104088,1.87749e-06,0.998917,-0.046108,0.00327998,0.00536124,1.0,-1.0,1,0,0,0,0,0,0
31952407,-0.180035,0.017253,0.00917712,8.29747e-06,0.9959,-0.089931,0.00817888,0.00534526,1.0,-1.0,1,0,0,0,0,0,0
32057407,-0.314123,0.00886616,0.00933047,-6.27606e-07,0.987667,-0.156434,0.00364874,0.00530115,1.0,-1.0,1,0,0,0,0,0,0
32162404,-0.234414,-0.00182323,0.0109492,-1.58066e-07,0.993124,-0.116932,-0.00154553,0.00533041,1.0,-1.0,1,0,0,0,0,0,0
32267403,0.108003,0.000123498,0.0107412,6.43844e-08,0.998528,0.0539741,0.000351536,0.00535941,1.0,-1.0,1,0,0,0,0,0,0
32372428,0.0377324,0.0108238,0.0109388,-1.03624e-08,0.999793,0.0188349,0.00551403,0.0053662,1.0,-1.0,1,0,0,0,0,0,0
32477407,0.137442,0.135822,0.0200974,1.74508e-10,0.995337,0.0678247,0.0683835,0.00534229,1.0,-1.0,1,0,0,0,0,0,0
32561407,0.133556,0.22655,0.0259505,3.5282e-10,0.991391,0.064832,0.113632,0.00532111,1.0,-1.0,1,0,0,0,0,0,0
32666407,0.0387107,0.203274,0.0146831,-9.6689e-11,0.994641,0.018509,0.101582,0.00533855,1.0,-1.0,1,0,0,0,0,0,0
32771404,0.0357251,0.11207,0.0127387,1.11351e-11,0.998257,0.0174765,0.056109,0.00535796,1.0,-1.0,1,0,0,0,0,0,0
32876408,0.0366875,0.0239746,0.0111744,8.67077e-13,0.999746,0.0182742,0.0120873,0.00536595,1.0,-1.0,1,0,0,0,0,0,0
32981432,0.0184679,0.0599808,0.0112886,-6.48136e-13,0.999493,0.00906028,0.0300362,0.0053646,1.0,-1.0,1,0,0,0,0,0,0
33086402,0.0122942,0.0828286,0.011244,1.3208e-13,0.999109,0.00590891,0.0414355,0.00536254,1.0,-1.0,1,0,0,0,0,0,0
33170404,-0.000368553,-0.00427156,0.0107353,-8.83915e-15,0.999983,-0.00017281,-0.00213674,0.00536723,1.0,-1.0,1,0,0,0,0,0,0
33275415,-0.000376316,-0.00208645,0.0107349,-2.80975e-15,0.999985,-0.000182556,-0.00104422,0.00536724,1.0,-1.0,1,0,0,0,0,0,0
33380404,0.000110123,0.000696001,0.0107346,1.05564e-15,0.999986,5.31927e-05,0.000348291,0.00536724,1.0,-1.0,1,0,0,0,0,0,0
33443407,2.13866e-05,0.000104873,0.0107345,0.0,0.999986,1.04117e-05,5.24933e-05,0.00536724,1.0,-1.0,1,0,0,0,0,0,0
33443407,2.13866e-05,0.000104873,0.0107345,0.0,0.999986,1.04117e-05,5.24933e-05,0.00536724,1.0,-1.0,1,0,0,0,0,0,0
33443407,2.13866e-05,0.000104873,0.0107345,0.0,0.999986,1.04117e-05,5.24933e-05,0.00536724,1.0,-1.0,1,0,0,0,0,0,0
33443407,2.13866e-05,0.000104873,0.0107345,0.0,0.999986,1.04117e-05,5.24933e-05,0.00536724,1.0,-1.0,1,0,0,0,0,0,0
33443407,2.13866e-05,0.000104873,0.0107345,0.0,0.999986,1.04117e-05,5.24933e-05,0.00536724,1.0,-1.0,1,0,0,0,0,0,0
33443407,2.13866e-05,0.000104873,0.0107345,0.0,0.999986,1.04117e-05,5.24933e-05,0.00536724,1.0,-1.0,1,0,0,0,0,0,0
33443407,2.13866e-05,0.000104873,0.0107345,0.0,0.999986,1.04117e-05,5.24933e-05,0.00536724,1.0,-1.0,1,0,0,0,0,0,0
33443407,2.13866e-05,0.000104873,0.0107345,0.0,0.999986,1.04117e-05,5.24933e-05,0.00536724,1.0,-1.0,1,0,0,0,0,0,0
33443407,2.13866e-05,0.000104873,0.0107345,0.0,0.999986,1.04117e-05,5.24933e-05,0.00536724,1.0,-1.0,1,0,0,0,0,0,0
33443407,2.13866e-05,0.000104873,0.0107345,0.0,0.999986,1.04117e-05,5.24933e-05,0.00536724,1.0,-1.0,1,0,0,0,0,0,0
33443407,2.13866e-05,0.000104873,0.0107345,0.0,0.999986,1.04117e-05,5.24933e-05,0.00536724,1.0,-1.0,1,0,0,0,0,0,0
33443407,2.13866e-05,0.000104873,0.0107345,0.0,0.999986,1.04117e-05,5.24933e-05,0.00536724,1.0,-1.0,1,0,0,0,0,0,0
33443407,2.13866e-05,0.000104873,0.0107345,0.0,0.999986,1.04117e-05,5.24933e-05,0.00536724,1.0,-1.0,1,0,0,0,0,0,0
33443407,2.13866e-05,0.000104873,0.0107345,0.0,0.999986,1.04117e-05,5.24933e-05,0.00536724,1.0,-1.0,1,0,0,0,0,0,0
33443407,2.13866e-05,0.000104873,0.0107345,0.0,0.999986,1.04117e-05,5.24933e-05,0.00536724,1.0,-1.0,1,0,0,0,0,0,0
33443407,2.13866e-05,0.000104873,0.0107345,0.0,0.999986,1.04117e-05,5.24933e-05,0.00536724,1.0,-1.0,1,0,0,0,0,0,0
35102402,0.0,-0.0,6.81857e-30,3.24802e-28,1.0,0.0,0.0,3.40928e-30,1.0,-1.0,1,0,0,0,0,0,0
35207405,0.0,-0.0,-6.96164e-30,-1.78805e-28,1.0,0.0,-0.0,-3.48082e-30,1.0,-1.0,1,0,0,0,0,0,0
35312402,0.0,-0.0,-9.53534e-30,3.31557e-29,1.0,0.0,-0.0,-4.76767e-30,1.0,-1.0,1,0,0,0,0,0,0
35417400,0.0,-0.0,-8.35043e-30,-1.60132e-30,1.0,0.0,-0.0,-4.17522e-30,1.0,-1.0,1,0,0,0,0,0,0
35522416,0.0,-0.0,-8.58729e-30,-8.6285e-31,1.0,0.0,-0.0,-4.29365e-30,1.0,-1.0,1,0,0,0,0,0,0
35606400,0.0,-0.0,-8.5622e-30,2.81497e-31,1.0,0.0,-0.0,-4.2811e-30,1.0,-1.0,1,0,0,0,0,0,0
35711426,0.0,-0.0,-8.55431e-30,-3.87197e-32,1.0,0.0,-0.0,-4.27715e-30,1.0,-1.0,1,0,0,0,0,0,0
35816405,0.0,-0.0,-8.55612e-30,-9.1702e-34,1.0,0.0,-0.0,-4.27806e-30,1.0,-1.0,1,0,0,0,0,0,0
35921402,0.0,-0.0,-8.5559e-30,1.71857e-33,1.0,0.0,-0.0,-4.27795e-30,1.0,-1.0,1,0,0,0,0,0,0
36026402,0.0,-0.0,-8.55588e-30,-4.03213e-34,1.0,0.0,-0.0,-4.27794e-30,1.0,-1.0,1,0,0,0,0,0,0
36131403,0.0,-0.0,-8.55589e-30,3.69555e-35,1.0,0.0,-0.0,-4.27795e-30,1.0,-1.0,1,0,0,0,0,0,0
36215404,0.0,-0.0,0.00378327,0.111469,0.999998,0.0,0.0,0.00189163,1.0,-1.0,1,0,0,0,0,0,0
36320401,0.0,-0.0,0.0277648,0.315223,0.999904,0.0,0.0,0.0138819,1.0,-1.0,1,0,0,0,0,0,0
36425404,0.0,-0.0,0.0571884,0.194057,0.999591,0.0,0.0,0.0285903,1.0,-1.0,1,0,0,0,0,0,0
36530400,0.0,-0.0,0.0643964,0.00387355,0.999482,0.0,0.0,0.0321926,1.0,-1.0,1,0,0,0,0,0,0
36635400,0.0,-0.0,0.0643233,0.00158825,0.999483,0.0,0.0,0.0321561,1.0,-1.0,1,0,0,0,0,0,0
36740409,0.0,-0.0,0.064519,0.000815484,0.99948,0.0,0.0,0.0322539,1.0,-1.0,1,0,0,0,0,0,0
36824404,0.0,-0.0,0.064518,-0.000268914,0.99948,0.0,0.0,0.0322534,1.0,-1.0,1,0,0,0,0,0,0
36929406,0.0,-0.0,0.0645106,3.73261e-05,0.99948,0.0,0.0,0.0322497,1.0,-1.0,1,0,0,0,0,0,0
37034401,0.0,-0.0,0.0645127,7.89996e-07,0.99948,0.0,0.0,0.0322508,1.0,-1.0,1,0,0,0,0,0,0
37139403,0.0,-0.0,0.0645125,-1.63274e-06,0.99948,0.0,0.0,0.0322506,1.0,-1.0,1,0,0,0,0,0,0
37244405,-0.00050274,2.83273e-31,0.0645125,3.86189e-07,0.99948,-0.000251239,-8.10684e-06,0.0322506,1.0,-1.0,1,0,0,0,0,0,0
37349404,-0.0657411,8.44219e-32,0.0645125,-3.59041e-08,0.99894,-0.0328475,-0.00105991,0.0322332,1.0,-1.0,1,0,0,0,0,0,0
37433411,-0.213603,-3.21658e-32,0.0645125,-5.64949e-09,0.993785,-0.106543,-0.00343787,0.0320669,1.0,-1.0,1,0,0,0,0,0,0
37538404,-0.360293,4.92014e-33,0.0645125,2.81778e-09,0.983306,-0.17908,-0.00577846,0.0317288,1.0,-1.0,1,0,0,0,0,0,0
37643408,-0.448638,-3.84943e-35,0.0645125,-5.02139e-10,0.974439,-0.222327,-0.00717392,0.0314426,1.0,-1.0,1,0,0,0,0,0,0
37748412,-0.472024,-1.75937e-34,0.0645125,2.00418e-11,0.971772,-0.233706,-0.00754108,0.0313566,1.0,-1.0,1,0,0,0,0,0,0
37853408,-0.426931,4.66675e-35,0.0645125,1.41416e-11,0.976794,-0.211738,-0.00683224,0.0315186,1.0,-1.0,1,0,0,0,0,0,0
37958403,-0.142089,-5.25245e-36,0.0645125,-4.37574e-12,0.996959,-0.0709477,-0.0022893,0.0321693,1.0,-1.0,1,0,0,0,0,0,0
38042407,0.00663973,-5.00623e-37,0.0645125,5.73925e-13,0.999474,0.00331813,0.000107068,0.0322505,1.0,-1.0,1,0,0,0,0,0,0
38147404,0.0215417,3.29753e-37,0.0645125,2.13852e-14,0.999422,0.0107651,0.000347361,0.0322488,1.0,-1.0,1,0,0,0,0,0,0
38252405,0.204542,-6.44726e-38,0.0645125,-2.74614e-14,0.994257,0.10204,0.00329255,0.0320821,1.0,-1.0,1,0,0,0,0,0,0
38357413,0.462873,3.77766e-39,0.0645125,6.18489e-15,0.972832,0.229256,0.00739752,0.0313908,1.0,-1.0,1,0,0,0,0,0,0
38462429,0.607637,1.4005e-39,0.0645125,-5.24675e-16,0.953705,0.29901,0.00964829,0.0307736,1.0,-1.0,1,0,0,0,0,0,0
38567407,0.571954,-5.0192e-40,0.0645125,-1.03318e-16,0.958887,0.281948,0.00909774,0.0309408,1.0,-1.0,1,0,0,0,0,0,0
38651406,0.291799,7.70294e-41,0.0645125,4.64724e-17,0.988861,0.145307,0.00468868,0.031908,1.0,-1.0,1,0,0,0,0,0,0
38756406,0.0347807,4.06377e-43,0.0645125,-7.89264e-18,0.999329,0.0173804,0.000560821,0.0322458,1.0,-1.0,1,0,0,0,0,0,0
38861406,-0.0105377,-3.09967e-42,0.0645125,2.31334e-19,0.999466,-0.0052661,-0.000169924,0.0322502,1.0,-1.0,1,0,0,0,0,0,0
38966407,0.00135435,7.73517e-43,0.0645125,2.43625e-19,0.99948,0.000676824,2.18394e-05,0.0322506,1.0,-1.0,1,0,0,0,0,0,0
39071408,5.8587e-05,-8.12753e-44,0.0645125,-7.10143e-20,0.99948,2.92783e-05,9.44735e-07,0.0322506,1.0,-1.0,1,0,0,0,0,0,0
39176406,-0.0383187,-1.12104e-44,0.0645125,8.7729e-21,0.999296,-0.0191482,-0.000617864,0.0322447,1.0,-1.0,1,0,0,0,0,0,0
39260407,-0.125301,1.12104e-44,0.0645125,5.96175e-21,0.997519,-0.0625769,-0.0020192,0.0321874,1.0,-1.0,1,0,0,0,0,0,0
39365409,-0.40761,-0.0,0.0645125,-4.60141e-22,0.978794,-0.202292,-0.00652743,0.0315832,1.0,-1.0,1,0,0,0,0,0,0
39470411,-0.455942,-0.0,0.0645125,9.87704e-23,0.97362,-0.225884,-0.00728869,0.0314162,1.0,-1.0,1,0,0,0,0,0,0
39575406,-0.381593,-0.0,0.0645125,-7.55092e-24,0.981343,-0.189542,-0.00611605,0.0316654,1.0,-1.0,1,0,0,0,0,0,0
39680431,-0.226735,-0.0,0.0645125,-1.86114e-24,0.993064,-0.113066,-0.00364835,0.0320436,1.0,-1.0,1,0,0,0,0,0,0
39785406,-0.0543421,-0.0,0.0645125,7.64271e-25,0.999111,-0.0271536,-0.000876176,0.0322387,1.0,-1.0,1,0,0,0,0,0,0
39869404,-0.00491056,-0.0,0.0645125,7.05448e-26,0.999477,-0.002454,-7.91843e-05,0.0322505,1.0,-1.0,1,0,0,0,0,0,0
39974413,0.0132795,-0.0,0.0645125,-5.94829e-26,0.999458,0.00663626,0.000214135,0.0322499,1.0,-1.0,1,0,0,0,0,0,0
40079407,0.310131,-0.0,0.0645125,4.17258e-27,0.987488,0.154364,0.00498094,0.0318637,1.0,-1.0,1,0,0,0,0,0,0
40184408,0.464006,-0.0,0.0645125,-1.14947e-27,0.972702,0.229808,0.0074153,0.0313866,1.0,-1.0,1,0,0,0,0,0,0
40289409,0.401541,-0.0,0.0645125,1.33214e-28,0.979403,0.199321,0.00643157,0.0316028,1.0,-1.0,1,0,0,0,0,0,0
40394411,0.0624815,-0.0,0.0645125,1.00944e-29,0.998992,0.0312194,0.00100737,0.0322349,1.0,-1.0,1,0,0,0,0,0,0
40478401,-0.0525954,-0.0,0.0645125,-1.54419e-29,0.999134,-0.026281,-0.00084802,0.0322395,1.0,-1.0,1,0,0,0,0,0,0
40583428,-0.105403,-0.0,0.0645125,1.84744e-31,0.998092,-0.0526497,-0.00169887,0.0322059,1.0,-1.0,1,0,0,0,0,0,0
40688405,-0.0941851,-0.0,0.0645125,5.44975e-31,0.998372,-0.0470507,-0.0015182,0.0322149,1.0,-1.0,1,0,0,0,0,0,0
40793408,0.0389081,-0.0,0.0645125,-3.31178e-32,0.999291,0.0194427,0.000627366,0.0322445,1.0,-1.0,1,0,0,0,0,0,0
40898415,0.245319,-0.0,0.0645125,1.25342e-32,0.991971,0.122288,0.00394593,0.0320083,1.0,-1.0,1,0,0,0,0,0,0
41003406,0.107486,-0.0,0.0645125,-1.92737e-33,0.998037,0.053689,0.00173241,0.0322041,1.0,-1.0,1,0,0,0,0,0,0
41087409,-0.0476445,-0.0,0.0645125,-9.91488e-34,0.999196,-0.0238076,-0.00076821,0.0322415,1.0,-1.0,1,0,0,0,0,0,0
41192404,-0.366658,-0.0,0.0645125,1.98224e-34,0.982731,-0.182209,-0.00587941,0.0317102,1.0,-1.0,1,0,0,0,0,0,0
41297404,-0.550471,-0.0,0.0645125,-1.25457e-35,0.961861,-0.271632,-0.00876487,0.0310368,1.0,-1.0,1,0,0,0,0,0,0
41402405,-0.58215,-0.0,0.0645125,-4.40048e-36,0.957438,-0.286833,-0.00925535,0.0308941,1.0,-1.0,1,0,0,0,0,0,0
41507434,-0.163291,-0.0,0.0645125,1.99437e-37,0.99615,-0.0815125,-0.0026302,0.0321432,1.0,-1.0,1,0,0,0,0,0,0
41612407,0.0343748,-0.0,0.0645125,-1.2785e-37,0.999332,0.0171776,0.000554278,0.0322459,1.0,-1.0,1,0,0,0,0,0,0
41696404,0.0463828,-0.0,0.0645125,-1.89754e-40,0.999211,0.0231772,0.00074787,0.032242,1.0,-1.0,1,0,0,0,0,0,0
41801431,0.320703,-0.0,0.0645125,9.26236e-39,0.986658,0.159582,0.0051493,0.0318369,1.0,-1.0,1,0,0,0,0,0,0
41906428,0.605731,-0.0,0.0645125,-2.35538e-39,0.953989,0.298102,0.00961897,0.0307828,1.0,-1.0,1,0,0,0,0,0,0
42011405,0.610865,-0.0,0.0645125,2.45659e-40,0.953221,0.300549,0.00969796,0.030758,1.0,-1.0,1,0,0,0,0,0,0
42116403,0.561631,-0.0,0.0645125,2.76518e-41,0.96033,0.276995,0.00893792,0.0309874,1.0,-1.0,1,0,0,0,0,0,0
42221409,0.207189,-0.0,0.0645125,-2.29813e-43,0.994121,0.103356,0.00333502,0.0320777,1.0,-1.0,1,0,0,0,0,0,0
42305406,0.0546458,-0.0,0.0645125,3.14031e-42,0.999107,0.0273053,0.000881072,0.0322386,1.0,-1.0,1,0,0,0,0,0,0
42410424,-0.020611,-0.0,0.0645125,-1.70958e-43,0.999427,-0.0102999,-0.000332352,0.0322489,1.0,-1.0,1,0,0,0,0,0,0
42515430,0.00276836,-0.0,0.0270033,-0.728405,0.999908,0.00138405,1.86881e-05,0.0135012,1.0,-1.0,1,0,0,0,0,0,0
42620402,8.41464e-05,-0.0,-0.242996,-3.00484,0.992628,4.17631e-05,-5.09925e-06,-0.121199,1.0,-1.0,1,0,0,0,0,0,0
42725430,-0.000127614,-0.0,-0.609585,-3.49066,0.953909,-6.08659e-05,1.91481e-05,-0.300095,1.0,-1.0,1,0,0,0,0,0,0
42830405,2.93253e-05,-0.0,-0.876987,-2.15595,0.905392,1.32755e-05,-6.22541e-06,-0.424576,1.0,-1.0,1,0,0,0,0,0,0
42914404,-2.58714e-06,-0.0,-0.950433,-0.57217,0.889194,-1.15023e-06,5.91849e-07,-0.457531,1.0,-1.0,1,0,0,0,0,0,0
43019401,-4.64513e-07,-0.0,-0.968174,-0.0722775,0.8851,-2.0557e-07,1.08092e-07,-0.465401,1.0,-1.0,1,0,0,0,0,0,0
43124402,2.17689e-07,-0.0,-0.97174,-0.0355077,0.884269,9.62479e-08,-5.0828e-08,-0.466978,1.0,-1.0,1,0,0,0,0,0,0
43229427,-3.77172e-08,-0.0,-0.972991,-0.000309743,0.883977,-1.66706e-08,8.81698e-09,-0.467531,1.0,-1.0,1,0,0,0,0,0,0
43334401,1.27391e-09,-0.0,-0.972744,0.00144051,0.884035,5.63092e-10,-2.97727e-10,-0.467422,1.0,-1.0,1,0,0,0,0,0,0
43439407,1.12127e-09,-0.0,-0.972053,0.01109,0.884196,4.95711e-10,-2.61882e-10,-0.467116,1.0,-1.0,1,0,0,0,0,0,0
43523404,-3.34861e-10,-0.0,-0.949529,0.410554,0.8894,-1.48913e-10,7.65374e-11,-0.457129,1.0,-1.0,1,0,0,0,0,0,0
43628398,0.0,-0.0,-0.865524,1.04405,0.907811,0.0,-0.0,-0.41938,1.0,-1.0,1,0,0,0,0,0,0
43733403,0.0,-0.0,-0.720288,1.50091,0.935846,0.0,-0.0,-0.352409,1.0,-1.0,1,0,0,0,0,0,0
43838402,0.0,-0.0,-0.576844,1.17051,0.958694,0.0,-0.0,-0.28444,1.0,-1.0,1,0,0,0,0,0,0
43943398,0.0,-0.0,-0.53488,0.100773,0.964451,0.0,-0.0,-0.264263,1.0,-1.0,1,0,0,0,0,0,0
44048400,0.0,-0.0,-0.541346,-0.0492954,0.963591,0.0,-0.0,-0.26738,1.0,-1.0,1,0,0,0,0,0,0
44132410,0.0,-0.0,-0.541087,0.00871029,0.963626,0.0,-0.0,-0.267255,1.0,-1.0,1,0,0,0,0,0,0
44237425,0.0,-0.0,-0.539319,0.0340051,0.963862,0.0,-0.0,-0.266403,1.0,-1.0,1,0,0,0,0,0,0
44342424,0.0,-0.0,-0.511155,0.467103,0.967517,0.0,-0.0,-0.252804,1.0,-1.0,1,0,0,0,0,0,0
44447401,0.0,-0.0,-0.418035,1.05824,0.978235,0.0,-0.0,-0.207499,1.0,-1.0,1,0,0,0,0,0,0
44552398,0.0,-0.0,-0.273446,1.46928,0.990668,0.0,-0.0,-0.136298,1.0,-1.0,1,0,0,0,0,0,0
44657404,0.0,-0.0,-0.134856,1.15256,0.997728,0.0,-0.0,-0.0673769,1.0,-1.0,1,0,0,0,0,0,0
44741418,0.0,-0.0,-0.0864471,0.403181,0.999066,0.0,-0.0,-0.0432101,1.0,-1.0,1,0,0,0,0,0,0
44846402,0.000251872,-0.0,-0.0719782,-0.00236,0.999352,0.000125854,-4.53134e-06,-0.0359813,1.0,-1.0,1,0,0,0,0,0,0
44951404,0.0251118,-0.0,-0.0736953,-0.010375,0.999242,0.0125471,-0.000462539,-0.0368364,1.0,-1.0,1,0,0,0,0,0,0
45056409,0.133101,-0.0,-0.073718,0.00273697,0.997109,0.0664564,-0.00245062,-0.0367691,1.0,-1.0,1,0,0,0,0,0,0
45161404,0.205729,-0.0,-0.0736904,-0.00030033,0.994039,0.102613,-0.00378252,-0.0366422,1.0,-1.0,1,0,0,0,0,0,0
45266404,0.10798,-0.0,-0.0737065,-2.83372e-05,0.997865,0.0539272,-0.00198829,-0.0367912,1.0,-1.0,1,0,0,0,0,0,0
45350410,-0.012817,-0.0,-0.0737038,1.87441e-05,0.9993,-0.00640411,0.000236111,-0.0368428,1.0,-1.0,1,0,0,0,0,0,0
45455403,-0.00087099,-0.0,-0.0737036,-3.6947e-06,0.999321,-0.000435199,1.60451e-05,-0.0368435,1.0,-1.0,1,0,0,0,0,0,0
45560404,0.000713626,-0.0,-0.0737037,2.2373e-07,0.999321,0.000356571,-1.31462e-05,-0.0368435,1.0,-1.0,1,0,0,0,0,0,0
45665404,-0.0102034,-0.0,-0.0737037,8.45998e-08,0.999308,-0.00509823,0.000187964,-0.036843,1.0,-1.0,1,0,0,0,0,0,0
45770403,-0.148973,-0.0,-0.0737037,-3.01584e-08,0.99655,-0.0743672,0.00274181,-0.0367413,1.0,-1.0,1,0,0,0,0,0,0
45875404,-0.362638,-0.0,-0.0737037,4.44897e-09,0.982939,-0.180205,0.00664389,-0.0362395,1.0,-1.0,1,0,0,0,0,0,0
45959430,-0.368594,-0.0,-0.0737037,2.15411e-11,0.982398,-0.183131,0.00675177,-0.0362196,1.0,-1.0,1,0,0,0,0,0,0
46064413,-0.290517,-0.0,-0.0737037,-1.76085e-10,0.988797,-0.14465,0.00533303,-0.0364555,1.0,-1.0,1,0,0,0,0,0,0
46169406,-0.13401,-0.0,-0.0737037,4.409e-11,0.997079,-0.0669093,0.00246685,-0.0367608,1.0,-1.0,1,0,0,0,0,0,0
46274404,0.00383608,-0.0,-0.0737037,-4.49475e-12,0.999319,0.00191674,-7.06672e-05,-0.0368434,1.0,-1.0,1,0,0,0,0,0,0
46379403,0.00302782,-0.0,-0.0737037,-5.44052e-13,0.99932,0.00151288,-5.57778e-05,-0.0368435,1.0,-1.0,1,0,0,0,0,0,0
46484404,0.00462175,-0.0,-0.0737037,3.11123e-13,0.999318,0.0023093,-8.51406e-05,-0.0368434,1.0,-1.0,1,0,0,0,0,0,0
46568406,0.100603,-0.0,-0.0737037,-5.85006e-14,0.998057,0.0502462,-0.0018525,-0.0367969,1.0,-1.0,1,0,0,0,0,0,0
46673414,0.200203,-0.0,-0.0737037,2.99275e-15,0.994318,0.0998666,-0.00368193,-0.0366591,1.0,-1.0,1,0,0,0,0,0,0
46778406,0.172852,-0.0,-0.0737037,1.47974e-15,0.995591,0.0862599,-0.00318028,-0.036706,1.0,-1.0,1,0,0,0,0,0,0
46883403,0.031747,-0.0,-0.0737037,-4.92207e-16,0.999195,0.015862,-0.00058481,-0.0368389,1.0,-1.0,1,0,0,0,0,0,0
46988401,0.00108043,-0.0,-0.0737037,6.88139e-17,0.999321,0.000539846,-1.99033e-05,-0.0368435,1.0,-1.0,1,0,0,0,0,0,0
47093436,0.0916286,-0.0,-0.0737037,1.31998e-18,0.998272,0.0457672,-0.00168737,-0.0368048,1.0,-1.0,1,0,0,0,0,0,0
47177407,0.0335899,-0.0,-0.0737037,-2.97529e-18,0.99918,0.0167828,-0.000618757,-0.0368383,1.0,-1.0,1,0,0,0,0,0,0
47282406,-0.00823455,-0.0,-0.0737037,7.08326e-19,0.999313,-0.00411447,0.000151694,-0.0368432,1.0,-1.0,1,0,0,0,0,0,0
47387407,0.00131755,0.0542257,-0.073668,-6.65968e-20,0.998954,0.00165641,0.0270669,-0.03683,1.0,-1.0,1,0,0,0,0,0,0
47492435,0.00457908,0.168663,-0.0733166,-1.01723e-20,0.995767,0.00536696,0.0840914,-0.0367125,1.0,-1.0,1,0,0,0,0,0,0
47597412,4.15596e-05,0.0545657,-0.0737026,5.14834e-21,0.998949,0.00102581,0.0272602,-0.0368298,1.0,-1.0,1,0,0,0,0,0,0
47702404,-0.000184513,-0.0135576,-0.0737024,-9.23199e-22,0.999298,-0.000341941,-0.00677076,-0.0368427,1.0,-1.0,1,0,0,0,0,0,0
47786409,4.54709e-05,0.00136604,-0.0737037,3.80836e-23,0.999321,4.78848e-05,0.000681716,-0.0368435,1.0,-1.0,1,0,0,0,0,0,0
47891407,-4.52439e-06,0.00887541,-0.0737037,2.56846e-23,0.999311,0.00016124,0.00443476,-0.0368431,1.0,-1.0,1,0,0,0,0,0,0
47996407,-5.89475e-07,0.00493261,-0.0737037,-8.01191e-24,0.999318,9.05726e-05,0.00246464,-0.0368434,1.0,-1.0,1,0,0,0,0,0,0
48101414,-0.035022,-0.00105795,-0.0736852,1.05884e-24,0.999168,-0.0175177,0.000116438,-0.0368379,1.0,-1.0,1,0,0,0,0,0,0
48206409,-0.202716,8.02305e-05,-0.0737118,3.71163e-26,0.994192,-0.101114,0.00376829,-0.0366544,1.0,-1.0,1,0,0,0,0,0,0
48311426,-0.166195,1.98761e-05,-0.0737053,-5.00677e-26,0.995873,-0.0829451,0.00306804,-0.0367164,1.0,-1.0,1,0,0,0,0,0,0
48395408,0.0146955,-8.19065e-06,-0.0737038,1.13481e-26,0.999294,0.00734256,-0.000274808,-0.0368425,1.0,-1.0,1,0,0,0,0,0,0
48500413,0.00272263,1.32371e-06,-0.0737037,-9.74911e-28,0.99932,0.00136041,-4.94942e-05,-0.0368435,1.0,-1.0,1,0,0,0,0,0,0
48605434,-0.00125797,-2.35814e-08,-0.0737037,-1.8645e-28,0.999321,-0.00062856,2.31623e-05,-0.0368435,1.0,-1.0,1,0,0,0,0,0,0
48710413,0.000216489,-4.47409e-08,-0.0737037,8.49416e-29,0.999321,0.00010817,-4.01047e-06,-0.0368435,1.0,-1.0,1,0,0,0,0,0,0
48794403,9.58121e-05,9.62252e-09,-0.0737037,0.0,0.999321,4.78737e-05,-1.76022e-06,-0.0368435,1.0,-1.0,1,0,0,0,0,0,0
48794403,9.58121e-05,9.62252e-09,-0.0737037,0.0,0.999321,4.78737e-05,-1.76022e-06,-0.0368435,1.0,-1.0,1,0,0,0,0,0,0
48794403,9.58121e-05,9.62252e-09,-0.0737037,0.0,0.999321,4.78737e-05,-1.76022e-06,-0.0368435,1.0,-1.0,1,0,0,0,0,0,0
48794403,9.58121e-05,9.62252e-09,-0.0737037,0.0,0.999321,4.78737e-05,-1.76022e-06,-0.0368435,1.0,-1.0,1,0,0,0,0,0,0
48794403,9.58121e-05,9.62252e-09,-0.0737037,0.0,0.999321,4.78737e-05,-1.76022e-06,-0.0368435,1.0,-1.0,1,0,0,0,0,0,0
48794403,9.58121e-05,9.62252e-09,-0.0737037,0.0,0.999321,4.78737e-05,-1.76022e-06,-0.0368435,1.0,-1.0,1,0,0,0,0,0,0
48794403,9.58121e-05,9.62252e-09,-0.0737037,0.0,0.999321,4.78737e-05,-1.76022e-06,-0.0368435,1.0,-1.0,1,0,0,0,0,0,0
48794403,9.58121e-05,9.62252e-09,-0.0737037,0.0,0.999321,4.78737e-05,-1.76022e-06,-0.0368435,1.0,-1.0,1,0,0,0,0,0,0
49613403,2.45808e-10,-1.53204e-14,-1.88294e-24,5.80166e-35,1.0,1.22904e-10,-7.6602e-15,0.0,1.0,-1.0,1,0,0,0,0,0,0
49718433,0.0,-0.0,-1.3567e-36,-3.36468e-36,1.0,0.0,-0.0,-6.78348e-37,1.0,-1.0,1,0,0,0,0,0,0
49823402,0.0,-0.0,-1.38473e-36,1.39744e-36,1.0,0.0,-0.0,-6.92367e-37,1.0,-1.0,1,0,0,0,0,0,0
49928404,0.0,-0.0,-1.32557e-36,-2.27445e-37,1.0,0.0,-0.0,-6.62783e-37,1.0,-1.0,1,0,0,0,0,0,0
50033404,0.0,-0.0,-1.33958e-36,4.43388e-39,1.0,0.0,-0.0,-6.69791e-37,1.0,-1.0,1,0,0,0,0,0,0
50138410,0.0,-0.0,-1.33789e-36,7.5901e-39,1.0,0.0,-0.0,-6.68944e-37,1.0,-1.0,1,0,0,0,0,0,0
50222399,0.0,-0.0,-1.33783e-36,-1.67739e-39,1.0,0.0,-0.0,-6.68917e-37,1.0,-1.0,1,0,0,0,0,0,0
50327401,0.0,-0.0,-1.33795e-36,-4.49803e-40,1.0,0.0,-0.0,-6.68975e-37,1.0,-1.0,1,0,0,0,0,0,0
50432409,0.0,-0.0,-1.33793e-36,1.79562e-41,1.0,0.0,-0.0,-6.68966e-37,1.0,-1.0,1,0,0,0,0,0,0
50537407,-0.00201096,6.25703e-21,-6.29132e-24,-1.40186e-41,1.0,-0.00100548,3.12852e-21,1.19461e-31,1.0,-1.0,1,0,0,0,0,0,0
50642409,0.0326434,0.0184245,0.000300754,2.89088e-42,0.999824,0.0163189,0.00921334,-2.70916e-12,1.0,-1.0,1,0,0,0,0,0,0
50747408,0.429543,0.0011818,0.000257793,-1.96182e-43,0.977025,0.213124,0.000604796,1.26401e-11,1.0,-1.0,1,0,0,0,0,0,0
50831410,0.602877,-0.00198227,-0.000616314,-2.69049e-43,0.95491,0.296894,-0.00103793,7.27262e-11,1.0,-1.0,1,0,0,0,0,0,0
50936404,0.517431,3.50922e-05,9.28702e-06,2.94273e-44,0.966719,0.255839,1.81501e-05,-3.794e-13,1.0,-1.0,1,0,0,0,0,0,0
51041407,0.157722,7.11555e-05,5.62307e-06,4.2039e-45,0.996892,0.0787795,3.56887e-05,4.0912e-14,1.0,-1.0,1,0,0,0,0,0,0
51146406,-0.0128178,-4.26516e-06,2.73354e-08,0.0,0.999979,-0.00640887,-2.13262e-06,1.38357e-15,1.0,-1.0,1,0,0,0,0,0,0
51251410,0.00236047,1.67344e-06,1.97506e-09,0.0,0.999999,0.00118024,8.36721e-07,1.81843e-16,1.0,-1.0,1,0,0,0,0,0,0
51356437,-0.000110628,-2.63317e-07,1.45651e-11,0.0,1.0,-5.53139e-05,-1.31658e-07,0.0,1.0,-1.0,1,0,0,0,0,0,0
51440432,-0.000227191,-1.31413e-07,1.49279e-11,0.0,1.0,-0.000113595,-6.57064e-08,0.0,1.0,-1.0,1,0,0,0,0,0,0
51545407,2.14695e-05,2.68416e-08,2.88138e-13,0.0,1.0,1.07347e-05,1.34208e-08,0.0,1.0,-1.0,1,0,0,0,0,0,0
51650426,3.23489e-06,-1.80793e-09,-2.92422e-15,0.0,1.0,1.61745e-06,-9.03963e-10,0.0,1.0,-1.0,1,0,0,0,0,0,0
51755409,-0.051658,-5.6779e-10,1.46687e-11,0.0,0.999666,-0.0258261,-2.8399e-10,4.74369e-19,1.0,-1.0,1,0,0,0,0,0,0
51860553,-0.516776,0.0284142,-0.00751025,0.0,0.966712,-0.255443,0.0146944,2.81214e-10,1.0,-1.0,1,0,0,0,0,0,0
51965409,-0.610682,0.0160034,-0.00504434,0.0,0.953717,-0.300589,0.00838966,3.9361e-11,1.0,-1.0,1,0,0,0,0,0,0
52049404,-0.568246,0.00504711,-0.00147388,0.0,0.959905,-0.280313,0.00262895,-1.29639e-10,1.0,-1.0,1,0,0,0,0,0,0
52154404,-0.22852,-0.000984704,0.000113005,0.0,0.993479,-0.114011,-0.000495584,2.71142e-12,1.0,-1.0,1,0,0,0,0,0,0
52259406,0.0183898,4.90299e-05,4.50837e-07,0.0,0.999958,0.00919475,2.4516e-05,9.36433e-15,1.0,-1.0,1,0,0,0,0,0,0
52364429,0.00313622,2.55806e-05,4.01132e-08,0.0,0.999999,0.00156811,1.27903e-05,1.54057e-15,1.0,-1.0,1,0,0,0,0,0,0
52469403,-0.00150512,-8.40523e-06,6.32545e-09,0.0,1.0,-0.000752561,-4.20262e-06,1.67657e-16,1.0,-1.0,1,0,0,0,0,0,0
52574412,0.00011389,6.85616e-07,3.90423e-11,0.0,1.0,5.69449e-05,3.42808e-07,0.0,1.0,-1.0,1,0,0,0,0,0,0
52658404,-9.54608e-06,2.55892e-08,-1.22138e-13,0.0,1.0,-4.77304e-06,1.27946e-08,0.0,1.0,-1.0,1,0,0,0,0,0,0
52763403,-7.67523e-06,-5.11272e-08,1.96206e-13,0.0,1.0,-3.83761e-06,-2.55636e-08,0.0,1.0,-1.0,1,0,0,0,0,0,0
52868426,2.32384e-06,1.20604e-08,1.40132e-14,0.0,1.0,1.16192e-06,6.03019e-09,0.0,1.0,-1.0,1,0,0,0,0,0,0
52973428,-2.9847e-07,-1.11597e-09,1.66541e-16,0.0,1.0,-1.49235e-07,-5.57983e-10,0.0,1.0,-1.0,1,0,0,0,0,0,0
53015403,-1.93263e-07,-1.07246e-09,1.03633e-16,0.0,1.0,-9.66314e-08,-5.3623e-10,0.0,1.0,-1.0,1,0,0,0,0,0,0
53015403,-1.93263e-07,-1.07246e-09,1.03633e-16,0.0,1.0,-9.66314e-08,-5.3623e-10,0.0,1.0,-1.0,1,0,0,0,0,0,0
53015403,-1.93263e-07,-1.07246e-09,1.03633e-16,0.0,1.0,-9.66314e-08,-5.3623e-10,0.0,1.0,-1.0,1,0,0,0,0,0,0
53015403,-1.93263e-07,-1.07246e-09,1.03633e-16,0.0,1.0,-9.66314e-08,-5.3623e-10,0.0,1.0,-1.0,1,0,0,0,0,0,0
53015403,-1.93263e-07,-1.07246e-09,1.03633e-16,0.0,1.0,-9.66314e-08,-5.3623e-10,0.0,1.0,-1.0,1,0,0,0,0,0,0
53015403,-1.93263e-07,-1.07246e-09,1.03633e-16,0.0,1.0,-9.66314e-08,-5.3623e-10,0.0,1.0,-1.0,1,0,0,0,0,0,0
53015403,-1.93263e-07,-1.07246e-09,1.03633e-16,0.0,1.0,-9.66314e-08,-5.3623e-10,0.0,1.0,-1.0,1,0,0,0,0,0,0
53015403,-1.93263e-07,-1.07246e-09,1.03633e-16,0.0,1.0,-9.66314e-08,-5.3623e-10,0.0,1.0,-1.0,1,0,0,0,0,0,0
53015403,-1.93263e-07,-1.07246e-09,1.03633e-16,0.0,1.0,-9.66314e-08,-5.3623e-10,0.0,1.0,-1.0,1,0,0,0,0,0,0
53015403,-1.93263e-07,-1.07246e-09,1.03633e-16,0.0,1.0,-9.66314e-08,-5.3623e-10,0.0,1.0,-1.0,1,0,0,0,0,0,0
53015403,-1.93263e-07,-1.07246e-09,1.03633e-16,0.0,1.0,-9.66314e-08,-5.3623e-10,0.0,1.0,-1.0,1,0,0,0,0,0,0
53015403,-1.93263e-07,-1.07246e-09,1.03633e-16,0.0,1.0,-9.66314e-08,-5.3623e-10,0.0,1.0,-1.0,1,0,0,0,0,0,0
53015403,-1.93263e-07,-1.07246e-09,1.03633e-16,0.0,1.0,-9.66314e-08,-5.3623e-10,0.0,1.0,-1.0,1,0,0,0,0,0,0
53015403,-1.93263e-07,-1.07246e-09,1.03633e-16,0.0,1.0,-9.66314e-08,-5.3623e-10,0.0,1.0,-1.0,1,0,0,0,0,0,0
53015403,-1.93263e-07,-1.07246e-09,1.03633e-16,0.0,1.0,-9.66314e-08,-5.3623e-10,0.0,1.0,-1.0,1,0,0,0,0,0,0
53015403,-1.93263e-07,-1.07246e-09,1.03633e-16,0.0,1.0,-9.66314e-08,-5.3623e-10,0.0,1.0,-1.0,1,0,0,0,0,0,0
53015403,-1.93263e-07,-1.07246e-09,1.03633e-16,0.0,1.0,-9.66314e-08,-5.3623e-10,0.0,1.0,-1.0,1,0,0,0,0,0,0
53015403,-1.93263e-07,-1.07246e-09,1.03633e-16,0.0,1.0,-9.66314e-08,-5.3623e-10,0.0,1.0,-1.0,1,0,0,0,0,0,0
54905402,0.0,-0.0,0.0,0.0,1.0,0.0,0.0,0.0,1.0,-1.0,1,0,0,0,0,0,0
55010402,0.0,-0.0,0.0,0.0,1.0,0.0,0.0,0.0,1.0,-1.0,1,0,0,0,0,0,0
55094400,0.0,-0.0,0.0,0.0,1.0,0.0,0.0,0.0,1.0,-1.0,1,0,0,0,0,0,0
55199400,0.0,-0.0,0.0,0.0,1.0,0.0,0.0,0.0,1.0,-1.0,1,0,0,0,0,0,0
55304427,0.0,-0.0,0.0,0.0,1.0,0.0,0.0,0.0,1.0,-1.0,1,0,0,0,0,0,0
55409418,-0.0143827,2.38977e-26,-1.71859e-28,0.0,0.999974,-0.00719128,1.19492e-26,8.04665e-36,1.0,-1.0,1,0,0,0,0,0,0
55514404,-0.164492,-3.83674e-27,3.16271e-28,0.0,0.99662,-0.0821535,-1.92488e-27,8.94027e-36,1.0,-1.0,1,0,0,0,0,0,0
55619408,-0.455753,0.00314958,-0.000730402,0.0,0.974147,-0.225909,0.00161658,-5.95048e-11,1.0,-1.0,1,0,0,0,0,0,0
55703408,-0.610846,0.00514372,-0.00162176,0.0,0.953717,-0.300694,0.00269666,-2.59862e-11,1.0,-1.0,1,0,0,0,0,0,0
55808411,-0.602271,-0.000831377,0.00025821,0.0,0.955,-0.296605,-0.000435276,-3.60614e-12,1.0,-1.0,1,0,0,0,0,0,0
55913412,-0.405077,1.49763e-05,-3.07544e-06,0.0,0.979559,-0.201156,7.6444e-06,-6.11367e-15,1.0,-1.0,1,0,0,0,0,0,0
56018426,-0.00854085,2.99631e-05,-1.27956e-07,0.0,0.999991,-0.00427041,1.49817e-05,8.02748e-16,1.0,-1.0,1,0,0,0,0,0,0
56123417,0.0602599,-8.22839e-06,-2.47996e-07,0.0,0.999546,0.0301254,-4.11606e-06,6.37304e-15,1.0,-1.0,1,0,0,0,0,0,0
56228408,0.338066,9.33248e-07,1.59269e-07,0.0,0.985748,0.168229,4.7337e-07,4.93834e-15,1.0,-1.0,1,0,0,0,0,0,0
56312407,0.556755,6.93335e-08,1.98154e-08,0.0,0.961502,0.274796,3.60548e-08,-1.81744e-15,1.0,-1.0,1,0,0,0,0,0,0
56417408,0.610865,-5.17446e-08,-1.6315e-08,0.0,0.953717,0.300706,-2.71279e-08,7.535e-16,1.0,-1.0,1,0,0,0,0,0,0
56522406,0.492819,1.0806e-08,2.71794e-09,0.0,0.969795,0.243923,5.5713e-09,6.34009e-18,1.0,-1.0,1,0,0,0,0,0,0
56627403,0.0387772,-7.57972e-10,-1.46979e-11,0.0,0.999812,0.0193874,-3.79057e-10,2.69611e-19,1.0,-1.0,1,0,0,0,0,0,0
56732405,-0.0192447,-2.38197e-10,2.29208e-12,0.0,0.999954,-0.00962219,-1.19104e-10,-1.67229e-19,1.0,-1.0,1,0,0,0,0,0,0
56837416,0.00430985,8.98337e-11,1.93585e-13,0.0,0.999998,0.00215493,4.4917e-11,-1.38581e-21,1.0,-1.0,1,0,0,0,0,0,0
56921409,-0.000361448,-1.3781e-11,2.49056e-15,0.0,1.0,-0.000180724,-6.89051e-12,0.0,1.0,-1.0,1,0,0,0,0,0,0
57026407,-0.00158128,7.07019e-14,-5.58996e-17,0.0,1.0,-0.000790639,3.53509e-14,-1.59647e-24,1.0,-1.0,1,0,0,0,0,0,0
57131409,-0.0234414,0.102688,-0.0012047,0.0,0.998614,-0.0116741,0.0513251,1.43021e-11,1.0,-1.0,1,0,0,0,0,0,0
57236405,-0.0265764,0.380816,-0.0051227,0.0,0.981844,-0.0125629,0.189276,8.7973e-11,1.0,-1.0,1,0,0,0,0,0,0
57341407,-0.0194865,0.448546,-0.00444521,0.0,0.974912,-0.0090048,0.222408,1.38178e-10,1.0,-1.0,1,0,0,0,0,0,0
57446404,0.00113374,0.157472,8.94507e-05,0.0,0.996902,0.000561595,0.0786544,-6.98069e-12,1.0,-1.0,1,0,0,0,0,0,0
57530414,0.000409636,-0.018627,-3.81525e-06,0.0,0.999957,0.000204791,-0.00931336,1.19973e-14,1.0,-1.0,1,0,0,0,0,0,0
57635407,-0.00014759,-0.00128667,9.49498e-08,0.0,1.0,-7.37951e-05,-0.000643334,5.72168e-15,1.0,-1.0,1,0,0,0,0,0,0
57740407,2.1973e-05,-0.0647503,-7.11628e-07,0.0,0.999476,1.09692e-05,-0.0323695,-1.25885e-14,1.0,-1.0,1,0,0,0,0,0,0
57845414,6.52598e-08,-0.378805,-1.25103e-08,0.0,0.982117,3.08687e-08,-0.188272,-1.83907e-16,1.0,-1.0,1,0,0,0,0,0,0
57950407,-9.45511e-07,-0.524448,2.53779e-07,0.0,0.965816,-4.23701e-07,-0.259229,-1.22819e-14,1.0,-1.0,1,0,0,0,0,0,0
58055404,-0.00659829,-0.3762,0.00125599,0.0,0.982356,-0.00312352,-0.186994,7.31599e-11,1.0,-1.0,1,0,0,0,0,0,0
58139410,-0.0297113,-0.0979046,0.00145571,0.0,0.998692,-0.0148017,-0.0489382,-3.46205e-11,1.0,-1.0,1,0,0,0,0,0,0
58244410,0.00044236,0.0150889,3.33742e-06,0.0,0.999972,0.000221161,0.00754436,7.73637e-14,1.0,-1.0,1,0,0,0,0,0,0
58349436,0.00102277,-9.42979e-05,-4.82227e-08,0.0,1.0,0.000511387,-4.71489e-05,-6.78417e-16,1.0,-1.0,1,0,0,0,0,0,0
58454417,-0.0426881,-0.000554342,1.18337e-05,0.0,0.999772,-0.0213424,-0.000277234,4.14573e-13,1.0,-1.0,1,0,0,0,0,0,0
58559409,-0.218588,0.000143908,-1.57913e-05,0.0,0.994033,-0.109077,7.23861e-05,5.97689e-13,1.0,-1.0,1,0,0,0,0,0,0
58664427,-0.404632,-1.53142e-05,3.14129e-06,0.0,0.979604,-0.200939,-7.81654e-06,1.9166e-13,1.0,-1.0,1,0,0,0,0,0,0
58748433,-0.316529,-1.52144e-06,2.42821e-07,0.0,0.987502,-0.157604,-7.70348e-07,4.43218e-15,1.0,-1.0,1,0,0,0,0,0,0
58853434,-0.0890441,9.9687e-07,-4.4412e-08,0.0,0.999009,-0.0445073,4.98929e-07,8.10574e-16,1.0,-1.0,1,0,0,0,0,0,0
58958404,0.0112641,-1.95291e-07,-1.0999e-09,0.0,0.999984,0.00563203,-9.76472e-08,-5.13673e-17,1.0,-1.0,1,0,0,0,0,0,0
59063408,0.000541026,1.15418e-08,3.12222e-12,0.0,1.0,0.000270513,5.77092e-09,1.23791e-19,1.0,-1.0,1,0,0,0,0,0,0
59168406,-0.000569914,4.54427e-09,-1.29492e-12,0.0,1.0,-0.000284957,2.27213e-09,-6.98286e-20,1.0,-1.0,1,0,0,0,0,0,0
59273430,0.0640176,-1.60062e-09,-5.12514e-11,0.0,0.999488,0.0320033,-8.0072e-10,-8.30845e-20,1.0,-1.0,1,0,0,0,0,0,0
59357408,0.322589,2.3028e-10,3.74683e-11,0.0,0.98702,0.160596,1.16654e-10,-9.12441e-19,1.0,-1.0,1,0,0,0,0,0,0
59462406,0.35191,1.61084e-12,2.86397e-13,0.0,0.98456,0.175049,8.18049e-13,-6.57848e-22,1.0,-1.0,1,0,0,0,0,0,0
59567406,0.0446956,-9.40118e-12,-2.10131e-13,0.0,0.99975,0.0223459,-4.70177e-12,-4.57072e-21,1.0,-1.0,1,0,0,0,0,0,0
59672406,-0.01604,2.3357e-12,-1.87327e-14,0.0,0.999968,-0.00801989,1.16789e-12,-9.20916e-22,1.0,-1.0,1,0,0,0,0,0,0
59777406,0.00237769,-2.35222e-13,-2.79642e-16,0.0,0.999999,0.00118884,-1.17611e-13,2.05985e-23,1.0,-1.0,1,0,0,0,0,0,0
59882405,8.52931e-06,-2.95629e-14,-1.26076e-19,0.0,1.0,4.26466e-06,-1.47814e-14,0.0,1.0,-1.0,1,0,0,0,0,0,0
59966403,-0.000248088,2.9149e-14,-3.61575e-18,0.0,1.0,-0.000124044,1.45745e-14,0.0,1.0,-1.0,1,0,0,0,0,0,0
60071411,2.34836e-05,-3.09065e-15,-3.62897e-20,0.0,1.0,1.17418e-05,-1.54532e-15,0.0,1.0,-1.0,1,0,0,0,0,0,0
60176409,-2.411e-06,1.53384e-16,-1.84904e-22,0.0,1.0,-1.2055e-06,7.66918e-17,0.0,1.0,-1.0,1,0,0,0,0,0,0
60281409,-2.85449e-07,7.93819e-17,-1.13297e-23,0.0,1.0,-1.42724e-07,3.9691e-17,0.0,1.0,-1.0,1,0,0,0,0,0,0
60386403,1.65259e-07,-2.61301e-17,-2.15912e-24,0.0,1.0,8.26297e-08,-1.30651e-17,0.0,1.0,-1.0,1,0,0,0,0,0,0
60491403,-3.12094e-08,3.6215e-18,-5.65123e-26,0.0,1.0,-1.56047e-08,1.81075e-18,0.0,1.0,-1.0,1,0,0,0,0,0,0
60575399,-1.21426e-08,2.13056e-18,-1.29353e-26,0.0,1.0,-6.07132e-09,1.06528e-18,0.0,1.0,-1.0,1,0,0,0,0,0,0
60680402,2.97792e-09,-3.88317e-19,-5.78189e-28,0.0,1.0,1.48896e-09,-1.94158e-19,0.0,1.0,-1.0,1,0,0,0,0,0,0
60785414,-2.61848e-10,3.75095e-20,-4.91089e-30,0.0,1.0,-1.30924e-10,1.87548e-20,0.0,1.0,-1.0,1,0,0,0,0,0,0
60890404,0.0,-0.0,0.0,0.0,1.0,0.0,0.0,0.0,1.0,-1.0,1,0,0,0,0,0,0
60995409,0.0,-0.0,-0.0051218,-0.157318,0.999997,0.0,-0.0,-0.0025609,1.0,-1.0,1,0,0,0,0,0,0
61100409,0.0,-0.0,-0.0283399,-0.276281,0.9999,0.0,-0.0,-0.0141695,1.0,-1.0,1,0,0,0,0,0,0
61184405,0.0,-0.0,-0.0494816,-0.243509,0.999694,0.0,-0.0,-0.0247383,1.0,-1.0,1,0,0,0,0,0,0
61289406,0.0,-0.0,-0.0716561,-0.212679,0.999358,0.0,-0.0,-0.0358204,1.0,-1.0,1,0,0,0,0,0,0
61394401,0.0,-0.0,-0.111045,-0.430932,0.998459,0.0,-0.0,-0.0554939,1.0,-1.0,1,0,0,0,0,0,0
61499404,0.0,-0.0,-0.171066,-0.582525,0.996344,0.0,-0.0,-0.085429,1.0,-1.0,1,0,0,0,0,0,0
61604404,0.0,-0.0,-0.222303,-0.294854,0.993829,0.0,-0.0,-0.110923,1.0,-1.0,1,0,0,0,0,0,0
61709403,0.0,-0.0,-0.237279,0.0294814,0.992971,0.0,-0.0,-0.118362,1.0,-1.0,1,0,0,0,0,0,0
61793398,0.0,-0.0,-0.234955,0.0258671,0.993107,0.0,-0.0,-0.117207,1.0,-1.0,1,0,0,0,0,0,0
61898402,0.0,-0.0,-0.235027,-0.00366628,0.993103,0.0,-0.0,-0.117243,1.0,-1.0,1,0,0,0,0,0,0
62003398,0.0,-0.0,-0.235118,-5.66454e-05,0.993098,0.0,-0.0,-0.117289,1.0,-1.0,1,0,0,0,0,0,0
62108401,0.0,-0.0,-0.235092,0.000155028,0.993099,0.0,-0.0,-0.117276,1.0,-1.0,1,0,0,0,0,0,0
62213410,0.0,-0.0,-0.235095,-1.00925e-05,0.993099,0.0,-0.0,-0.117277,1.0,-1.0,1,0,0,0,0,0,0
62318427,0.0,-0.0,-0.235095,3.3024e-06,0.993099,0.0,-0.0,-0.117277,1.0,-1.0,1,0,0,0,0,0,0
62402400,0.0,-0.0,-0.235095,5.17601e-07,0.993099,0.0,-0.0,-0.117277,1.0,-1.0,1,0,0,0,0,0,0
62507402,0.0,-0.0,-0.234494,0.0143067,0.993134,0.0,-0.0,-0.116979,1.0,-1.0,1,0,0,0,0,0,0
62612406,0.0,-0.0,-0.22701,0.0847436,0.993565,0.0,-0.0,-0.113261,1.0,-1.0,1,0,0,0,0,0,0
62717425,0.0,-0.0,-0.215664,0.112453,0.994192,0.0,-0.0,-0.107623,1.0,-1.0,1,0,0,0,0,0,0
62822403,0.0,-0.0,-0.202699,0.124583,0.994869,0.0,-0.0,-0.101176,1.0,-1.0,1,0,0,0,0,0,0
62927404,0.0,-0.0,-0.194689,0.0284665,0.995266,0.0,-0.0,-0.097191,1.0,-1.0,1,0,0,0,0,0,0
63011405,0.0,-0.0,-0.193194,0.0071291,0.995338,0.0,-0.0,-0.096447,1.0,-1.0,1,0,0,0,0,0,0
63116400,0.0,-0.0,-0.193087,0.000534422,0.995343,0.0,-0.0,-0.0963934,1.0,-1.0,1,0,0,0,0,0,0
63221402,0.0,-0.0,-0.193096,-0.000129524,0.995343,0.0,-0.0,-0.0963982,1.0,-1.0,1,0,0,0,0,0,0
63326401,0.0,-0.0,-0.193097,1.25474e-05,0.995343,0.0,-0.0,-0.0963985,1.0,-1.0,1,0,0,0,0,0,0
63431402,0.0,-0.0,-0.193096,1.76585e-06,0.995343,0.0,-0.0,-0.0963983,1.0,-1.0,1,0,0,0,0,0,0
63536433,0.0,-0.0,-0.193096,-9.31548e-07,0.995343,0.0,-0.0,-0.0963983,1.0,-1.0,1,0,0,0,0,0,0
63620425,0.0,-0.0,-0.193096,1.69911e-07,0.995343,0.0,-0.0,-0.0963983,1.0,-1.0,1,0,0,0,0,0,0
63725403,0.0,-0.0,-0.193096,-7.62195e-09,0.995343,0.0,-0.0,-0.0963983,1.0,-1.0,1,0,0,0,0,0,0
63830404,0.0,-0.0,-0.193096,-4.57081e-09,0.995343,0.0,-0.0,-0.0963983,1.0,-1.0,1,0,0,0,0,0,0
63935398,0.0,-0.0,-0.193096,1.45818e-09,0.995343,0.0,-0.0,-0.0963983,1.0,-1.0,1,0,0,0,0,0,0
64040401,0.0,-0.0,-0.193096,-1.96692e-10,0.995343,0.0,-0.0,-0.0963983,1.0,-1.0,1,0,0,0,0,0,0
64145403,0.0,-0.0,-0.193096,-5.73975e-12,0.995343,0.0,-0.0,-0.0963983,1.0,-1.0,1,0,0,0,0,0,0
64229405,0.0,-0.0,-0.193096,9.00603e-12,0.995343,0.0,-0.0,-0.0963983,1.0,-1.0,1,0,0,0,0,0,0
64334400,0.0,-0.0,-0.193096,-2.07718e-12,0.995343,0.0,-0.0,-0.0963983,1.0,-1.0,1,0,0,0,0,0,0
64439401,0.0,-0.0,-0.193096,1.84525e-13,0.995343,0.0,-0.0,-0.0963983,1.0,-1.0,1,0,0,0,0,0,0
64544597,0.0,-0.0,-0.193096,3.25783e-14,0.995343,0.0,-0.0,-0.0963983,1.0,-1.0,1,0,0,0,0,0,0
64649400,0.0,-0.0,-0.193096,-1.53855e-14,0.995343,0.0,-0.0,-0.0963983,1.0,-1.0,1,0,0,0,0,0,0
64754398,0.0,-0.0,-0.193096,2.67537e-15,0.995343,0.0,-0.0,-0.0963983,1.0,-1.0,1,0,0,0,0,0,0
64838408,0.0,-0.0,-0.193096,-9.24982e-17,0.995343,0.0,-0.0,-0.0963983,1.0,-1.0,1,0,0,0,0,0,0
64943398,0.0,-0.0,-0.193096,-7.89893e-17,0.995343,0.0,-0.0,-0.0963983,1.0,-1.0,1,0,0,0,0,0,0
65048398,0.0,-0.0,-0.193096,2.36954e-17,0.995343,0.0,-0.0,-0.0963983,1.0,-1.0,1,0,0,0,0,0,0
65153408,0.0,-0.0,-0.193096,-3.0155e-18,0.995343,0.0,-0.0,-0.0963983,1.0,-1.0,1,0,0,0,0,0,0
65258401,0.0,-0.0,-0.193096,-1.39375e-19,0.995343,0.0,-0.0,-0.0963983,1.0,-1.0,1,0,0,0,0,0,0
65363406,0.0,-0.0,-0.193096,1.51178e-19,0.995343,0.0,-0.0,-0.0963983,1.0,-1.0,1,0,0,0,0,0,0
65447400,0.0,-0.0,-0.193096,-3.32184e-20,0.995343,0.0,-0.0,-0.0963983,1.0,-1.0,1,0,0,0,0,0,0
65552406,0.0,-0.0,-0.193096,2.67665e-21,0.995343,0.0,-0.0,-0.0963983,1.0,-1.0,1,0,0,0,0,0,0
65657401,0.0,-0.0,-0.193096,5.90955e-22,0.995343,0.0,-0.0,-0.0963983,1.0,-1.0,1,0,0,0,0,0,0
65762400,0.0,-0.0,-0.193096,-2.53374e-22,0.995343,0.0,-0.0,-0.0963983,1.0,-1.0,1,0,0,0,0,0,0
65867423,0.0,-0.0,-0.193096,4.19716e-23,0.995343,0.0,-0.0,-0.0963983,1.0,-1.0,1,0,0,0,0,0,0
65972428,0.0,-0.0,-0.193096,-9.90812e-25,0.995343,0.0,-0.0,-0.0963983,1.0,-1.0,1,0,0,0,0,0,0
66056424,0.0,-0.0,-0.193096,-1.35661e-24,0.995343,0.0,-0.0,-0.0963983,1.0,-1.0,1,0,0,0,0,0,0
66161401,0.0,-0.0,-0.193096,3.84037e-25,0.995343,0.0,-0.0,-0.0963983,1.0,-1.0,1,0,0,0,0,0,0
66266400,0.0,-0.0,-0.193096,-4.5943e-26,0.995343,0.0,-0.0,-0.0963983,1.0,-1.0,1,0,0,0,0,0,0
66371403,0.0,-0.0,-0.193096,-3.00626e-27,0.995343,0.0,-0.0,-0.0963983,1.0,-1.0,1,0,0,0,0,0,0
66476401,0.0,-0.0,-0.193096,2.52847e-27,0.995343,0.0,-0.0,-0.0963983,1.0,-1.0,1,0,0,0,0,0,0
66581423,0.0,-0.0,-0.193096,-5.29693e-28,0.995343,0.0,-0.0,-0.0963983,1.0,-1.0,1,0,0,0,0,0,0
66665406,0.0,-0.0,-0.193096,3.81636e-29,0.995343,0.0,-0.0,-0.0963983,1.0,-1.0,1,0,0,0,0,0,0
66770432,0.0,-0.0,-0.193096,1.05756e-29,0.995343,0.0,-0.0,-0.0963983,1.0,-1.0,1,0,0,0,0,0,0
66875420,0.0,-0.0,-0.193096,-4.16098e-30,0.995343,0.0,-0.0,-0.0963983,1.0,-1.0,1,0,0,0,0,0,0
66980401,0.0,-0.0,-0.193096,6.55877e-31,0.995343,0.0,-0.0,-0.0963983,1.0,-1.0,1,0,0,0,0,0,0
67085401,0.0,-0.0,-0.193096,-7.75407e-33,0.995343,0.0,-0.0,-0.0963983,1.0,-1.0,1,0,0,0,0,0,0
67190417,0.0,-0.0,-0.193096,-2.31709e-32,0.995343,0.0,-0.0,-0.0963983,1.0,-1.0,1,0,0,0,0,0,0
67274404,0.0,-0.0,-0.193096,6.20778e-33,0.995343,0.0,-0.0,-0.0963983,1.0,-1.0,1,0,0,0,0,0,0
67379401,0.0,-0.0,-0.193096,-6.95027e-34,0.995343,0.0,-0.0,-0.0963983,1.0,-1.0,1,0,0,0,0,0,0
67484445,0.0,-0.0,-0.193096,-6.07418e-35,0.995343,0.0,-0.0,-0.0963983,1.0,-1.0,1,0,0,0,0,0,0
67589401,0.0,-0.0,-0.192976,0.0028614,0.995349,0.0,-0.0,-0.0963385,1.0,-1.0,1,0,0,0,0,0,0
67694410,0.0,-0.0,-0.192167,0.00962733,0.995388,0.0,-0.0,-0.0959357,1.0,-1.0,1,0,0,0,0,0,0
67799403,0.0,-0.0,-0.191625,0.00185205,0.995413,0.0,-0.0,-0.0956659,1.0,-1.0,1,0,0,0,0,0,0
67883425,0.0,-0.0,-0.19162,-0.000561417,0.995414,0.0,-0.0,-0.0956637,1.0,-1.0,1,0,0,0,0,0,0
67988426,0.0,-0.0,-0.191397,0.0115178,0.995424,0.0,-0.0,-0.0955523,0.991851,-1.0,1,0,0,0,0,0,0
68093427,0.0,-0.0,-0.188142,0.0404718,0.995579,0.0,-0.0,-0.0939324,0.938766,-1.0,1,0,0,0,0,0,0
68198401,0.0,-0.0,-0.184615,0.0298582,0.995743,0.0,-0.0,-0.0921764,0.883818,-1.0,1,0,0,0,0,0,0
68303400,0.0,-0.0,-0.182212,0.0175832,0.995853,0.0,-0.0,-0.0909803,0.798917,-1.0,1,0,0,0,0,0,0
68408400,0.0,-0.0,-0.180588,0.0139039,0.995926,0.0,-0.0,-0.0901716,0.736875,-1.0,1,0,0,0,0,0,0
68492404,0.0,-0.0,-0.179939,0.00156582,0.995955,0.0,-0.0,-0.0898481,0.74191,-1.0,1,0,0,0,0,0,0
68597429,0.0,-0.0,-0.179926,-0.000652387,0.995956,0.0,-0.0,-0.0898417,0.742517,-1.0,1,0,0,0,0,0,0
68702403,0.0,-0.0,-0.179941,0.000106372,0.995955,0.0,-0.0,-0.0898492,0.742014,-1.0,1,0,0,0,0,0,0
68807408,0.0,-0.0,-0.179936,-2.11851e-06,0.995956,0.0,-0.0,-0.0898466,0.741916,-1.0,1,0,0,0,0,0,0
68912409,0.0,-0.0,-0.179937,-3.53832e-06,0.995956,0.0,-0.0,-0.089847,0.742049,-1.0,1,0,0,0,0,0,0
69017403,0.0,-0.0,-0.179937,9.8379e-07,0.995956,0.0,-0.0,-0.089847,0.742134,-1.0,1,0,0,0,0,0,0
69101406,0.0,-0.0,-0.179937,-1.15274e-07,0.995956,0.0,-0.0,-0.089847,0.742107,-1.0,1,0,0,0,0,0,0
69206403,0.0,-0.0,-0.179937,-8.31814e-09,0.995956,0.0,-0.0,-0.089847,0.741628,-1.0,1,0,0,0,0,0,0
69311412,0.0,-0.0,-0.179937,6.54182e-09,0.995956,0.0,-0.0,-0.089847,0.7418,-1.0,1,0,0,0,0,0,0
69416406,0.0,-0.0,-0.179937,-1.34975e-09,0.995956,0.0,-0.0,-0.089847,0.741965,-1.0,1,0,0,0,0,0,0
69521404,0.0,-0.0,-0.179937,9.34563e-11,0.995956,0.0,-0.0,-0.089847,0.742044,-1.0,1,0,0,0,0,0,0
69626403,0.0,-0.0,-0.179937,2.79155e-11,0.995956,0.0,-0.0,-0.089847,0.742133,-1.0,1,0,0,0,0,0,0
69710406,0.0,-0.0,-0.179937,-1.07042e-11,0.995956,0.0,-0.0,-0.089847,0.741625,-1.0,1,0,0,0,0,0,0
69815404,0.0,-0.0,-0.179937,1.66005e-12,0.995956,0.0,-0.0,-0.089847,0.742282,-1.0,1,0,0,0,0,0,0
69920407,0.0,-0.0,-0.179937,-1.30079e-14,0.995956,0.0,-0.0,-0.089847,0.741997,-1.0,1,0,0,0,0,0,0
70025429,0.0,-0.0,-0.179937,-6.03344e-14,0.995956,0.0,-0.0,-0.089847,0.741535,-1.0,1,0,0,0,0,0,0
70130404,0.0,-0.0,-0.179937,1.58889e-14,0.995956,0.0,-0.0,-0.089847,0.742107,-1.0,1,0,0,0,0,0,0
70235412,0.0,-0.0,-0.179937,-1.73952e-15,0.995956,0.0,-0.0,-0.089847,0.742133,-1.0,1,0,0,0,0,0,0
70319400,0.0,-0.0,-0.179937,-1.36972e-15,0.995956,0.0,-0.0,-0.089847,0.741903,-1.0,1,0,0,0,0,0,0
70424647,0.0,-0.0,-0.179937,1.08922e-16,0.995956,0.0,-0.0,-0.089847,0.742142,-1.0,1,0,0,0,0,0,0
70529428,0.0,-0.0,-0.179937,-2.14371e-17,0.995956,0.0,-0.0,-0.089847,0.742596,-1.0,1,0,0,0,0,0,0
70634401,0.0,-0.0,-0.179937,1.29171e-18,0.995956,0.0,-0.0,-0.089847,0.742419,-1.0,1,0,0,0,0,0,0
70739404,0.0,-0.0,-0.179937,4.92487e-19,0.995956,0.0,-0.0,-0.089847,0.74157,-1.0,1,0,0,0,0,0,0
70844409,0.0,-0.0,-0.179937,-1.75153e-19,0.995956,0.0,-0.0,-0.089847,0.742081,-1.0,1,0,0,0,0,0,0
70928432,0.0,-0.0,-0.179937,-2.30113e-20,0.995956,0.0,-0.0,-0.089847,0.741967,-1.0,1,0,0,0,0,0,0
71033428,0.0,-0.0,-0.179937,1.40377e-20,0.995956,0.0,-0.0,-0.089847,0.742249,-1.0,1,0,0,0,0,0,0
71138430,0.0,-0.0,-0.179937,-1.02384e-21,0.995956,0.0,-0.0,-0.089847,0.741942,-1.0,1,0,0,0,0,0,0
71243403,0.0,-0.0,-0.179937,2.55934e-22,0.995956,0.0,-0.0,-0.089847,0.74174,-1.0,1,0,0,0,0,0,0
71348401,0.0,-0.0,-0.179937,-2.60259e-23,0.995956,0.0,-0.0,-0.089847,0.742451,-1.0,1,0,0,0,0,0,0
71453404,0.0,-0.0,-0.179937,-3.17476e-24,0.995956,0.0,-0.0,-0.089847,0.742078,-1.0,1,0,0,0,0,0,0
71537400,0.0,-0.0,-0.179937,3.20973e-24,0.995956,0.0,-0.0,-0.089847,0.74208,-1.0,1,0,0,0,0,0,0
71642426,0.0,-0.0,-0.179937,3.94976e-26,0.995956,0.0,-0.0,-0.089847,0.741911,-1.0,1,0,0,0,0,0,0
71747400,0.0,-0.0,-0.179937,-1.33148e-25,0.995956,0.0,-0.0,-0.089847,0.742047,-1.0,1,0,0,0,0,0,0
71852448,0.0,-0.0,-0.179937,8.61183e-27,0.995956,0.0,-0.0,-0.089847,0.742113,-1.0,1,0,0,0,0,0,0
71957404,0.0,-0.0,-0.179937,-2.85838e-27,0.995956,0.0,-0.0,-0.089847,0.741905,-1.0,1,0,0,0,0,0,0
72062407,0.0,-0.0,-0.179937,3.98908e-28,0.995956,0.0,-0.0,-0.089847,0.741565,-1.0,1,0,0,0,0,0,0
72146401,0.0,-0.0,-0.179937,2.32621e-28,0.995956,0.0,-0.0,-0.089847,0.7418,-1.0,1,0,0,0,0,0,0
72251398,0.0,-0.0,-0.179937,-4.2651e-29,0.995956,0.0,-0.0,-0.089847,0.742168,-1.0,1,0,0,0,0,0,0
72356398,0.0,-0.0,-0.179937,1.95991e-30,0.995956,0.0,-0.0,-0.089847,0.742108,-1.0,1,0,0,0,0,0,0
72461419,0.0,-0.0,-0.179937,1.13547e-30,0.995956,0.0,-0.0,-0.089847,0.742109,-1.0,1,0,0,0,0,0,0
72566403,0.0,-0.0,-0.179937,-5.93161e-32,0.995956,0.0,-0.0,-0.089847,0.742111,-1.0,1,0,0,0,0,0,0
72671407,0.0,-0.0,-0.179937,2.9911e-32,0.995956,0.0,-0.0,-0.089847,0.74211,-1.0,1,0,0,0,0,0,0
72755424,0.0,-0.0,-0.179937,1.35772e-33,0.995956,0.0,-0.0,-0.089847,0.74211,-1.0,1,0,0,0,0,0,0
72860408,0.0,-0.0,-0.179937,-2.24481e-33,0.995956,0.0,-0.0,-0.089847,0.74211,-1.0,1,0,0,0,0,0,0
72965401,0.0,-0.0,-0.179937,5.20547e-34,0.995956,0.0,-0.0,-0.089847,0.74211,-1.0,1,0,0,0,0,0,0
73070404,0.0,-0.0,-0.179937,-4.67073e-35,0.995956,0.0,-0.0,-0.089847,0.74211,-1.0,1,0,0,0,0,0,0
73175400,0.0,-0.0,-0.179937,-8.0456e-36,0.995956,0.0,-0.0,-0.089847,0.74211,-1.0,1,0,0,0,0,0,0
73280404,0.0,-0.0,-0.179937,2.18467e-37,0.995956,0.0,-0.0,-0.089847,0.741831,-1.0,1,0,0,0,0,0,0
73364401,0.0,-0.0,-0.179937,-6.71833e-37,0.995956,0.0,-0.0,-0.089847,0.742251,-1.0,1,0,0,0,0,0,0
73469412,0.0,-0.0,-0.179937,2.40083e-38,0.995956,0.0,-0.0,-0.089847,0.742198,-1.0,1,0,0,0,0,0,0
73574423,0.0,-0.0,-0.179937,1.96365e-38,0.995956,0.0,-0.0,-0.089847,0.742083,-1.0,1,0,0,0,0,0,0
73679404,0.0,-0.0,-0.179937,-5.92948e-39,0.995956,0.0,-0.0,-0.089847,0.742114,-1.0,1,0,0,0,0,0,0
73784400,0.0,-0.0,-0.179937,7.5956e-40,0.995956,0.0,-0.0,-0.089847,0.741907,-1.0,1,0,0,0,0,0,0
73889430,0.0,-0.0,-0.179937,3.36087e-41,0.995956,0.0,-0.0,-0.089847,0.742251,-1.0,1,0,0,0,0,0,0
73973400,0.0,-0.0,-0.179937,-3.76991e-41,0.995956,0.0,-0.0,-0.089847,0.741994,-1.0,1,0,0,0,0,0,0
74078400,0.0,-0.0,-0.179937,8.33072e-42,0.995956,0.0,-0.0,-0.089847,0.74202,-1.0,1,0,0,0,0,0,0
74183400,0.0,-0.0,-0.179937,-6.7963e-43,0.995956,0.0,-0.0,-0.089847,0.742138,-1.0,1,0,0,0,0,0,0
74288417,0.0,-0.0,-0.179937,-1.47136e-43,0.995956,0.0,-0.0,-0.089847,0.741624,-1.0,1,0,0,0,0,0,0
74393408,0.0,-0.0,-0.179937,6.30584e-44,0.995956,0.0,-0.0,-0.089847,0.741799,-1.0,1,0,0,0,0,0,0
74498418,0.0,-0.0,-0.179937,-9.80909e-45,0.995956,0.0,-0.0,-0.089847,0.742169,-1.0,1,0,0,0,0,0,0
74582419,0.0,-0.0,-0.179937,0.0,0.995956,0.0,-0.0,-0.089847,0.742108,-1.0,1,0,0,0,0,0,0
74687421,0.0,-0.0,-0.179937,0.0,0.995956,0.0,-0.0,-0.089847,0.742592,-1.0,1,0,0,0,0,0,0
74792426,0.0,-0.0,-0.179937,0.0,0.995956,0.0,-0.0,-0.089847,0.742143,-1.0,1,0,0,0,0,0,0
74897408,0.0,-0.0,-0.179937,0.0,0.995956,0.0,-0.0,-0.089847,0.74188,-1.0,1,0,0,0,0,0,0
75002400,0.0,-0.0,-0.179937,0.0,0.995956,0.0,-0.0,-0.089847,0.742053,-1.0,1,0,0,0,0,0,0
75107404,0.0,-0.0,-0.179937,0.0,0.995956,0.0,-0.0,-0.089847,0.741651,-1.0,1,0,0,0,0,0,0
75191400,0.0,-0.0,-0.179937,0.0,0.995956,0.0,-0.0,-0.089847,0.742075,-1.0,1,0,0,0,0,0,0
75296405,0.0,-0.0,-0.179937,0.0,0.995956,0.0,-0.0,-0.089847,0.742341,-1.0,1,0,0,0,0,0,0
75401403,0.0,-0.0,-0.179937,0.0,0.995956,0.0,-0.0,-0.089847,0.742168,-1.0,1,0,0,0,0,0,0
75506400,0.0,-0.0,-0.179937,0.0,0.995956,0.0,-0.0,-0.089847,0.742087,-1.0,1,0,0,0,0,0,0
75611404,0.0,-0.0,-0.179937,0.0,0.995956,0.0,-0.0,-0.089847,0.742114,-1.0,1,0,0,0,0,0,0
75716403,0.0,-0.0,-0.179937,0.0,0.995956,0.0,-0.0,-0.089847,0.741907,-1.0,1,0,0,0,0,0,0
75800423,0.0,-0.0,-0.179937,0.0,0.995956,0.0,-0.0,-0.089847,0.741768,-1.0,1,0,0,0,0,0,0
75905429,0.0,-0.0,-0.179937,0.0,0.995956,0.0,-0.0,-0.089847,0.742166,-1.0,1,0,0,0,0,0,0
76010410,0.0,-0.0,-0.179937,0.0,0.995956,0.0,-0.0,-0.089847,0.742109,-1.0,1,0,0,0,0,0,0
76115405,0.0,-0.0,-0.179937,0.0,0.995956,0.0,-0.0,-0.089847,0.741905,-1.0,1,0,0,0,0,0,0
76220406,0.0,-0.0,-0.179937,0.0,0.995956,0.0,-0.0,-0.089847,0.742048,-1.0,1,0,0,0,0,0,0
76325401,0.0,-0.0,-0.179937,0.0,0.995956,0.0,-0.0,-0.089847,0.742134,-1.0,1,0,0,0,0,0,0
76409432,0.0,-0.0,-0.179937,0.0,0.995956,0.0,-0.0,-0.089847,0.742107,-1.0,1,0,0,0,0,0,0
76514426,0.0,-0.0,-0.179937,0.0,0.995956,0.0,-0.0,-0.089847,0.741832,-1.0,1,0,0,0,0,0,0
76619424,0.0,-0.0,-0.179937,0.0,0.995956,0.0,-0.0,-0.089847,0.741938,-1.0,1,0,0,0,0,0,0
76724424,0.0,-0.0,-0.179937,0.0,0.995956,0.0,-0.0,-0.089847,0.74205,-1.0,1,0,0,0,0,0,0
76829424,0.0,-0.0,-0.179937,0.0,0.995956,0.0,-0.0,-0.089847,0.74165,-1.0,1,0,0,0,0,0,0
76934429,0.0,-0.0,-0.179937,0.0,0.995956,0.0,-0.0,-0.089847,0.742075,-1.0,1,0,0,0,0,0,0
77018428,0.0,-0.0,-0.179937,0.0,0.995956,0.0,-0.0,-0.089847,0.742137,-1.0,1,0,0,0,0,0,0
77123427,0.0,-0.0,-0.179937,0.0,0.995956,0.0,-0.0,-0.089847,0.741826,-1.0,1,0,0,0,0,0,0
77228454,0.0,-0.0,-0.179937,0.0,0.995956,0.0,-0.0,-0.089847,0.742625,-1.0,1,0,0,0,0,0,0
77333401,0.0,-0.0,-0.179937,0.0,0.995956,0.0,-0.0,-0.089847,0.741941,-1.0,1,0,0,0,0,0,0
77438398,0.0,-0.0,-0.179937,0.0,0.995956,0.0,-0.0,-0.089847,0.742019,-1.0,1,0,0,0,0,0,0
77543401,0.0,-0.0,-0.179937,0.0,0.995956,0.0,-0.0,-0.089847,0.74214,-1.0,1,0,0,0,0,0,0
77627413,0.0,-0.0,-0.179937,0.0,0.995956,0.0,-0.0,-0.089847,0.742106,-1.0,1,0,0,0,0,0,0
77732403,0.0,-0.0,-0.179937,0.0,0.995956,0.0,-0.0,-0.089847,0.741628,-1.0,1,0,0,0,0,0,0
77837406,0.0,-0.0,-0.179937,0.0,0.995956,0.0,-0.0,-0.089847,0.742079,-1.0,1,0,0,0,0,0,0
77942423,0.0,-0.0,-0.179937,0.0,0.995956,0.0,-0.0,-0.089847,0.741654,-1.0,1,0,0,0,0,0,0
78047400,0.0,-0.0,-0.179937,0.0,0.995956,0.0,-0.0,-0.089847,0.74159,-1.0,1,0,0,0,0,0,0
78152402,0.0,-0.0,-0.179937,0.0,0.995956,0.0,-0.0,-0.089847,0.742106,-1.0,1,0,0,0,0,0,0
78236404,0.0,-0.0,-0.179937,0.0,0.995956,0.0,-0.0,-0.089847,0.741649,-1.0,1,0,0,0,0,0,0
78341405,0.0,-0.0,-0.179937,0.0,0.995956,0.0,-0.0,-0.089847,0.741591,-1.0,1,0,0,0,0,0,0
78446427,0.0,-0.0,-0.179937,0.0,0.995956,0.0,-0.0,-0.089847,0.742106,-1.0,1,0,0,0,0,0,0
78551411,0.0,-0.0,-0.179937,0.0,0.995956,0.0,-0.0,-0.089847,0.741853,-1.0,1,0,0,0,0,0,0
78656398,0.0,-0.0,-0.179937,0.0,0.995956,0.0,-0.0,-0.089847,0.741933,-1.0,1,0,0,0,0,0,0
78761401,0.0,-0.0,-0.179937,0.0,0.995956,0.0,-0.0,-0.089847,0.74205,-1.0,1,0,0,0,0,0,0
78845425,0.0,-0.0,-0.179937,0.0,0.995956,0.0,-0.0,-0.089847,0.74165,-1.0,1,0,0,0,0,0,0
78950405,0.0,-0.0,-0.179937,0.0,0.995956,0.0,-0.0,-0.089847,0.742075,-1.0,1,0,0,0,0,0,0
79055403,0.0,-0.0,-0.179937,0.0,0.995956,0.0,-0.0,-0.089847,0.742137,-1.0,1,0,0,0,0,0,0
79160404,0.0,-0.0,-0.179937,0.0,0.995956,0.0,-0.0,-0.089847,0.742105,-1.0,1,0,0,0,0,0,0
79265405,0.0,-0.0,-0.179937,0.0,0.995956,0.0,-0.0,-0.089847,0.742315,-1.0,1,0,0,0,0,0,0
79370404,0.0,-0.0,-0.179937,0.0,0.995956,0.0,-0.0,-0.089847,0.742174,-1.0,1,0,0,0,0,0,0
79454406,0.0,-0.0,-0.179937,0.0,0.995956,0.0,-0.0,-0.089847,0.742087,-1.0,1,0,0,0,0,0,0
79559403,0.0,-0.0,-0.179937,0.0,0.995956,0.0,-0.0,-0.089847,0.742114,-1.0,1,0,0,0,0,0,0
79664405,0.0,-0.0,-0.179937,0.0,0.995956,0.0,-0.0,-0.089847,0.74211,-1.0,1,0,0,0,0,0,0
79769403,0.0,-0.0,-0.179937,0.0,0.995956,0.0,-0.0,-0.089847,0.74211,-1.0,1,0,0,0,0,0,0
79874401,0.0,-0.0,-0.179937,0.0,0.995956,0.0,-0.0,-0.089847,0.74211,-1.0,1,0,0,0,0,0,0
79979403,0.0,-0.0,-0.179937,0.0,0.995956,0.0,-0.0,-0.089847,0.741907,-1.0,1,0,0,0,0,0,0
80063404,0.0,-0.0,-0.179937,0.0,0.995956,0.0,-0.0,-0.089847,0.741565,-1.0,1,0,0,0,0,0,0
80168409,0.0,-0.0,-0.179937,0.0,0.995956,0.0,-0.0,-0.089847,0.741823,-1.0,1,0,0,0,0,0,0
80273406,0.0,-0.0,-0.179937,0.0,0.995956,0.0,-0.0,-0.089847,0.741961,-1.0,1,0,0,0,0,0,0
80378403,0.0,-0.0,-0.179937,0.0,0.995956,0.0,-0.0,-0.089847,0.742044,-1.0,1,0,0,0,0,0,0
