timestamp,roll,pitch,yaw,thrust
121634568,0.0104132,0.00202207,6.91872e-07,0.0
121754492,0.0102131,0.00238495,8.10395e-07,0.0
121853511,0.009905,0.000865249,2.91352e-07,0.0
121957510,0.00967678,0.000254128,7.21447e-08,0.0
122057491,0.00933785,0.00048266,1.46876e-07,0.0
122157594,0.0122417,0.000583732,2.40553e-07,0.0
122261550,0.0118547,-0.00224849,-8.81619e-07,0.0
122362499,0.011158,-0.00178891,-0.0238191,0.186732
122461505,0.00832361,-0.0027248,0.0502085,0.484477
122566487,0.00346369,-0.00210295,0.351774,0.528085
122666509,-0.000170477,-0.000369694,0.459531,0.536849
122766513,-0.00279147,0.00197059,0.201072,0.538389
122870494,-0.000549835,0.00271199,0.131115,0.535093
122970475,-6.40786e-07,0.00367774,0.0661088,0.534187
123073545,-0.00460561,7.33807e-06,0.0154489,0.534567
123174492,-0.00609402,-0.00516264,-0.0175443,0.533486
123274601,-0.00801168,-0.00575851,-0.0381255,0.53456
123377492,-0.0019747,0.00118685,-0.0474801,0.534312
123478538,-0.000716491,-0.00069103,-0.046579,0.533511
123581472,-0.00111816,-0.00943865,-0.040632,0.534535
123680404,0.00203893,-0.00875684,-0.0319771,0.492679
123784411,0.0049514,-0.00407998,-0.0199204,0.46107
123881527,0.0040279,-0.00221508,-0.0111405,0.460577
123986545,0.0046487,0.00100967,-0.00239058,0.461784
124086485,0.00867239,-0.00223545,0.00427183,0.464746
124189653,0.00696831,-0.003403,0.00853441,0.46602
124289526,0.00519528,-0.00423338,0.0102694,0.466015
124393510,0.000544393,-0.00376756,0.0119489,0.466437
124493484,0.000969659,-0.00324908,0.0119808,0.46604
124593491,-0.000520335,-0.00160597,0.0109241,0.466011
124697490,0.000105396,-0.00137314,0.00937827,0.466469
124797588,0.001903,-0.00191614,0.00740875,0.466525
124897651,0.00210396,0.00303086,0.00634571,0.465985
125002472,0.00105389,0.00228487,0.00445905,0.466468
125101513,0.000227096,-0.000137122,0.00336401,0.466438
125205475,0.00259257,0.00579905,0.00179752,0.465985
125306538,0.00465266,0.0106593,0.00135368,0.466468
125405527,0.00349749,0.00816977,0.00111512,0.466525
125505546,0.00491803,0.0059619,0.000924269,0.465985
125610478,0.00151184,0.0018839,0.0010527,0.46633
125708290,0.0108132,0.000816426,0.00199612,0.467443
125812336,0.00727669,0.00256392,0.00337445,0.467456
125913472,0.00835743,0.00259878,0.00387864,0.467511
126013511,0.00351739,0.00160093,0.00373153,0.466534
126118564,-0.000479532,-0.0013773,0.00183906,0.466409
126218536,-0.00566259,-0.00420725,0.00151679,0.467466
126321544,-0.0065468,-0.000681545,0.0012046,0.503097
126421516,-0.0044803,0.00010726,0.00094574,0.50479
126521483,-0.00164021,0.000110722,0.00122833,0.50493
126626562,-0.00226944,0.00264663,0.00189779,0.505135
126725490,-0.00265605,0.00161041,0.00156951,0.504904
126829559,-0.00353238,0.000719028,0.000781417,0.50493
126929475,-0.00286976,0.000758619,-0.000352628,0.504931
127029489,-0.00239895,0.00240385,0.000285991,0.504931
127133498,-0.00359183,0.00066869,0.00116903,0.504931
127233486,-0.00265107,-0.000608412,0.00186096,0.504931
127333506,-0.000683397,-0.00251356,0.00138843,0.504931
127437478,-0.00368849,-0.00467645,0.00161782,0.504931
127537507,-0.00491255,-0.00204979,0.00186269,0.504931
127641486,-0.00143993,-0.000818794,0.00158346,0.504931
127741585,-0.000834658,-0.000379734,0.00113986,0.504931
127840196,0.00042431,0.000567569,0.00168715,0.504931
127944327,-0.000370129,0.00653848,0.00184719,0.504931
128045489,0.00103366,0.00134578,0.00167992,0.504931
128145499,-0.004045,-0.00247116,0.00162236,0.504931
128249495,-0.00483238,0.000901968,0.00123184,0.504931
128349525,-0.00426563,0.00110384,0.00174683,0.504931
128453488,-0.00334454,0.00160741,0.00170043,0.504931
128553488,-0.00608019,0.00495253,0.00166168,0.504931
128653514,-0.00564762,0.00746763,0.00119791,0.504931
128757629,-0.00487524,0.00387732,0.00039669,0.504931
128857567,-0.000273506,0.000703177,0.000446941,0.504931
128957487,-0.00674776,-0.00192912,0.000113858,0.504931
129061515,-0.0057698,-0.00180965,-0.000310717,0.504931
129161483,-0.00667536,-0.00353757,-0.000130452,0.504931
129265564,-0.00477335,-0.0038541,0.000256334,0.504931
129365489,-0.00233155,-0.00544852,0.000667195,0.504931
129465486,0.00123994,-0.00344531,0.0010952,0.504931
129569523,-0.000277364,0.00353752,0.00132503,0.504931
129669481,-0.000723633,0.00690851,0.00120513,0.504931
129769505,-0.000683411,0.000194654,0.000950609,0.504931
129873534,0.000355962,-0.000929373,0.00113899,0.504931
129972014,0.00105243,-0.0032856,0.000545374,0.504931
130075991,-0.00127534,-0.00211976,0.000490693,0.504931
130177508,-0.00650308,-0.00648082,0.000174895,0.504931
130277547,-0.00441856,-0.00411754,-0.000601665,0.504931
130381528,-0.00225262,0.000210522,-0.00184562,0.504931
130481502,-0.00172474,-0.00120047,-0.000265166,0.504931
130581547,-0.00154829,-0.00105592,-0.00038786,0.504931
130685645,-0.000931353,-0.000650905,-4.09775e-05,0.504931
130785489,0.0200573,-0.328461,-0.384942,0.302876
130889472,-0.00589444,-0.0822838,-0.350658,0.369264
130989500,-0.00635346,0.0336789,-0.289506,0.409047
131089558,-0.00182192,0.053039,-0.216907,0.434327
131193486,-0.00253718,0.0503978,-0.142745,0.451598
131293627,-0.00470598,0.0299389,-0.0795065,0.463451
131393488,-0.00285779,0.0229155,-0.0303137,0.472761
131497530,-0.0046559,0.0331828,0.00761742,0.48068
131597492,-0.00645267,0.030347,0.0303321,0.487654
131701571,0.00366525,0.0292905,0.0420355,0.494317
131801492,0.000688649,0.0225199,0.0442921,0.501068
131901483,0.00108717,0.0132424,0.0404278,0.507162
132005519,-0.00228608,0.016223,0.0326025,0.513816
132103939,-0.00297271,0.0203877,0.0237297,0.519901
132208488,-0.00950232,0.0163617,0.0143077,0.526286
132309516,-0.0114806,0.019575,0.00666262,0.531421
132409515,-0.00953253,0.00904506,-0.000935755,0.536484
132513540,-0.00540718,0.0108386,-0.00581209,0.540225
132613518,-0.0020701,0.00940255,-0.00862471,0.542788
132713489,0.0106173,-0.00155154,-0.000923938,0.504922
132817526,0.00764718,0.00039027,-0.0028559,0.504931
132917486,0.00112543,-0.00584465,-0.00431766,0.504931
133017521,-0.0020549,-0.00489971,-0.00426099,0.504963
133121490,-0.000980552,-0.00218755,-0.00405195,0.504933
133221520,0.00176864,-0.00112512,-0.00351309,0.504931
133325522,0.00307792,-0.00141844,-0.00236191,0.504931
133425485,0.00324227,0.000746657,-0.000847373,0.504931
133525520,0.00117663,0.00294974,-0.000920082,0.504931
133629483,0.001052,0.00501624,-0.00173563,0.505135
133729507,0.00106522,0.00187323,-0.00309424,0.504904
133829523,0.0020708,-0.000829216,-0.00246144,0.504931
133933532,0.00207413,0.00309153,-0.00279969,0.504931
134034591,0.00246557,0.0029788,-0.00222887,0.504931
134137559,0.00282972,0.00141918,-0.001771,0.504931
134236087,-0.00267671,-0.000923879,-0.000516808,0.506561
134339996,-0.00442668,-0.00190571,0.000228088,0.52432
134441520,-0.000860645,-0.00073239,-8.08249e-05,0.533518
134541484,0.00140972,0.00104335,-0.000579279,0.534798
134641509,0.0022053,0.00269159,-0.000893221,0.549011
134745495,0.001474,0.00286949,-0.000968378,0.562668
134845509,0.00157814,0.00514604,-0.00106062,0.562272
134949483,-0.0050792,0.0119635,-0.000979332,0.562259
135049513,-0.00311417,0.00619617,-0.00111334,0.562965
135149491,0.00952251,-0.0087928,-0.000206633,0.563019
135253648,0.00600239,-0.00324528,0.000158736,0.561524
135353489,2.96673e-05,0.00174726,0.00129305,0.562342
135453488,-0.00110512,-0.00139444,0.000919546,0.561158
135557493,0.00268278,0.000100233,0.00107704,0.561347
135657520,0.00144363,0.00204318,0.00152682,0.56146
135761497,-0.0036797,0.000830118,0.00117968,0.56138
135861471,-0.0021368,0.0002374,0.000906649,0.533177
135961522,-0.00275181,0.00308929,0.000585041,0.532507
136065491,0.00144558,0.00688562,0.00138241,0.532544
136165521,0.00192669,0.00626117,0.00118358,0.532544
136263903,0.00222574,0.00414232,0.000720655,0.532544
136367991,-0.000114948,0.000255118,-0.00051086,0.532544
136471841,-0.00030361,5.79439e-05,-0.00131269,0.532544
136573509,-0.00015836,0.0023089,-3.46236e-05,0.532544
136673528,0.00146134,0.00524543,-0.0001342,0.532544
136773538,-0.00172276,0.00147498,0.000262822,0.532544
136877488,0.00013025,-0.000630617,8.08179e-05,0.532544
136977518,0.00133057,-0.00204793,0.00065091,0.532544
137077527,-0.00413136,-0.00208337,0.000997553,0.532544
137181492,-0.00218141,0.000197303,0.00126621,0.532544
137281515,-0.00138456,-0.00295578,0.00120323,0.532544
137385542,-0.000615124,-0.000156979,0.000875914,0.510155
137485521,0.000901418,-0.00187042,0.000164285,0.500852
137585510,0.000561748,-0.00203194,0.000627564,0.504087
137689528,0.00278376,-0.00376731,1.14154e-05,0.505341
137789512,0.00124176,-0.00321628,0.000552783,0.504937
137889515,-0.000842788,7.41115e-05,-0.000349867,0.504931
137993495,0.000101452,-0.00312284,0.000434008,0.504931
138093518,-0.00201744,-0.000884243,-7.72258e-05,0.504931
138197487,0.00144656,-0.00332932,0.000124731,0.504931
138297558,-0.00967167,0.00554461,0.000429908,0.504931
138395853,-0.0101537,0.0110695,0.000908523,0.504931
138500168,-0.000980693,0.0170985,0.000917664,0.504931
138601520,0.00753241,0.0195541,0.000422061,0.504931
138701544,0.00648846,0.0173698,0.000299284,0.504931
138805514,0.00326383,0.00507005,0.000666321,0.504931
138905485,-0.00192288,-0.00502778,0.000103598,0.504931
139009517,-0.00382049,-0.00981707,0.000413197,0.504931
139109518,0.000706603,-0.00471325,0.000206006,0.504931
139209485,-0.000244133,-0.00143231,0.000211598,0.504931
139313566,0.00394342,0.000190099,-0.000461829,0.504931
139414545,0.0054627,0.000924893,-0.00128351,0.504931
139513509,0.00582079,0.00185848,-0.00117032,0.504931
139617494,0.00380389,0.000212344,-0.000426933,0.504931
139717511,-0.00189194,-0.00259854,0.000318052,0.504931
139821558,-0.00619467,-0.00190698,-0.000331765,0.504931
139921542,-0.00164652,-0.00800171,-0.000598628,0.504931
140021471,0.00465676,-0.0144821,-7.28792e-05,0.504931
140125525,0.004516,-0.00648456,0.000885456,0.504931
140225471,-0.000450901,-0.00303635,0.000707153,0.504931
140325485,-0.00382286,0.00667311,0.00100551,0.504931
140429492,-0.0102516,0.0068097,0.00202631,0.504931
140527787,-0.00562666,0.00237774,0.00131289,0.504931
140631730,-0.00431034,0.000898529,0.00128574,0.504931
140733489,0.00195729,-0.00203325,0.000909433,0.504931
140833525,0.00283385,-0.0010799,0.000391901,0.504931
140937487,0.00472901,0.0023669,0.00083494,0.504931
141037521,0.00363592,0.00493406,0.000359324,0.504931
141137537,0.00483829,0.00280138,0.000420306,0.504931
141241625,0.000521084,0.00445226,0.00106271,0.504931
141341487,0.000439857,-0.000827469,0.00124364,0.504931
141445524,-0.0012946,0.000186542,0.00108591,0.504931
141545489,-0.000712687,-0.000606993,0.00128102,0.504931
141645471,0.000607721,0.00187085,0.000508467,0.504931
141749567,-0.00329201,0.00348041,0.000634441,0.504931
141849495,-0.00190055,0.00450832,0.00142415,0.504931
141949515,0.000310575,0.00287706,0.00183482,0.504931
142053508,-0.00361776,-1.13815e-06,0.00166554,0.504931
142153525,0.000868996,0.000681802,0.00162171,0.504931
142257488,0.00278446,0.00184726,0.00167347,0.504931
142357511,0.0204287,0.0178918,0.00156309,0.504931
142457551,0.0147851,0.00991062,0.00049148,0.504931
142561520,0.00179332,0.000126822,-0.000121664,0.504931
142659835,-0.00565824,-0.00652179,-0.000476074,0.504931
142763572,-0.011754,-0.00897199,-0.000715586,0.504931
142865495,-0.0249385,-0.0186035,1.65653e-05,0.504931
142964488,-0.0198791,-0.0172215,-0.000567193,0.504931
143069490,-0.0152423,-0.0143903,1.00092e-05,0.504931
143169483,-0.00836074,-0.00832705,-0.000408702,0.504931
143272524,-0.00523211,-0.0131724,0.000548064,0.504931
143372472,-0.00371507,-0.0120658,9.48296e-05,0.504931
143472487,-0.00168857,-0.00133009,0.000283021,0.504931
143576516,-0.000879979,-0.00489318,0.000337985,0.504931
143677524,-0.00137795,-0.00243652,0.000560618,0.504931
143777589,-0.0029523,-0.00323285,0.0011394,0.504931
143880476,0.00138445,-0.00142644,0.0010301,0.504931
143980486,-0.000806607,-0.00475745,0.000332394,0.504931
144080545,0.00115535,-0.00336741,0.000413826,0.504931
144185589,0.00228344,-0.00225311,0.000639885,0.504931
144285558,0.00582165,0.00095677,0.00079475,0.504931
144385563,0.00500799,-8.28689e-05,0.00126342,0.504931
144489478,0.0048892,0.00232492,0.00213395,0.504931
144589520,0.000628737,-0.000495996,0.00147484,0.504931
144693483,0.00156666,0.00166606,0.00242002,0.504931
144791576,-0.000621992,0.00365785,0.00206794,0.504931
144895622,0.00101406,0.00133469,0.00195453,0.504931
144996537,0.00291762,-0.00276827,0.0019681,0.504931
145096472,0.000344376,-0.00245647,0.00191066,0.504931
145197484,-0.00068661,-0.00174599,0.00105085,0.504931
145301492,-0.000273718,-0.00261219,0.000912328,0.504931
145401576,0.000980879,-0.000510283,0.000479566,0.504931
145504487,-0.00221697,0.00190898,0.000237492,0.504931
145604488,-0.00047788,0.00099574,0.000285713,0.504931
145708471,0.00126823,0.000700788,8.84487e-05,0.504931
145808486,0.00774944,0.00108335,0.000321736,0.504931
145908530,0.00753421,0.00360103,0.000649661,0.504931
146008515,0.0041123,0.00493366,0.00144438,0.504931
146112485,0.00202769,0.00289483,0.00118745,0.504931
146213539,0.00195175,0.000422107,0.00301947,0.504931
146317584,0.00169083,-0.000603576,0.00248818,0.504931
146416489,-0.0019285,-0.00166357,0.00273664,0.504931
146517486,0.000240249,0.000815684,0.00334739,0.504931
146620516,0.00188584,0.00310619,0.00242205,0.504931
146721745,-0.00169688,0.00538947,0.00277596,0.504931
146823470,-0.00338457,0.00658746,0.00247757,0.504931
146924485,-0.00460994,0.00834571,0.0015969,0.504931
147024482,-0.00330023,0.00922541,0.000179323,0.504931
147128488,-0.00206912,0.00895269,0.000544832,0.504931
147228484,0.00183252,0.00345374,-0.000817135,0.504931
147332487,0.0020755,0.000493661,-8.83207e-05,0.504931
147432485,0.00223838,-0.00150069,-6.18802e-05,0.504931
147532487,2.31218e-06,-0.000927635,0.000665587,0.504931
147632489,0.00149133,-0.00296818,0.00114184,0.504931
147736602,0.00133803,-0.00544555,0.00158127,0.504931
147835384,-0.00045411,-0.00428096,0.00184754,0.504931
147940491,0.00247111,-0.00139197,0.00178848,0.504931
148040489,0.00237461,0.000309941,0.00118424,0.504931
148144531,0.00124486,0.000823008,0.000640033,0.504931
148244488,0.00255316,0.00172682,5.5941e-05,0.504931
148344568,0.000387055,-0.00120607,0.000165149,0.504931
148448474,0.00168382,-0.00137274,-0.000327771,0.504931
148548486,0.00307323,-0.00315024,0.000698927,0.504931
148648491,0.00278624,-0.00235151,0.000969398,0.504931
148753522,0.00174616,-0.00210264,0.000986967,0.504931
148856489,-0.000676333,-0.00355578,0.00137662,0.504931
148955295,0.00305243,-3.38773e-05,0.00141779,0.504931
149059679,0.0015294,0.00104215,0.00133537,0.504931
149163246,-0.000158652,-0.000739066,0.000589328,0.504931
149263325,0.00379036,-0.00375265,6.89181e-05,0.504931
149364476,0.00711834,-0.000850883,-0.00030743,0.504931
149464471,0.00736249,-0.00103488,-0.000464239,0.504931
149564478,0.00309513,-0.00130022,-0.000666224,0.504931
149669566,-0.00153916,-0.00180616,1.75204e-05,0.504931
149769589,-0.00241063,-0.00107658,0.000886182,0.504931
149872491,0.000380909,-0.000536972,0.000311288,0.504931
149969587,0.00155774,-0.000177553,0.000640369,0.504931
150072471,0.00107046,0.00103878,-4.04975e-05,0.504931
150176561,-0.0020306,0.000700517,-0.000332893,0.504931
150276486,-0.000369818,-0.000870672,0.000704651,0.504931
150380471,-0.000789712,-0.00141621,-0.000400472,0.504931
150480488,-5.94169e-06,-0.000104634,0.000901799,0.504931
150580486,0.0018162,0.000243585,0.0015381,0.504931
150685504,0.000936462,0.00118833,0.00130159,0.504931
150785517,-0.00100235,-0.00156595,0.00190561,0.504931
150885479,0.00117617,0.000757516,0.00192293,0.504931
150988491,-0.00233341,-0.00189637,0.00116019,0.504931
151087387,-0.00168646,0.000601574,0.000759332,0.504931
151191484,0.000250058,-0.00071774,0.000365873,0.504931
151292489,0.00166172,-0.00100996,-0.000544207,0.504931
151392486,0.00300523,-0.00263328,-0.000575667,0.504931
151496479,0.00226728,0.00177906,0.000174806,0.504931
151596547,0.00265654,0.00270195,-0.000412479,0.504931
151700484,0.000137833,0.00139518,-0.000445868,0.504931
151801514,0.000308923,0.00187401,0.000611454,0.504931
151900484,0.00033233,0.0029751,0.00181497,0.504931
152004477,0.000968909,-0.000861692,0.00150422,0.504931
152104487,-0.00131759,-0.00229883,0.00131599,0.504931
152204550,-0.000621923,-0.00132526,0.0020364,0.504931
152308505,0.0026613,-0.000134713,0.00297585,0.504931
152408485,-0.00193017,-0.000175514,0.00140362,0.504931
152512501,0.0173412,-1.56014,-0.00651858,0.120075
152612484,0.0271686,-0.906996,-0.00607172,0.12261
152712719,0.0313492,-0.242615,-0.00575907,0.123217
152816541,0.0367543,0.0976626,-0.00539747,0.122617
152916486,0.0320902,0.140853,-0.00497307,0.12227
153016525,0.0244725,0.304709,-0.00563866,0.138595
153120530,-0.0288955,0.69343,-0.00765357,0.262047
153219577,-0.0333927,0.477768,-0.00634794,0.340694
153324493,-0.0115712,0.223053,-0.00399146,0.392602
153424527,0.000755604,0.0879686,-0.00258564,0.42438
153524483,0.00162592,0.0433391,-0.00166833,0.44543
153628605,0.00143491,0.0311154,-0.000414402,0.459768
153728485,0.00771418,0.021421,-0.00102674,0.465988
153828484,0.00279895,0.00961014,-0.000924038,0.465988
153932492,-0.00055487,0.00377495,-0.000923512,0.465988
154032617,-0.00205896,0.00148736,-0.00131886,0.465988
154136487,-0.00156892,0.00114384,-0.00126617,0.465988
154236487,-0.00502164,0.00365869,-6.23739e-05,0.465988
154336511,-0.00526395,0.00547987,0.000185549,0.465988
154440485,-0.00556741,0.00274064,-0.00060427,0.465988
154540488,-0.00495443,0.00438342,-0.00066433,0.465988
154640486,-0.0026935,0.00603738,0.000300258,0.465988
154704492,0.0,0.0,0.0,-1.49401
154704492,0.0,0.0,0.0,-7.49401
154704492,0.0,0.0,0.0,-13.734
154704492,0.0,0.0,0.0,-19.734
154704492,0.0,0.0,0.0,-25.734
154704492,0.0,0.0,0.0,-31.974
154704492,0.0,0.0,0.0,-37.974
154704492,0.0,0.0,0.0,-44.2141
154704492,0.0,0.0,0.0,-50.2141
154704492,0.0,0.0,0.0,-56.2142
154704492,0.0,0.0,0.0,-62.4542
154704492,0.0,0.0,0.0,-68.4542
154704492,0.0,0.0,0.0,-74.4541
154704492,0.0,0.0,0.0,-80.6941
154704492,0.0,0.0,0.0,-86.694
154704492,0.0,0.0,0.0,-92.694
154704492,0.0,0.0,0.0,-98.9339
154704492,0.0,0.0,0.0,-104.934
156572546,0.283454,0.0646757,0.0059136,0.465988
156672527,0.150878,0.0341797,0.00465372,0.465988
156772527,0.051384,0.0113302,0.00410306,0.465988
156876491,-0.00221733,0.00223736,0.0037979,0.465988
156976576,-0.00861839,0.00184364,0.00359114,0.465988
157078475,-0.0198898,-0.00384503,0.00272742,0.465988
157181527,-0.00962103,8.10887e-05,0.000995063,0.465988
157278861,-0.000231434,0.00199231,0.000139803,0.465988
157383411,-0.00260786,-0.00364416,-0.000772015,0.465988
157484492,-0.00779458,-0.00871014,-0.00159355,0.465988
157584483,-0.00396757,-5.91328e-05,-0.00166419,0.465988
157688506,0.00489734,0.00460302,-0.000783028,0.465988
157788488,0.0109318,0.00308376,-0.000725009,0.465988
157888477,0.00867572,0.00352443,-0.000233208,0.465988
157992490,0.00503219,0.00389966,-0.000188807,0.465988
158092488,0.00203441,0.00396156,0.000678252,0.465988
158196485,-0.00199861,-0.000355698,0.000799922,0.465988
158296603,-0.000194738,0.00306959,0.000464042,0.465988
158396486,0.00382534,0.0029819,-0.000286251,0.465988
158500489,0.00264495,0.00168964,0.000416156,0.465988
158600485,0.00159094,0.00270462,0.000521863,0.465988
158700486,0.00345674,0.00315122,0.00109955,0.465988
158804492,0.0014831,0.00133017,0.0011379,0.465988
158904493,-0.00159217,0.00082611,0.00217865,0.465988
159008487,-0.00200231,-0.00378377,0.00131702,0.465988
159108555,0.000943347,0.000212936,0.000359461,0.465988
159208528,0.00374575,0.000269779,0.000921273,0.465988
159312474,0.00407142,0.00255576,0.000762775,0.465988
159410914,0.000247299,0.00407358,0.00096139,0.465988
159514869,-0.0497845,0.0492572,-0.232978,1.0
159616490,-0.0149282,0.0369153,-0.16544,1.0
159716605,-0.00273272,0.019237,-0.190844,1.0
159820486,-0.000112518,0.00741508,-0.197432,1.0
159920490,-0.000116934,0.00112598,-0.193863,1.0
160020488,0.00128109,-0.00177637,-0.184101,1.0
160124641,-0.0027952,-0.00311698,-0.16284,1.0
160224485,-0.00288387,-0.00250243,-0.147055,1.0
160324539,0.000130205,0.000262233,-0.12909,1.0
160428489,-0.000383282,0.00113601,-0.111298,1.0
160528485,0.00167602,0.00179115,-0.0986672,1.0
160632608,-0.000654403,0.00236679,-0.092235,1.0
160732605,0.0011813,0.00272993,-0.0918105,1.0
160832485,0.00080264,0.00115241,-0.086845,1.0
160936485,-0.000479511,0.000710969,-0.0248407,1.0
161036533,-0.00198928,0.00189838,-0.00129314,1.0
161136475,-0.000802378,-0.00305748,-0.00395172,1.0
161240492,0.00419885,-0.000559717,-0.0117235,1.0
161340540,0.00187135,8.56325e-05,-0.0257423,1.0
161444491,0.00212379,0.00126076,-0.0351336,1.0
161542701,0.00658091,6.2258e-05,-0.0229947,1.0
161647009,0.00535396,-0.00158921,-0.0371718,1.0
161748492,0.00444139,-0.00293296,-0.0470168,1.0
161848487,0.00379597,-0.00224343,-0.0960873,1.0
161948486,0.00128335,-0.00343703,-0.0306137,1.0
162052490,0.00307733,-0.00316022,-0.0200938,1.0
162152611,0.00165933,-0.00224156,-0.0108206,1.0
162256492,-0.00191253,0.00111102,-0.00286621,1.0
162356494,-0.000356617,-0.000180128,0.000624213,1.0
162456492,-0.00599899,-0.00291571,0.00334626,1.0
162560623,-0.00036068,-0.00246043,0.00299233,1.0
162660489,0.00312584,-0.0007145,0.00343035,1.0
162760483,0.00108243,0.000822031,0.00196294,1.0
162864516,0.00438614,0.00383479,0.000561999,1.0
162964472,0.00638629,0.00454411,-0.000874729,1.0
163068484,0.00232205,0.00408369,-0.000915448,1.0
163168473,0.00569942,0.00111016,-0.00158962,1.0
163268484,0.00729689,0.000593875,-0.00167125,1.0
163369514,0.00934756,0.00124469,-0.00238769,1.0
163472539,0.00124404,0.00158864,-0.00247961,1.0
163570814,-0.00974512,0.000282054,-0.00411422,1.0
163674812,-0.0092601,0.000620482,-0.00438466,1.0
163778932,-0.00299237,0.0057998,-0.0042914,1.0
163880484,-0.00126587,0.00482974,-0.00437562,1.0
163980487,-0.00378157,0.00337853,-0.00260948,1.0
164080706,-0.00179079,0.00152357,-0.00216752,1.0
164184503,-0.000167103,0.00719667,-0.00209169,1.0
164284485,-0.000732883,0.00808622,-0.00247161,1.0
164384485,-0.00215576,0.00631602,-0.00117052,1.0
164488483,-0.00148615,-0.00039239,-0.00186125,1.0
164588522,-0.00348158,-0.00380686,-0.00210701,1.0
164692482,-0.00156268,0.00533431,-0.00138535,1.0
164792490,0.00111062,0.00374774,-0.00135995,1.0
164892484,0.00581436,-0.000226129,-0.00190159,1.0
164912500,0.0,0.0,0.0,-4.04
164912500,0.0,0.0,0.0,-10.04
164912500,0.0,0.0,0.0,-16.28
164912500,0.0,0.0,0.0,-22.28
164912500,0.0,0.0,0.0,-28.28
164912500,0.0,0.0,0.0,-34.52
164912500,0.0,0.0,0.0,-40.76
164912500,0.0,0.0,0.0,-46.7601
164912500,0.0,0.0,0.0,-53.0001
164912500,0.0,0.0,0.0,-59.0002
164912500,0.0,0.0,0.0,-65.2402
164912500,0.0,0.0,0.0,-71.2401
164912500,0.0,0.0,0.0,-77.2401
164912500,0.0,0.0,0.0,-83.24
164912500,0.0,0.0,0.0,-89.48
164912500,0.0,0.0,0.0,-95.4799
164912500,0.0,0.0,0.0,-101.72
164912500,0.0,0.0,0.0,-107.72
164912500,0.0,0.0,0.0,-113.72
164912500,0.0,0.0,0.0,-119.96
164912500,0.0,0.0,0.0,-125.96
164912500,0.0,0.0,0.0,-131.96
164912500,0.0,0.0,0.0,-138.2
164912500,0.0,0.0,0.0,-144.2
164912500,0.0,0.0,0.0,-150.44
164912500,0.0,0.0,0.0,-156.44
164912500,0.0,0.0,0.0,-162.44
164912500,0.0,0.0,0.0,-168.681
164912500,0.0,0.0,0.0,-174.681
164912500,0.0,0.0,0.0,-180.921
168042611,-0.696077,-0.477451,0.0109398,1.0
168146544,-0.368618,-0.25505,0.0100099,1.0
168247607,-0.127912,-0.0927957,0.00923503,1.0
168347586,-0.0336315,-0.0270244,0.00691946,1.0
168447474,-0.00939655,-0.0102006,0.0037632,1.0
168552494,0.000526256,-0.00039556,0.00198536,1.0
168652508,0.00131063,0.00349184,0.00040545,1.0
168755566,0.000973908,0.000904706,-0.000244892,1.0
168855528,-0.00290456,0.000461508,-0.00129226,1.0
168956525,-0.00395236,-0.00424292,-0.00199002,1.0
169059496,-0.000604079,3.5989e-05,-0.00228128,1.0
169159594,0.000216563,0.00303296,-0.00137919,1.0
169262456,-0.00029194,-0.000115851,-0.0010811,1.0
169363604,-0.000610585,0.00025265,-0.0018989,1.0
169463472,-0.0048386,0.000798811,-0.00106912,1.0
169567512,-0.000837455,-0.000888697,-0.00149542,1.0
169668532,-0.000929249,0.00251497,-0.00286875,1.0
169770565,0.000612296,0.000597758,-0.00322765,1.0
169872515,0.00225549,-0.000719161,-0.00344254,1.0
169971516,-0.00312426,0.00898797,-0.00303312,1.0
170075490,-0.00274505,0.00822341,-0.0022028,1.0
170175475,0.000263367,0.010735,-0.00125373,1.0
170278295,-0.00354734,0.00357799,-0.00111991,1.0
170379487,2.82933e-05,-0.00182265,-0.00152025,1.0
170479576,0.00145702,-0.00233786,-0.00177363,1.0
170579518,0.000944264,-0.00122162,-0.00204767,1.0
170684479,-0.00281936,0.000394645,-0.000891544,1.0
170783488,-3.35323e-05,0.00149808,-0.000126101,1.0
170883491,-0.000540932,-0.0017193,-0.000666038,1.0
170987525,-0.0020668,-0.00248263,-0.00118725,1.0
171087589,-0.00208629,-0.00258942,-0.00106721,1.0
171191482,0.000351474,-0.00235578,-0.000547526,1.0
171291488,0.00076048,-0.00304188,-0.000253354,1.0
171391510,-0.000794683,-0.00302345,-0.000861587,1.0
171495522,0.000988826,-0.000236205,-0.000235094,1.0
171595509,0.00165157,-0.00142484,-0.00116576,1.0
171699485,0.000234895,-0.000793408,-0.00128855,1.0
171799510,-0.00296994,0.00081653,-0.000933585,1.0
171899485,-0.00383554,-0.000489232,-0.000888215,1.0
172003512,-0.00158115,0.000171372,-8.36812e-05,1.0
172103526,0.00369365,0.00115079,-0.000185543,1.0
172206474,4.16509e-05,0.00108097,0.000705407,1.0
172307568,0.000872013,0.00193687,0.000873075,1.0
172409485,-0.000980497,-0.00133607,0.000182331,1.0
172510499,-0.000517018,-0.00213419,-0.000369484,1.0
172611475,-0.00167937,-0.00776578,-7.32201e-05,1.0
172712522,0.000553456,-0.0103253,-0.0001474,1.0
172813510,0.00245437,-0.00417907,-0.000775224,1.0
172914486,0.00251108,-0.00275402,-0.00018288,1.0
173015601,0.000832634,-0.00181815,0.000194313,1.0
173120482,-0.00331682,-0.000202338,-0.000503681,1.0
173218485,1.0698,0.00447296,0.000113712,1.0
173323646,2.79201,0.00563705,-0.00053105,1.0
173424472,1.4606,0.203171,-0.0179018,1.0
173526498,0.511391,0.0431144,-0.0115107,1.0
173623511,-0.0317573,-0.115151,0.0101136,1.0
173729538,-0.422149,-0.0494771,0.00881414,1.0
173830491,-0.9393,-0.0196872,0.00808393,1.0
173932600,-1.51515,-0.00791984,0.00791799,1.0
174033543,-1.5251,-0.00323358,0.00629232,1.0
174135472,-0.707277,0.000498296,0.00522853,1.0
174236488,-0.225189,0.00025578,0.00284634,1.0
174338549,-0.0510439,-0.00155314,0.00203177,1.0
174436471,0.0346779,-0.000841752,0.000652168,1.0
174538550,1.05026,0.000526776,0.000711586,1.0
174639482,0.949576,0.00418849,0.00113284,1.0
174741492,-0.189859,0.00241647,0.00129503,1.0
174843491,-1.45495,0.00487165,0.00261851,1.0
174945546,-1.50729,0.00589172,0.00346173,1.0
175047610,-1.59923,0.00771015,0.00454898,1.0
175148530,-1.23634,0.0045148,0.00406053,1.0
175251533,-0.68163,0.0014198,0.00393902,1.0
175352533,-0.119859,8.71069e-05,0.00329573,1.0
175454488,0.587387,-0.0011373,0.00265414,1.0
175521607,0.0,0.0,0.0,-1.16
175521607,0.0,0.0,0.0,-7.16
175521607,0.0,0.0,0.0,-13.4
175521607,0.0,0.0,0.0,-19.64
175521607,0.0,0.0,0.0,-25.88
175521607,0.0,0.0,0.0,-32.12
175521607,0.0,0.0,0.0,-38.36
175521607,0.0,0.0,0.0,-44.6001
175521607,0.0,0.0,0.0,-50.8401
175521607,0.0,0.0,0.0,-56.8401
175521607,0.0,0.0,0.0,-63.0802
175521607,0.0,0.0,0.0,-69.3202
175521607,0.0,0.0,0.0,-75.5601
175521607,0.0,0.0,0.0,-81.56
175521607,0.0,0.0,0.0,-87.8
175521607,0.0,0.0,0.0,-94.0399
175521607,0.0,0.0,0.0,-100.28
175521607,0.0,0.0,0.0,-106.28
175521607,0.0,0.0,0.0,-112.52
175521607,0.0,0.0,0.0,-118.76
175521607,0.0,0.0,0.0,-125.0
175521607,0.0,0.0,0.0,-131.0
175521607,0.0,0.0,0.0,-137.24
175521607,0.0,0.0,0.0,-143.48
175521607,0.0,0.0,0.0,-149.72
175521607,0.0,0.0,0.0,-155.72
175521607,0.0,0.0,0.0,-161.96
175521607,0.0,0.0,0.0,-168.201
175521607,0.0,0.0,0.0,-174.441
175521607,0.0,0.0,0.0,-180.441
175521607,0.0,0.0,0.0,-186.681
175521607,0.0,0.0,0.0,-192.921
175521607,0.0,0.0,0.0,-198.921
175521607,0.0,0.0,0.0,-205.161
175521607,0.0,0.0,0.0,-211.402
175521607,0.0,0.0,0.0,-217.402
175521607,0.0,0.0,0.0,-223.642
175521607,0.0,0.0,0.0,-229.882
175521607,0.0,0.0,0.0,-236.122
175521607,0.0,0.0,0.0,-242.122
175521607,0.0,0.0,0.0,-248.362
175521607,0.0,0.0,0.0,-254.363
175521607,0.0,0.0,0.0,-260.602
175521607,0.0,0.0,0.0,-266.842
175521607,0.0,0.0,0.0,-273.082
175521607,0.0,0.0,0.0,-279.322
175521607,0.0,0.0,0.0,-285.561
175521607,0.0,0.0,0.0,-291.561
175521607,0.0,0.0,0.0,-297.801
175521607,0.0,0.0,0.0,-304.041
175521607,0.0,0.0,0.0,-310.04
175521607,0.0,0.0,0.0,-316.28
175521607,0.0,0.0,0.0,-322.28
175521607,0.0,0.0,0.0,-328.52
175521607,0.0,0.0,0.0,-334.759
175521607,0.0,0.0,0.0,-340.759
175521607,0.0,0.0,0.0,-346.999
175521607,0.0,0.0,0.0,-353.239
175521607,0.0,0.0,0.0,-359.238
175521607,0.0,0.0,0.0,-365.478
175521607,0.0,0.0,0.0,-371.478
175521607,0.0,0.0,0.0,-377.718
175521607,0.0,0.0,0.0,-383.717
175521607,0.0,0.0,0.0,-389.957
175521607,0.0,0.0,0.0,-396.197
175521607,0.0,0.0,0.0,-402.197
182257511,-3.83972,-0.241288,0.0567796,1.0
182360472,-3.83972,-0.149899,0.0665602,1.0
182460488,-2.98211,-0.0638135,0.0651918,1.0
182563562,-1.12467,-0.0175851,0.0535481,1.0
182662522,-0.33556,-0.00527373,0.0391009,1.0
182765490,-0.000592171,0.0062809,0.0251445,1.0
182864485,0.0536957,0.00640096,0.0132156,1.0
182968493,0.052044,0.00493624,0.00230132,1.0
183067509,0.023467,-0.00098512,-0.00501773,1.0
183170483,-0.00311586,-0.00287898,-0.010217,1.0
183273527,-0.0208915,-0.00479512,-0.0122251,1.0
183373518,-0.0220478,-0.00622388,-0.0117812,1.0
183476476,-0.018853,-0.00557782,-0.0099843,1.0
183575488,-0.00626475,-0.00109136,-0.00772814,1.0
183679512,-0.00335713,-0.000734044,-0.005597,1.0
183778490,-0.0106008,0.00202664,-0.0038101,1.0
183881536,-0.0165802,-0.000409095,-0.00180674,1.0
183979555,-0.0136275,-0.00614561,-0.000303889,1.0
184084483,-0.0106451,-0.00408755,-0.000382774,1.0
184186387,-0.0079188,-0.000595439,0.000145647,1.0
184287489,-0.0101286,-0.00161644,0.000684984,1.0
184390594,0.727711,-0.00525344,0.00107672,1.0
184489656,2.73931,-0.00306213,0.00305936,1.0
184593483,1.59005,-0.00384771,0.00174046,1.0
184692489,-0.404072,-0.00568441,0.00149637,1.0
184795529,-2.81306,-0.00766802,0.000754036,1.0
184895490,-1.55231,-0.00870574,0.000249997,1.0
184998658,-0.217853,-0.014617,0.000645722,1.0
185098484,-0.0532993,-0.0170405,0.000572452,1.0
185202487,-0.0164768,-0.0126116,6.72408e-05,1.0
185301485,0.00269648,-0.00557423,0.00106927,1.0
185404569,0.0109268,0.000147132,0.00211817,1.0
185503605,-0.00920157,0.000430342,0.00250165,1.0
185607490,-0.00901342,-0.00260781,0.00167164,1.0
185706529,-0.00110299,-0.00288526,0.000384503,1.0
185810491,0.000413858,-0.00248499,0.000344453,1.0
185910562,0.0019729,-0.00085021,0.000201238,1.0
186013519,0.000546211,-0.00281723,0.000118616,1.0
186112471,0.00516823,-0.00311148,-0.000403962,1.0
186216477,0.00326103,-0.00462564,-0.0002467,1.0
186315490,0.00263324,-0.00220372,0.00136899,1.0
186419484,0.00128317,-0.00290505,-4.24844e-06,1.0
186518524,0.00217085,-0.000727721,-0.000380197,1.0
186622532,0.00357626,0.00192382,-0.000853816,1.0
186720296,0.00258274,-0.00147629,0.000371568,1.0
186823883,0.00293137,-0.000376699,0.00131337,1.0
186927338,0.00235003,0.00118433,0.002134,1.0
187028495,0.00198311,0.00431589,0.00345936,1.0
187127506,0.00220848,0.00683154,0.003914,1.0
187231522,-0.00645502,0.003966,0.00383975,1.0
187331488,-0.00397051,-0.000389808,0.00229597,1.0
187434492,-0.00113224,-0.000444887,0.0018319,1.0
187534539,0.00629397,-0.00346593,0.00120361,1.0
187637610,0.00399538,-0.00282371,0.000559717,1.0
187737492,0.00140382,0.000401532,0.000576698,1.0
187840517,0.00154603,0.00517609,-0.000142973,1.0
187940488,0.00122049,0.00292825,-0.000578914,1.0
188044608,0.00406156,0.00803164,-0.000523687,1.0
188143606,0.00672179,0.0092399,-0.000603636,1.0
188247495,0.00134427,0.00405008,-0.000860523,1.0
188347538,0.00332651,0.000835837,-0.000287706,1.0
188450493,0.00347175,-0.000967243,0.000150919,1.0
188549487,0.00173455,-0.000323676,0.00118486,1.0
188653522,0.00149892,0.00277033,0.000995909,1.0
188753475,-0.00084076,-0.00246378,0.0011536,1.0
188856472,-0.00336428,-0.00345235,0.000186651,1.0
188957540,-0.00589047,-0.00648635,-0.000517855,1.0
189056654,-0.000881731,-0.0015225,0.000879562,1.0
189159646,0.00290445,0.000969071,0.00117076,1.0
189257871,0.00548209,-0.000408158,0.000148227,1.0
189361569,0.00194337,0.00631961,0.000681747,1.0
189465860,0.000527905,0.00830986,-0.000111734,1.0
189566489,0.000691446,0.00510362,-0.000251551,1.0
189665549,0.00440728,-0.00151279,-0.000454202,1.0
189769520,0.000487225,0.00139602,-0.00012878,1.0
189870522,-0.00327691,-0.00437427,0.000217807,1.0
189970474,0.00137391,-0.00475109,-0.000186572,1.0
190072526,0.00220541,-0.00238152,9.34048e-06,1.0
190172475,0.00529274,-0.00189852,-0.000489184,1.0
190276488,0.0016533,0.000232959,2.80434e-05,1.0
190375511,-0.000138641,0.00216723,-0.000341935,1.0
190479491,-0.000338975,0.00266364,-0.00032038,1.0
190579525,6.63866e-05,0.00251912,-0.0011484,1.0
190682540,0.00121149,0.00208672,-0.0023817,1.0
190782486,0.000520969,-0.00137462,-0.00181163,1.0
190886486,0.000725007,0.00017352,-0.00130012,1.0
190977563,0.0,0.0,0.0,0.52
190977563,0.0,0.0,0.0,-5.72
190977563,0.0,0.0,0.0,-11.72
190977563,0.0,0.0,0.0,-17.72
190977563,0.0,0.0,0.0,-23.96
190977563,0.0,0.0,0.0,-29.96
190977563,0.0,0.0,0.0,-36.2
190977563,0.0,0.0,0.0,-42.2
190977563,0.0,0.0,0.0,-48.4401
190977563,0.0,0.0,0.0,-54.4401
190977563,0.0,0.0,0.0,-60.6802
190977563,0.0,0.0,0.0,-66.6802
190977563,0.0,0.0,0.0,-72.6801
190977563,0.0,0.0,0.0,-78.9201
190977563,0.0,0.0,0.0,-84.92
190977563,0.0,0.0,0.0,-91.16
190977563,0.0,0.0,0.0,-97.1599
190977563,0.0,0.0,0.0,-103.4
190977563,0.0,0.0,0.0,-109.4
190977563,0.0,0.0,0.0,-115.64
190977563,0.0,0.0,0.0,-121.64
190977563,0.0,0.0,0.0,-127.64
190977563,0.0,0.0,0.0,-133.88
190977563,0.0,0.0,0.0,-139.88
190977563,0.0,0.0,0.0,-146.12
190977563,0.0,0.0,0.0,-152.12
190977563,0.0,0.0,0.0,-158.12
190977563,0.0,0.0,0.0,-164.36
190977563,0.0,0.0,0.0,-170.361
190977563,0.0,0.0,0.0,-176.601
190977563,0.0,0.0,0.0,-182.601
190977563,0.0,0.0,0.0,-188.841
190977563,0.0,0.0,0.0,-194.841
190977563,0.0,0.0,0.0,-201.081
190977563,0.0,0.0,0.0,-207.081
190977563,0.0,0.0,0.0,-213.082
190977563,0.0,0.0,0.0,-219.322
190977563,0.0,0.0,0.0,-225.322
190977563,0.0,0.0,0.0,-231.562
190977563,0.0,0.0,0.0,-237.562
190977563,0.0,0.0,0.0,-243.562
190977563,0.0,0.0,0.0,-249.802
190977563,0.0,0.0,0.0,-255.803
190977563,0.0,0.0,0.0,-262.042
190977563,0.0,0.0,0.0,-268.042
190977563,0.0,0.0,0.0,-274.282
190977563,0.0,0.0,0.0,-280.282
190977563,0.0,0.0,0.0,-286.281
190977563,0.0,0.0,0.0,-292.521
190977563,0.0,0.0,0.0,-298.521
190977563,0.0,0.0,0.0,-304.761
190977563,0.0,0.0,0.0,-310.76
190977563,0.0,0.0,0.0,-316.76
190977563,0.0,0.0,0.0,-323.0
190977563,0.0,0.0,0.0,-329.0
190977563,0.0,0.0,0.0,-335.239
190977563,0.0,0.0,0.0,-341.479
190977563,0.0,0.0,0.0,-347.479
190977563,0.0,0.0,0.0,-353.479
190977563,0.0,0.0,0.0,-359.478
190977563,0.0,0.0,0.0,-365.718
190977563,0.0,0.0,0.0,-371.718
190977563,0.0,0.0,0.0,-377.958
190977563,0.0,0.0,0.0,-383.957
190977563,0.0,0.0,0.0,-389.957
190977563,0.0,0.0,0.0,-396.197
190977563,0.0,0.0,0.0,-402.197
190977563,0.0,0.0,0.0,-408.436
190977563,0.0,0.0,0.0,-414.436
190977563,0.0,0.0,0.0,-420.676
190977563,0.0,0.0,0.0,-426.676
190977563,0.0,0.0,0.0,-432.675
190977563,0.0,0.0,0.0,-438.915
190977563,0.0,0.0,0.0,-444.915
190977563,0.0,0.0,0.0,-451.155
190977563,0.0,0.0,0.0,-457.154
190977563,0.0,0.0,0.0,-463.154
190977563,0.0,0.0,0.0,-469.394
190977563,0.0,0.0,0.0,-475.634
190977563,0.0,0.0,0.0,-481.633
190977563,0.0,0.0,0.0,-487.633
190977563,0.0,0.0,0.0,-493.633
190977563,0.0,0.0,0.0,-499.873
190977563,0.0,0.0,0.0,-505.872
190977563,0.0,0.0,0.0,-511.872
190977563,0.0,0.0,0.0,-518.112
190977563,0.0,0.0,0.0,-524.112
190977563,0.0,0.0,0.0,-530.351
190977563,0.0,0.0,0.0,-536.351
190977563,0.0,0.0,0.0,-542.591
190977563,0.0,0.0,0.0,-548.591
190977563,0.0,0.0,0.0,-554.83
190977563,0.0,0.0,0.0,-560.83
190977563,0.0,0.0,0.0,-566.83
190977563,0.0,0.0,0.0,-573.07
190977563,0.0,0.0,0.0,-579.069
190977563,0.0,0.0,0.0,-585.069
200832536,1.2714,-0.586085,-0.0349253,1.0
200930606,0.849141,-0.308767,-0.0298264,1.0
201035204,0.312973,-0.107824,-0.0251664,1.0
201135487,0.0857225,-0.0190811,-0.0195432,1.0
201239527,0.0242506,-0.0535749,-0.0133892,1.0
201339545,-0.0170323,0.0629073,-0.00731768,1.0
201439527,-0.0113465,0.0424923,-0.00192472,1.0
201543487,-0.0045267,0.025689,0.271745,1.0
201643526,-0.0159685,0.0316555,0.363409,1.0
201743495,-0.0360714,0.0460435,0.471989,1.0
201847584,-0.0402759,0.0472297,0.349977,1.0
201947548,-0.0131636,0.024096,0.145266,1.0
202050523,0.0166747,0.0167799,0.059065,1.0
202150493,0.0281691,0.0189399,0.00590295,1.0
202254493,0.028891,0.0149647,-0.0244456,1.0
202354541,-0.272234,0.0097211,-0.039796,1.0
202454569,-0.560786,0.0051577,-0.0439439,1.0
202558486,-0.832347,0.00434351,-0.04156,1.0
202658478,-1.74491,0.0144504,-0.0347623,1.0
202758504,-1.54044,0.0131625,-0.0237734,1.0
202862489,-0.544388,0.00174628,-0.0152148,1.0
202962600,-0.144505,-0.00678603,-0.00738204,1.0
203065520,-0.0179377,-0.00675338,0.000328663,1.0
203164187,-0.000503606,-0.00768196,0.0059379,1.0
203268650,-0.0037007,-0.00829067,0.00850036,1.0
203369489,-0.00709811,-0.0082186,0.009751,1.0
203405486,0.0,0.0,0.0,-2.84
203405486,0.0,0.0,0.0,-9.08
203405486,0.0,0.0,0.0,-15.08
203405486,0.0,0.0,0.0,-21.08
203405486,0.0,0.0,0.0,-27.32
203405486,0.0,0.0,0.0,-33.32
203405486,0.0,0.0,0.0,-39.56
203405486,0.0,0.0,0.0,-45.5601
203405486,0.0,0.0,0.0,-51.5601
203405486,0.0,0.0,0.0,-57.8002
203405486,0.0,0.0,0.0,-63.8002
203405486,0.0,0.0,0.0,-69.8001
203405486,0.0,0.0,0.0,-76.0401
203405486,0.0,0.0,0.0,-82.04
203405486,0.0,0.0,0.0,-88.28
203405486,0.0,0.0,0.0,-94.0399
203405486,0.0,0.0,0.0,-100.28
203405486,0.0,0.0,0.0,-106.52
203405486,0.0,0.0,0.0,-112.52
203405486,0.0,0.0,0.0,-118.76
203405486,0.0,0.0,0.0,-124.76
203405486,0.0,0.0,0.0,-130.76
203405486,0.0,0.0,0.0,-137.0
203405486,0.0,0.0,0.0,-143.0
203405486,0.0,0.0,0.0,-149.0
203405486,0.0,0.0,0.0,-155.24
203405486,0.0,0.0,0.0,-161.24
203405486,0.0,0.0,0.0,-167.241
203405486,0.0,0.0,0.0,-173.481
203405486,0.0,0.0,0.0,-179.481
203405486,0.0,0.0,0.0,-185.721
203405486,0.0,0.0,0.0,-191.721
203405486,0.0,0.0,0.0,-197.721
203405486,0.0,0.0,0.0,-203.961
203405486,0.0,0.0,0.0,-209.962
203405486,0.0,0.0,0.0,-215.962
203405486,0.0,0.0,0.0,-222.202
203405486,0.0,0.0,0.0,-228.202
203405486,0.0,0.0,0.0,-234.442
207429488,3.83972,0.133413,0.0189308,1.0
207531893,2.27955,0.0685281,0.0188702,1.0
207633484,0.83634,0.0216564,0.0168122,1.0
207733563,0.17963,0.00247827,0.0140757,1.0
207833486,-0.0369631,-0.00393559,0.0103776,1.0
207937532,-0.0731599,-0.00415472,0.00708468,1.0
208037488,-0.0357778,-5.63454e-05,0.00592089,1.0
208141525,-0.00768902,-0.00196363,0.00413188,1.0
208241547,0.00994179,-0.00197155,0.00285838,1.0
208341484,0.0104481,-0.00214255,0.00117254,1.0
208445483,1.67122,-0.00218692,-0.000281052,1.0
208545492,2.76811,0.0189936,0.000141577,1.0
208645614,1.20894,0.0124067,-0.000237571,1.0
208749512,-0.575692,-0.0715233,0.00830033,1.0
208849522,-2.50902,-0.0421394,0.00512221,1.0
208953490,-1.4432,-0.0168445,0.00429779,1.0
209053564,-0.496003,-0.00588895,0.00346416,1.0
209153549,-0.114656,-0.00294891,0.00313165,1.0
209257507,-0.00337182,0.000742914,0.00275422,1.0
209357546,0.0167417,-0.00192329,0.00306634,1.0
209456144,-0.0474604,-0.00236685,0.00293356,1.0
209560005,-0.962218,-0.00359172,0.00223286,1.0
209664126,-1.45248,-0.00190867,0.0021283,1.0
209765489,-1.79289,-0.00209393,0.00196647,1.0
209865487,-0.995877,0.000625248,0.00191808,1.0
209965507,-0.307926,0.00116263,0.00302897,1.0
210069543,1.0964,0.00200728,0.00383903,1.0
210170546,1.79336,-0.000486817,0.00358185,1.0
210270489,1.12527,-0.00287506,0.00390851,1.0
210373518,0.230992,-0.00323186,0.00270453,1.0
210473536,-0.178316,-0.00221983,0.00387667,1.0
210577523,-0.230817,-0.0062007,0.00257584,1.0
210677503,-0.183293,-0.0062505,0.00237205,1.0
210777483,-0.105522,-0.00492021,0.00150894,1.0
210881555,-0.0442147,-0.00449313,0.00145649,1.0
210981490,-0.0327097,-0.00307444,0.00176416,1.0
211081665,-0.0583828,-0.00205389,0.000551488,1.0
211186489,0.0163752,-0.00374263,0.000519414,1.0
211285505,0.206697,-0.00288304,0.00111547,1.0
211389482,0.363841,-0.00382607,0.000575074,1.0
211489624,0.473043,-0.00408212,0.00116866,1.0
211588024,0.59049,-0.000496772,0.00235691,1.0
211692106,0.220994,-0.00131634,0.00186799,1.0
211793486,0.0676688,0.000774186,0.00140135,1.0
211893491,0.190408,0.000702468,0.00179288,1.0
211997521,1.26686,0.00079965,0.00249546,1.0
212097549,1.16219,0.00198746,0.0035286,1.0
212201485,0.697776,0.00117276,0.00309222,1.0
212301486,0.966807,-0.00148118,0.00208233,1.0
212401519,0.683616,-0.00498815,0.00122646,1.0
212505473,-0.416717,-0.00177826,0.00147873,1.0
212605519,-1.63443,-0.00323507,0.00135763,1.0
212705548,-1.98245,-0.00410753,0.000813703,1.0
212809572,-1.14805,-0.00370266,0.0011231,1.0
212909486,-0.622978,-0.00417832,0.000885323,1.0
213013509,-0.635362,-0.0036699,0.000629796,1.0
213113485,-1.13435,-0.00218505,0.00054513,1.0
213213488,-1.39347,0.0574457,0.00409574,1.0
213317486,-0.711097,0.0823096,0.00973054,1.0
213417634,0.892178,-0.0727751,-0.00159966,1.0
213517561,1.14725,0.0048738,0.00278681,1.0
213621534,1.25718,0.17267,0.0170058,1.0
213719787,1.29484,0.0534979,0.0183686,1.0
213823953,0.917207,-0.00960821,0.018179,1.0
213925513,0.0996467,-0.156512,0.0150864,1.0
214027856,-0.476221,-0.0997818,0.010206,1.0
214129565,-0.235356,-0.0381443,0.00630691,1.0
214229487,-0.073311,-0.0136344,0.00231068,1.0
214329486,-0.0118222,-0.00540693,-0.00130436,1.0
214433486,0.00279579,7.05611e-05,-0.00243237,1.0
214533524,-0.00139037,0.00543572,-0.00360315,1.0
214637489,0.00189948,0.000554127,-0.00282379,1.0
214737564,0.00216537,0.000639174,-0.00370034,1.0
214837666,0.00179887,-0.00210693,-0.00343796,1.0
214941483,0.00396472,-0.00312623,-0.00262169,1.0
215041515,0.00585323,-0.00304887,-0.00141036,1.0
215141487,0.00607675,-0.00391996,-0.000669524,1.0
215245520,0.00788775,-0.00288345,0.00113637,1.0
215345480,-0.000439395,0.00254799,0.00198971,1.0
215449582,0.00341983,0.0012804,0.00240143,1.0
215549491,-0.00661393,-0.00374484,0.00271888,1.0
215649487,-0.00176558,-0.00384323,0.00158082,1.0
215753486,0.00200726,-0.00616043,0.00142944,1.0
215851774,0.00179533,-0.00795835,0.00214184,1.0
215955534,0.00100003,-0.00615253,0.000731009,1.0
216057489,7.05805e-05,-0.00614009,-0.000491138,1.0
216157658,-0.000486347,-0.00458933,-0.000706612,1.0
216261485,0.00382929,-0.00134039,-0.00123439,1.0
216361523,0.00419603,0.00394024,-0.000918613,1.0
216461487,-0.165247,0.0059554,-0.000652213,1.0
216564481,-0.545016,0.00463001,-0.00132675,1.0
216665611,-1.30675,0.00169902,-0.000740334,1.0
216764604,-1.45135,0.00261439,-0.000303615,1.0
216869491,-0.939784,-0.00290156,0.000996883,1.0
216969486,-0.358146,-0.00561287,0.001234,1.0
217073489,-0.15204,-0.00621594,0.000154411,1.0
217173483,-0.546977,-0.0013897,0.00130433,1.0
217276486,-0.304054,-0.0154733,-0.00122004,1.0
217376525,-0.107735,-0.00643943,-0.00138766,1.0
217477506,-0.0351268,2.26805e-05,-0.00154485,1.0
217580499,-0.0115004,0.00149106,-0.0018077,1.0
217681513,-0.00384714,0.00284532,-0.000847228,1.0
217780527,-0.00724529,0.00205023,-0.000483987,1.0
217884507,-0.00692463,0.000526909,-0.000313862,1.0
217983305,0.0127824,0.00118295,0.000122334,1.0
218087468,0.196216,0.00348721,0.000319134,1.0
218188526,0.311324,0.00464953,0.00118977,1.0
218288488,0.264053,0.00319497,0.00147009,1.0
218392484,0.14633,0.00126245,0.00180387,1.0
218492486,0.0700715,0.0010147,0.00131941,1.0
218592513,0.011161,-0.0021907,0.00175691,1.0
218696492,-0.0445458,-0.00288785,0.001873,1.0
218796523,-0.0375453,-0.000679388,0.00231096,1.0
218900489,-0.0745165,0.00240844,0.00187016,1.0
219000495,-0.104849,-6.94846e-05,0.00168571,1.0
219100484,-0.344293,-0.000259248,0.00130621,1.0
219204537,-0.33712,0.00990049,0.0026957,1.0
219304489,-0.132737,0.00269257,0.0032172,1.0
219404486,0.577701,-0.00423823,0.00217464,1.0
219508491,1.76156,0.0015025,0.00100141,1.0
219608586,2.30509,0.0010952,0.000487619,1.0
219712485,0.951648,0.2528,0.00839769,1.0
219812538,0.306668,-0.136212,0.00299979,1.0
219912486,0.0755025,-0.0748899,0.00392193,1.0
220016484,0.0142966,-0.0272763,0.00237321,1.0
220114767,0.00361016,-0.00596811,0.00181458,1.0
220219104,0.00377985,-0.00273961,0.00109939,1.0
220320486,0.0103799,-0.00227265,0.00100931,1.0
220420550,0.0604288,-0.00175696,0.000746399,1.0
220524549,3.20139,0.000306752,0.000486886,1.0
220624492,1.86372,0.00112376,0.00105171,1.0
220724484,-1.46371,-7.93203e-06,4.56099e-05,1.0
220828486,-2.38017,0.00173117,0.000499939,1.0
220928517,-1.04396,0.000261002,0.00123791,1.0
221026667,-0.325057,0.00015562,0.001359,1.0
221132558,-0.0562087,0.00313668,0.00057123,1.0
221232488,0.0057754,0.00262999,0.000339356,1.0
221336485,0.0177622,0.00218763,-0.00018043,1.0
221436564,0.0156809,-0.00216844,0.000405041,1.0
221536501,0.0172272,0.0024403,0.000757527,1.0
221640486,0.0186474,0.00590633,-0.000413425,1.0
221740549,0.0168846,0.00858835,-0.000368127,1.0
221839513,0.011547,0.000714978,-0.000400142,1.0
221944494,0.00610588,-0.00359702,0.000202248,1.0
222043541,0.00706715,-0.00175016,-0.000720186,1.0
222147520,0.00536636,0.00323449,0.000162281,1.0
222246418,0.00467678,-0.000889588,-0.000234989,1.0
222350901,0.00932138,-0.0046966,-0.000451626,1.0
222452487,0.00852873,-0.00273478,-0.00067322,1.0
222551494,0.00805602,-0.00620615,4.7767e-05,1.0
222655526,-0.0398906,-0.00490831,0.000286093,1.0
222755490,0.00735929,0.00398652,0.00061954,1.0
222855486,0.0367971,0.00160936,0.000724796,1.0
222959484,0.020882,-0.000964132,0.00142856,1.0
223059484,0.0134354,-0.544375,0.00094137,1.0
223163486,0.00652154,-0.174784,0.0014863,1.0
223263602,0.00415418,0.22333,0.00920664,1.0
223363514,0.00332208,0.373176,0.0853178,1.0
223463492,-0.00308428,0.153658,0.0306434,1.0
223567508,0.00135302,0.0470334,0.0202144,1.0
223667487,0.00095771,0.0139279,0.0137026,1.0
223771512,-0.000617702,0.00317111,0.00375824,1.0
223871482,-0.00168531,-0.000635037,-0.000461281,1.0
223975521,-0.00154608,-0.00465702,-0.00522788,1.0
224075477,-0.000369082,0.000451013,-0.00689226,1.0
224175483,0.000401803,0.00198759,-0.00833276,1.0
224279486,-0.000851108,0.00116334,-0.00711718,1.0
224377927,1.53163,0.00122182,-0.00669546,1.0
224481820,2.48798,0.000411115,-0.00481936,1.0
224583499,1.32034,0.00151611,-0.00310837,1.0
224683524,0.447146,-0.000172446,-0.00238031,1.0
224787538,0.10549,0.000791296,-0.00156983,1.0
224887506,0.0117543,-5.33069e-05,-0.000587726,1.0
224987485,-0.00326266,-0.00170781,-0.000121047,1.0
225091507,0.000929856,0.00560466,0.000658186,1.0
225191606,0.00500245,-0.00121984,0.0018809,1.0
225291488,0.00596064,0.00285908,0.00292762,1.0
225395494,0.00306412,0.00445669,0.0023012,1.0
225495483,0.00289264,0.0050925,0.00207667,1.0
225599610,0.00109885,-0.000181094,0.00289598,1.0
225699504,0.00143705,0.000467397,0.00197356,1.0
225799507,0.000233,-0.00240149,0.00176106,1.0
225903501,0.00106645,-0.0018271,0.00275963,1.0
226003508,0.0044364,-0.000110319,0.00179706,1.0
226103471,0.00638025,-0.0097619,0.000855517,1.0
226206516,0.00561182,-0.00244897,0.000291448,1.0
226306486,0.00736796,0.00111146,0.000464091,1.0
226411520,0.00589119,0.00247675,0.00117085,1.0
226510491,0.00348494,0.000958841,0.00114559,1.0
226613249,0.00431111,-0.00126517,0.00082979,1.0
226714491,0.00318578,-0.00108619,0.00125161,1.0
226814543,0.00303677,0.00245604,0.00180655,1.0
226918485,0.00315288,0.00308069,0.0019533,1.0
227018486,0.0014621,0.000925646,0.00111025,1.0
227118487,-0.000225403,-0.00142533,0.00100838,1.0
227222546,-0.00143698,0.00101371,0.00133479,1.0
227322487,-0.00124885,0.000957289,0.0015623,1.0
227426471,-0.000995515,0.000131003,0.00195814,1.0
227526488,-0.000446325,0.00157014,0.00216941,1.0
227626518,5.41745e-05,0.00106213,0.00306652,1.0
227730485,-0.000951382,0.0013296,0.00167398,1.0
227830486,-0.00361913,-0.000730315,0.000956903,1.0
227930488,-0.000621197,0.000297454,0.00105505,1.0
228034564,-0.0029046,0.00104687,0.00034334,1.0
228134482,-0.510597,-0.0105038,0.00247662,1.0
228238490,-3.62354,0.00856194,0.000883005,1.0
228338471,-1.70348,0.00356954,0.000564139,1.0
228438528,-0.66041,-0.000854226,-0.000361446,1.0
228542536,-0.225375,-0.00433051,-0.0014641,1.0
228640906,-0.0459249,-0.00168087,-0.00173804,1.0
228744734,0.00877563,-0.00188247,-0.000897537,1.0
228846494,0.0105014,-0.00107816,0.000571496,1.0
228946483,0.000414486,0.000768629,0.00145288,1.0
229050489,-0.00825312,0.00173076,0.00163778,1.0
229150488,-0.00980003,0.00158152,0.00153877,1.0
229249508,-0.00826112,-0.0053708,0.00161592,1.0
229354490,-0.0123691,-0.0126458,0.00102772,1.0
229453526,-0.0138761,-0.00754813,-4.63482e-05,1.0
229557491,-0.0102615,-0.00788495,0.000606499,1.0
229657504,-0.0102398,-0.00442951,0.000584717,1.0
229757493,-0.0137243,-0.00684498,0.00041661,1.0
229861514,-0.0146538,-0.00914571,0.000349169,1.0
229961490,-0.0121347,-0.0106066,0.00152473,1.0
230065523,-0.0111422,-0.00601074,0.00155642,1.0
230165501,-0.00904266,-0.000615809,0.000836213,1.0
230265475,-0.00774858,0.00121743,0.000574973,1.0
230369490,-0.00363682,0.0016072,0.00018474,1.0
230470536,-0.00559151,0.00348716,-0.000268942,1.0
230541487,0.0,0.0,0.0,-0.68
230541487,0.0,0.0,0.0,-6.92
230541487,0.0,0.0,0.0,-12.92
230541487,0.0,0.0,0.0,-19.16
230541487,0.0,0.0,0.0,-25.16
230541487,0.0,0.0,0.0,-31.16
230541487,0.0,0.0,0.0,-37.4
230541487,0.0,0.0,0.0,-43.4001
230541487,0.0,0.0,0.0,-49.4001
230541487,0.0,0.0,0.0,-55.6401
230541487,0.0,0.0,0.0,-61.6402
230541487,0.0,0.0,0.0,-67.8802
230541487,0.0,0.0,0.0,-73.8801
230541487,0.0,0.0,0.0,-79.8801
230541487,0.0,0.0,0.0,-86.12
230541487,0.0,0.0,0.0,-92.1199
230541487,0.0,0.0,0.0,-98.1199
230541487,0.0,0.0,0.0,-104.36
230541487,0.0,0.0,0.0,-110.36
230541487,0.0,0.0,0.0,-116.6
230541487,0.0,0.0,0.0,-122.6
230541487,0.0,0.0,0.0,-128.6
230541487,0.0,0.0,0.0,-134.84
230541487,0.0,0.0,0.0,-140.84
230541487,0.0,0.0,0.0,-147.08
230541487,0.0,0.0,0.0,-153.08
230541487,0.0,0.0,0.0,-159.08
230541487,0.0,0.0,0.0,-165.32
230541487,0.0,0.0,0.0,-171.321
230541487,0.0,0.0,0.0,-177.561
230541487,0.0,0.0,0.0,-183.561
230541487,0.0,0.0,0.0,-189.561
230541487,0.0,0.0,0.0,-195.801
230541487,0.0,0.0,0.0,-201.801
230541487,0.0,0.0,0.0,-207.801
230541487,0.0,0.0,0.0,-214.042
230541487,0.0,0.0,0.0,-220.042
230541487,0.0,0.0,0.0,-226.282
230541487,0.0,0.0,0.0,-232.282
230541487,0.0,0.0,0.0,-238.282
234632472,0.0728734,0.0756353,-0.0225535,1.0
234732521,0.0298632,0.030908,-0.0192027,1.0
234832498,0.00489663,0.0100519,-0.014806,1.0
234936488,-0.00416495,0.00411461,-0.0106485,1.0
235034961,-0.000616528,0.000739058,-0.00628923,1.0
235138747,0.00274704,0.00618405,-0.00450887,1.0
235240488,0.00418003,0.00804551,-0.00252699,1.0
235340487,0.0102263,0.0083811,-0.000292191,1.0
235444485,0.0156728,0.00680558,0.000438937,1.0
235544482,0.0106791,0.00152806,0.000978281,1.0
235644509,0.0108948,0.00227734,0.00217067,1.0
235748493,0.0137862,0.00353516,0.00145418,1.0
235847479,0.0140887,0.00155345,0.000947586,1.0
235952487,0.0134452,0.00188128,0.000454256,1.0
236052491,0.0145539,-0.000294636,0.00052118,1.0
236155513,0.015402,0.000991433,0.00135031,1.0
236255529,0.0195719,0.0031073,-3.55117e-05,1.0
236355493,0.0180525,0.004099,8.8954e-05,1.0
236459495,0.0130065,0.00178328,0.000124085,1.0
236559488,0.0123213,-0.00110814,0.00036156,1.0
236659514,0.0115473,-0.00236436,-0.000441271,1.0
236763482,0.0144015,-0.000592181,0.000191395,1.0
236863556,-3.83972,-0.14051,0.117553,0.125874
236967480,-2.64919,-0.0968793,0.108195,0.155592
237067505,-1.02906,-0.072576,0.0823475,0.167568
237165978,-0.296192,-0.0443029,0.0553369,0.169525
237269959,-0.058385,-0.0413063,0.0244059,0.169695
237371484,-0.00423292,-0.0331596,0.000548027,0.169703
237471484,0.00736875,-0.0381692,-0.0221665,0.169703
237575496,0.0064944,-0.0304624,-0.036096,0.169704
237675485,0.00436773,-0.0334686,-0.0476789,0.218151
237779484,0.764018,0.00771502,-0.0334202,0.348897
237879486,1.57975,0.0565079,-0.00940713,0.391056
237903521,0.0,0.0,0.0,-4.15638
237903521,0.0,0.0,0.0,-10.3964
237903521,0.0,0.0,0.0,-16.3964
237903521,0.0,0.0,0.0,-22.3964
237903521,0.0,0.0,0.0,-28.6364
237903521,0.0,0.0,0.0,-34.6364
237903521,0.0,0.0,0.0,-40.8764
237903521,0.0,0.0,0.0,-46.8765
237903521,0.0,0.0,0.0,-52.8765
237903521,0.0,0.0,0.0,-59.1165
237903521,0.0,0.0,0.0,-65.1166
237903521,0.0,0.0,0.0,-71.3565
237903521,0.0,0.0,0.0,-77.3565
237903521,0.0,0.0,0.0,-83.3564
237903521,0.0,0.0,0.0,-89.5964
237903521,0.0,0.0,0.0,-95.8363
237903521,0.0,0.0,0.0,-101.836
237903521,0.0,0.0,0.0,-107.836
237903521,0.0,0.0,0.0,-113.836
237903521,0.0,0.0,0.0,-119.836
237903521,0.0,0.0,0.0,-126.076
237903521,0.0,0.0,0.0,-132.076
237903521,0.0,0.0,0.0,-138.316
237903521,0.0,0.0,0.0,-144.316
237903521,0.0,0.0,0.0,-150.557
237903521,0.0,0.0,0.0,-156.317
237903521,0.0,0.0,0.0,-162.557
237903521,0.0,0.0,0.0,-168.797
237903521,0.0,0.0,0.0,-174.797
237903521,0.0,0.0,0.0,-180.797
237903521,0.0,0.0,0.0,-186.797
237903521,0.0,0.0,0.0,-193.037
237903521,0.0,0.0,0.0,-199.278
237903521,0.0,0.0,0.0,-205.278
237903521,0.0,0.0,0.0,-211.518
237903521,0.0,0.0,0.0,-217.518
237903521,0.0,0.0,0.0,-223.518
237903521,0.0,0.0,0.0,-229.758
237903521,0.0,0.0,0.0,-235.758
237903521,0.0,0.0,0.0,-241.999
237903521,0.0,0.0,0.0,-247.999
237903521,0.0,0.0,0.0,-253.999
237903521,0.0,0.0,0.0,-260.239
237903521,0.0,0.0,0.0,-266.239
237903521,0.0,0.0,0.0,-272.238
237903521,0.0,0.0,0.0,-278.478
237903521,0.0,0.0,0.0,-284.478
237903521,0.0,0.0,0.0,-290.478
237903521,0.0,0.0,0.0,-296.717
237903521,0.0,0.0,0.0,-302.717
237903521,0.0,0.0,0.0,-308.957
237903521,0.0,0.0,0.0,-314.957
237903521,0.0,0.0,0.0,-320.956
237903521,0.0,0.0,0.0,-327.196
237903521,0.0,0.0,0.0,-333.196
237903521,0.0,0.0,0.0,-339.196
237903521,0.0,0.0,0.0,-345.435
237903521,0.0,0.0,0.0,-351.435
237903521,0.0,0.0,0.0,-357.675
237903521,0.0,0.0,0.0,-363.675
237903521,0.0,0.0,0.0,-369.914
237903521,0.0,0.0,0.0,-375.914
237903521,0.0,0.0,0.0,-381.914
237903521,0.0,0.0,0.0,-387.914
237903521,0.0,0.0,0.0,-394.153
237903521,0.0,0.0,0.0,-400.153
237903521,0.0,0.0,0.0,-406.393
237903521,0.0,0.0,0.0,-412.393
237903521,0.0,0.0,0.0,-418.632
237903521,0.0,0.0,0.0,-424.632
237903521,0.0,0.0,0.0,-430.632
237903521,0.0,0.0,0.0,-436.872
237903521,0.0,0.0,0.0,-442.871
237903521,0.0,0.0,0.0,-448.871
237903521,0.0,0.0,0.0,-455.111
237903521,0.0,0.0,0.0,-461.111
237903521,0.0,0.0,0.0,-467.35
237903521,0.0,0.0,0.0,-473.35
237903521,0.0,0.0,0.0,-479.35
237903521,0.0,0.0,0.0,-485.59
237903521,0.0,0.0,0.0,-491.589
237903521,0.0,0.0,0.0,-497.829
237903521,0.0,0.0,0.0,-503.829
237903521,0.0,0.0,0.0,-509.829
237903521,0.0,0.0,0.0,-516.068
237903521,0.0,0.0,0.0,-522.068
237903521,0.0,0.0,0.0,-528.068
237903521,0.0,0.0,0.0,-534.308
237903521,0.0,0.0,0.0,-540.307
237903521,0.0,0.0,0.0,-546.547
237903521,0.0,0.0,0.0,-552.547
247215497,-3.24503,0.358797,-0.413121,0.40379
247320586,-0.610208,0.170749,-0.40247,1.0
247420531,-0.296861,0.0770393,-0.342774,1.0
247523638,-0.157357,0.0294066,-0.261098,1.0
247623472,-0.0820329,0.00868347,-0.181749,1.0
247723525,-0.0167684,-0.0042522,-0.109799,1.0
247827586,-0.00243737,-0.00326546,-0.0486724,1.0
247927533,-0.00571297,0.000690911,-0.0059677,1.0
248022090,-0.00210358,-0.000860002,0.0223153,1.0
248131513,-0.00122994,5.82495e-05,0.0388842,1.0
248229900,0.00248753,-0.00498879,0.0427256,1.0
248335524,0.000805735,-0.00474112,0.0402909,1.0
248435489,-0.000843854,-0.0065844,0.0316223,1.0
248535486,-0.00239998,-0.00554092,0.022192,1.0
248639505,0.00273859,-0.00765831,0.0120616,1.0
248739489,0.00535167,-0.00678637,0.00351174,1.0
248839523,0.00286909,-0.00397122,-0.00260195,1.0
248943492,0.00667678,-0.00611277,-0.00730664,1.0
249043576,0.0069459,-0.00278817,-0.0101196,1.0
249147500,0.00412694,-0.00538077,-0.0111783,1.0
249247624,0.00226061,-0.00698715,-0.0114367,1.0
249347562,-0.777778,-0.0864414,-0.0140767,0.726248
249451511,-0.444897,-0.0517608,-0.0128902,0.645443
249551508,-0.142519,-0.0227052,-0.0115123,0.593323
249654487,-0.0241012,-0.0171756,-0.00788668,0.557923
249755492,0.0346868,-0.01151,-0.00624665,0.535301
249854487,0.0632347,-0.00850105,-0.00344947,0.520007
249958492,0.0665997,3.496e-05,-0.00157994,0.508837
250058539,0.0679918,-0.00143735,-0.000107021,0.501201
250162485,0.10054,0.00125641,0.000477903,0.49601
250262492,0.112277,0.0103169,0.000781628,0.491912
250361325,0.107808,0.00487351,7.15066e-05,0.489051
250465146,0.113823,0.00475423,0.000357096,0.487037
250566535,0.103786,0.00732822,0.000891691,0.485691
250666541,0.111425,0.0114389,-0.000154789,0.484787
250770546,0.0973105,0.00633151,-6.94563e-05,0.484069
250870487,0.0937414,0.0103411,-0.00140489,0.483371
250974485,0.0941534,0.00560994,-0.0019355,0.482973
251074486,0.0865344,0.0119327,-0.00292417,0.482964
251174518,0.0722707,0.00887155,-0.00378689,0.48329
251278486,0.070905,0.0113641,-0.00511937,0.483266
251378484,0.0723043,0.00939523,-0.00420578,0.483442
251478479,0.0585496,0.0138246,-0.00360312,0.483584
251581511,0.0469558,0.0101591,-0.00461607,0.483783
251682489,0.0483594,0.0114181,-0.00357814,0.48401
251782478,0.0301344,0.00549018,-0.00337817,0.484278
251886482,0.0230024,0.0110886,-0.00274521,0.484716
251926563,0.0,0.0,0.0,-3.11552
251926563,0.0,0.0,0.0,-9.35551
251926563,0.0,0.0,0.0,-15.3555
251926563,0.0,0.0,0.0,-21.3555
251926563,0.0,0.0,0.0,-27.5955
251926563,0.0,0.0,0.0,-33.5955
251926563,0.0,0.0,0.0,-39.8355
251926563,0.0,0.0,0.0,-46.0756
251926563,0.0,0.0,0.0,-52.0756
251926563,0.0,0.0,0.0,-58.0757
251926563,0.0,0.0,0.0,-64.0757
251926563,0.0,0.0,0.0,-70.3157
251926563,0.0,0.0,0.0,-76.3156
251926563,0.0,0.0,0.0,-82.3156
251926563,0.0,0.0,0.0,-88.5555
251926563,0.0,0.0,0.0,-94.5554
251926563,0.0,0.0,0.0,-100.795
251926563,0.0,0.0,0.0,-106.795
251926563,0.0,0.0,0.0,-112.795
251926563,0.0,0.0,0.0,-119.035
251926563,0.0,0.0,0.0,-125.035
251926563,0.0,0.0,0.0,-131.035
251926563,0.0,0.0,0.0,-137.275
254321482,-0.636429,-0.124084,0.0106627,1.0
254425506,-0.336218,-0.0689443,0.00980795,1.0
254525520,-0.108937,-0.0274014,0.00882206,1.0
254623614,-0.0241314,-0.0116582,0.0069736,1.0
254727670,-0.0259466,-0.0185954,0.00499989,1.0
254831483,-0.0131265,-0.011986,0.00181945,1.0
254932491,-0.00797618,-0.0114567,0.000110653,1.0
255032542,-0.000917386,-0.00672133,-0.00119283,1.0
255132528,0.00191489,-0.00317529,-0.00324358,1.0
255236492,0.00281694,-0.000945809,-0.00323279,1.0
255336489,0.000685669,-0.000841252,-0.00399037,1.0
255440486,0.0029571,-0.000144174,-0.00371623,1.0
255540522,-0.000998108,-0.00261251,-0.00259508,1.0
255640539,-0.00213395,-0.0040874,-0.00262649,1.0
255744489,0.00243662,-0.00247487,-0.00200781,1.0
255844483,-0.000149878,-0.00163189,-0.00218245,1.0
255944486,-0.0025492,-0.00114201,-0.00170916,1.0
256048524,-0.00250435,-0.00204295,-0.00190566,1.0
256148505,0.221736,0.112659,-0.00194285,0.914966
256252488,0.132426,0.0713543,-0.00162214,0.764374
256352501,0.0608884,0.036256,-0.00122029,0.671939
256452490,1.09685,0.647385,-0.0412917,0.121671
256556548,0.485642,0.315692,-0.0358296,0.123425
256656491,-0.325825,-0.167998,-0.0066341,0.167971
256754663,-0.689896,-0.407733,0.0132297,0.280344
256858696,-0.461146,-0.264437,0.0148798,0.357121
256960488,-0.226795,-0.127875,0.0129378,0.40312
257064564,-0.0855928,-0.0471338,0.0109857,0.432299
257164546,-0.0425854,-0.0154742,0.00867647,0.449567
257263646,-0.019069,-0.00966384,0.00596474,0.461054
257367536,-0.0195117,-0.0124338,0.00317598,0.468785
257467515,-0.035377,-0.0116057,0.000174619,0.474027
257571485,-0.0345784,-0.0159749,-0.000892413,0.477435
257671523,-0.0329764,-0.00415393,-0.00168345,0.479908
257771607,-0.0379622,-0.00589448,-0.00303784,0.481383
257875533,-0.0311325,-0.0165578,-0.00338898,0.482527
257975484,-0.022407,-0.0150106,-0.00339203,0.483524
258079523,-0.0213216,-0.00148607,-0.00269175,0.484558
258179607,-0.0215032,-0.00696261,-0.002589,0.485022
258279482,-0.00788328,-0.00783049,-0.00222808,0.485572
258383486,-0.0130251,-0.000125715,-0.00319698,0.486191
258483485,-0.0118064,0.00130252,-0.00224322,0.486161
258583512,0.00454415,-0.0100278,-0.00243886,0.486582
258687530,0.00282307,-0.00589564,-0.000793113,0.486952
258787561,0.00543618,-0.0112783,-0.00127814,0.486933
258891502,0.00922536,-0.0090998,-0.00174798,0.486805
258990002,0.0122453,-0.00756165,-0.00118373,0.487277
259093847,0.00937784,-0.00590376,-0.00047436,0.487528
259195561,0.0118894,-0.00401262,-0.00140544,0.487719
259295500,0.00777743,0.000383769,-0.00260912,0.487685
259395483,0.004753,0.000496541,-0.00239052,0.487654
