timestamp,rollspeed,pitchspeed,yawspeed,q[0],q[1],q[2],q[3],delta_q_reset[0],delta_q_reset[1],delta_q_reset[2],delta_q_reset[3],quat_reset_counter
62402859,-0.00249251,0.0109825,0.00673681,0.999965,-0.00154134,0.000915111,-0.00819507,1.0,0.0,0.0,0.0,0
62520724,-0.00566684,0.000355472,-0.0045417,0.999969,-0.00144426,0.00102878,-0.00765331,1.0,0.0,0.0,0.0,0
62625966,0.00152095,-0.0121376,0.00933839,0.999972,-0.00135245,0.00115923,-0.00723098,1.0,0.0,0.0,0.0,0
62728695,-0.0158734,0.00272882,0.0051348,0.999974,-0.00152922,0.0010356,-0.00698033,1.0,0.0,0.0,0.0,0
62832551,0.00904806,-0.00575994,0.0040253,0.999976,-0.00150202,0.000958174,-0.00674214,1.0,0.0,0.0,0.0,0
62929943,0.00344306,-0.00257231,0.00372952,0.999977,-0.00156665,0.000867632,-0.00661862,1.0,0.0,0.0,0.0,0
63033768,-0.00732072,0.00530537,0.0216463,0.999979,-0.00140028,0.000809911,-0.00631539,1.0,0.0,0.0,0.0,0
63133881,0.00135734,-0.00870464,0.00444295,0.999981,-0.0013713,0.000757007,-0.00602785,1.0,0.0,0.0,0.0,0
63237769,0.00187329,0.0044784,0.0309602,0.999982,-0.00141726,0.000898762,-0.0056982,1.0,0.0,0.0,0.0,0
63338753,0.0066312,-0.00657344,0.0108485,0.999984,-0.00141303,0.000808359,-0.00549675,1.0,0.0,0.0,0.0,0
63441797,0.0188456,-0.00326792,-0.00929828,0.999985,-0.00145814,0.000895226,-0.00531614,1.0,0.0,0.0,0.0,0
63542799,-0.00296591,0.0103678,-0.00928879,0.999986,-0.00142767,0.00098351,-0.00508774,1.0,0.0,0.0,0.0,0
63642882,-0.00679591,-0.0040732,-0.00124022,0.999986,-0.00145226,0.0010561,-0.00495149,1.0,0.0,0.0,0.0,0
63741777,0.000343195,0.0103844,-0.000726067,0.999987,-0.00150257,0.00107438,-0.00471377,1.0,0.0,0.0,0.0,0
63844613,-0.000554547,0.00666482,0.00280842,0.999988,-0.00137315,0.00113053,-0.00463873,1.0,0.0,0.0,0.0,0
63945851,0.0105353,-0.00930479,0.00341639,0.999989,-0.00151744,0.00132764,-0.00415679,1.0,0.0,0.0,0.0,0
64049741,0.0160495,-0.00545318,-0.00796121,0.99999,-0.00147655,0.00136204,-0.00388915,1.0,0.0,0.0,0.0,0
64149847,0.0173668,0.015592,0.0185597,0.999991,-0.00142373,0.0014711,-0.0036697,1.0,0.0,0.0,0.0,0
64249724,0.0312966,-0.0134248,-0.00244815,0.999992,-0.0014342,0.00143102,-0.00348908,1.0,0.0,0.0,0.0,0
64354736,-0.00798706,-0.00540307,0.0220269,0.999993,-0.0014144,0.00108705,-0.00318791,1.0,0.0,0.0,0.0,0
64454737,-0.0100397,-0.00119684,-0.0168667,0.999993,-0.00169239,0.000904204,-0.00319357,1.0,0.0,0.0,0.0,0
64557921,-0.0156138,-0.0154625,-0.0163036,0.999994,-0.00168887,0.000740039,-0.00304513,1.0,0.0,0.0,0.0,0
64658748,-0.00544402,0.00708035,-0.000411755,0.999993,-0.00178155,0.000753383,-0.0030577,1.0,0.0,0.0,0.0,0
64757157,0.00737905,-0.0249129,-0.000379379,0.999994,-0.00179443,0.000920623,-0.00293116,1.0,0.0,0.0,0.0,0
64860624,0.025629,-0.0140529,-0.0108828,0.999994,-0.00188253,0.000873838,-0.00268987,1.0,0.0,0.0,0.0,0
64961744,-0.00261253,-0.00675726,0.119772,1.0,-0.000425276,0.000427137,-0.000118154,1.0,0.0,0.0,0.0,0
65065739,-0.0292855,-0.0365151,0.107372,0.999977,0.000630701,1.27081e-05,0.00681313,1.0,0.0,0.0,0.0,0
65165745,0.0826943,-0.0195616,0.124936,0.999908,0.00116006,-2.96019e-06,0.0135436,1.0,0.0,0.0,0.0,0
65266744,0.00989805,-0.00190303,0.112364,0.999815,0.00114577,-0.000109783,0.0192128,1.0,0.0,0.0,0.0,0
65369736,-0.0032603,-0.00731245,0.0864239,0.999718,0.000595746,-0.000249849,0.02376,1.0,0.0,0.0,0.0,0
65470848,-0.0186527,-0.0178684,0.0412729,0.999644,-0.000233935,-0.000274873,0.0266701,1.0,0.0,0.0,0.0,0
65572764,-0.0269429,-0.0256281,0.0208048,0.999592,-0.000443987,-0.000510619,0.0285585,1.0,0.0,0.0,0.0,0
65670739,-0.0379504,0.0011114,0.00362523,0.999567,-0.00034418,-8.31903e-05,0.029414,1.0,0.0,0.0,0.0,0
65774727,-0.124478,0.075739,-0.00443887,0.999562,-0.00110962,0.00070877,0.0295517,1.0,0.0,0.0,0.0,0
65874802,-0.124702,0.261633,-0.00112041,0.999309,-0.0134594,0.018734,0.0291555,1.0,0.0,0.0,0.0,0
65977763,0.136767,-0.198139,-0.0149327,0.999433,-0.00982298,0.0153506,0.0283132,1.0,0.0,0.0,0.0,0
66078737,0.101356,-0.142545,-0.0970466,0.999647,-0.00394842,0.00660002,0.0254448,1.0,0.0,0.0,0.0,0
66181736,0.0342516,-0.070275,-0.227506,0.999858,-0.000962373,0.00192752,0.0167173,1.0,0.0,0.0,0.0,0
66281732,0.0289567,-0.0430445,-0.25052,0.999991,-8.23636e-05,0.000564994,0.00428704,1.0,0.0,0.0,0.0,0
66381791,-0.00481664,0.0141715,-0.215284,0.999973,0.000498436,-8.8429e-05,-0.00728126,1.0,0.0,0.0,0.0,0
66485774,0.0169448,-0.0103241,-0.168175,0.999854,0.00056929,-0.000201157,-0.0171003,1.0,0.0,0.0,0.0,0
66586772,-0.0225756,0.0151275,-0.139936,0.999709,0.000341979,7.97611e-06,-0.0241326,1.0,0.0,0.0,0.0,0
66686905,-0.137162,-0.0205353,-0.0750817,0.999583,-0.000367391,-0.000111343,-0.0288674,1.0,0.0,0.0,0.0,0
66790735,-0.395663,-0.00863862,-0.034221,0.999406,-0.0140352,0.000141399,-0.0314929,1.0,0.0,0.0,0.0,0
66889434,-0.35192,-0.000915158,-0.000781249,0.998872,-0.0350153,0.000601019,-0.0320681,1.0,0.0,0.0,0.0,0
66993035,0.386469,0.0328583,0.030209,0.998973,-0.0324139,0.000529939,-0.0316423,1.0,0.0,0.0,0.0,0
67094748,0.265825,0.0456483,0.015601,0.999442,-0.014196,-0.000306307,-0.030245,1.0,0.0,0.0,0.0,0
67194739,0.0780187,-0.0123404,0.0301783,0.999579,-0.00444752,-0.000587977,-0.0286734,1.0,0.0,0.0,0.0,0
67297818,-0.0524664,-0.00404569,0.0253588,0.999636,-0.000534502,-0.000213058,-0.0269605,1.0,0.0,0.0,0.0,0
67398739,0.0546296,-0.0257006,0.0168591,0.999666,2.99198e-05,-0.000338869,-0.0258553,1.0,0.0,0.0,0.0,0
67498787,0.0388923,-0.028897,-0.177338,0.999555,0.00100135,-0.000641154,-0.0298052,1.0,0.0,0.0,0.0,0
67602757,0.0266559,-0.00235872,-0.449278,0.998924,0.00060312,-0.000419288,-0.0463648,1.0,0.0,0.0,0.0,0
67698855,-0.0382076,-0.0039079,-0.569141,0.997427,8.07779e-05,-0.000233937,-0.071688,1.0,0.0,0.0,0.0,0
67802742,0.0160656,-0.0244282,-0.478108,0.995154,0.00244732,0.0011751,-0.0982876,1.0,0.0,0.0,0.0,0
67906750,-0.000355259,-0.0158855,-0.337456,0.992893,0.00140365,0.000987359,-0.119,1.0,0.0,0.0,0.0,0
68005760,0.015804,-0.00475372,-0.199344,0.991295,0.000534747,0.00038815,-0.131657,1.0,0.0,0.0,0.0,0
68110746,0.0440456,0.0134654,-0.0890653,0.990275,-8.85977e-05,-0.000191946,-0.139123,1.0,0.0,0.0,0.0,0
68210766,-0.0231763,-0.00757165,-0.0273696,0.989864,-0.000565077,-0.00025811,-0.142021,1.0,0.0,0.0,0.0,0
68310792,0.00314104,-0.00346354,0.0448663,0.989939,-0.00040618,-9.61481e-06,-0.141496,1.0,0.0,0.0,0.0,0
68414732,0.01687,-0.000524145,0.0676221,0.990296,-0.00010095,9.03989e-05,-0.138972,1.0,0.0,0.0,0.0,0
68514893,-0.0064447,-0.029297,0.0656744,0.990752,1.68791e-05,0.00014866,-0.135688,1.0,0.0,0.0,0.0,0
68614773,-0.0144736,-0.0438306,0.0719314,0.99125,5.89815e-05,0.000115583,-0.131998,1.0,0.0,0.0,0.0,0
68718773,-0.0465011,-0.0536214,0.0582814,0.991723,8.07148e-05,0.000661697,-0.128394,1.0,0.0,0.0,0.0,0
68819744,-0.00832669,-0.114084,0.0383537,0.992091,0.000275325,0.00100112,-0.125516,1.0,0.0,0.0,0.0,0
68922744,0.00965178,-0.0513341,0.0380457,0.992391,7.65228e-05,0.00107895,-0.12312,1.0,0.0,0.0,0.0,0
69021122,0.0436359,-0.191615,0.030568,0.9926,-0.000528228,-0.00134469,-0.121418,1.0,0.0,0.0,0.0,0
69125110,0.0399476,-0.720221,0.0184712,0.992388,-0.00385279,-0.0261716,-0.120279,1.0,0.0,0.0,0.0,0
69226727,-0.0158668,-0.549232,-0.00661775,0.990677,-0.00889511,-0.0642866,-0.11978,1.0,0.0,0.0,0.0,0
69325783,0.00135765,-0.0357413,0.0148988,0.989674,-0.0104611,-0.0780978,-0.119739,1.0,0.0,0.0,0.0,0
69429762,-0.00799463,0.0836714,-0.027908,0.989718,-0.010159,-0.0768071,-0.120235,1.0,0.0,0.0,0.0,0
69530753,-0.00403559,0.0231951,-0.0146824,0.989845,-0.00969908,-0.0741961,-0.120865,1.0,0.0,0.0,0.0,0
69630741,-0.0166582,-0.00362867,-0.0146882,0.98995,-0.00922093,-0.0724993,-0.121072,1.0,0.0,0.0,0.0,0
69734902,0.0100949,0.00808334,-0.00347257,0.989918,-0.00914105,-0.0721731,-0.121528,1.0,0.0,0.0,0.0,0
69834750,0.0372029,-0.0940385,-0.0221542,0.989716,-0.00912584,-0.0742341,-0.121935,1.0,0.0,0.0,0.0,0
69934794,0.0692809,-0.16523,-0.0290401,0.989169,-0.00905216,-0.0808862,-0.122152,1.0,0.0,0.0,0.0,0
70038739,0.0129708,-0.183874,0.0243105,0.988303,-0.0103726,-0.0905036,-0.122309,1.0,0.0,0.0,0.0,0
70138742,0.0135904,-0.0894349,-0.0110368,0.987581,-0.0119798,-0.0977945,-0.122379,1.0,0.0,0.0,0.0,0
70238744,0.0247719,-0.0566471,0.015346,0.987135,-0.0126454,-0.101948,-0.122521,1.0,0.0,0.0,0.0,0
70342767,-0.0115498,-0.0670876,0.0100688,0.986957,-0.0127861,-0.103708,-0.12246,1.0,0.0,0.0,0.0,0
70442740,-0.0205528,-0.019134,-0.0223777,0.986889,-0.0128113,-0.104194,-0.122591,1.0,0.0,0.0,0.0,0
70546740,-0.0275241,-0.0110287,-0.00379012,0.986826,-0.0128024,-0.104955,-0.122458,1.0,0.0,0.0,0.0,0
70646739,-0.00751288,0.00594684,0.00663134,0.986849,-0.0132357,-0.104773,-0.12238,1.0,0.0,0.0,0.0,0
70746792,0.00204324,-0.0197873,0.00845335,0.986819,-0.0133306,-0.105238,-0.122208,1.0,0.0,0.0,0.0,0
70850727,0.00939774,-0.0379332,-0.0101397,0.986738,-0.013782,-0.105845,-0.12229,1.0,0.0,0.0,0.0,0
70952753,0.0321612,-0.0396434,-0.0027045,0.986522,-0.0137294,-0.108041,-0.122118,1.0,0.0,0.0,0.0,0
71053005,-0.0236697,-0.0765677,0.00238565,0.986038,-0.0142354,-0.112558,-0.121893,1.0,0.0,0.0,0.0,0
71154741,-0.193056,-0.0846303,0.00393988,0.985459,-0.0191802,-0.116523,-0.122168,1.0,0.0,0.0,0.0,0
71254736,-0.194338,-0.10338,0.0170986,0.984837,-0.0288239,-0.11895,-0.122946,1.0,0.0,0.0,0.0,0
71358740,-0.0136556,-0.31096,-0.0110376,0.983531,-0.034943,-0.12795,-0.122777,1.0,0.0,0.0,0.0,0
71458752,0.0686689,-0.228955,0.00526723,0.981848,-0.0350312,-0.141195,-0.121699,1.0,0.0,0.0,0.0,0
71558780,0.12534,-0.224215,0.0127069,0.980364,-0.0310794,-0.153071,-0.120374,1.0,0.0,0.0,0.0,0
71662755,0.0731891,-0.243918,-0.00648767,0.978285,-0.0261871,-0.167496,-0.11924,1.0,0.0,0.0,0.0,0
71762741,0.0455615,-0.225036,-0.0143798,0.976061,-0.0245724,-0.180551,-0.118751,1.0,0.0,0.0,0.0,0
71862855,0.0326142,-0.164226,-0.0192335,0.974245,-0.0243318,-0.190134,-0.11876,1.0,0.0,0.0,0.0,0
71966750,0.0161783,-0.14173,-0.0263721,0.972551,-0.0246289,-0.198367,-0.119119,1.0,0.0,0.0,0.0,0
72066751,-0.0151123,-0.138336,-0.0241215,0.970952,-0.0256928,-0.205751,-0.119413,1.0,0.0,0.0,0.0,0
72170736,-0.00669718,-0.100283,-0.0143018,0.969545,-0.0266891,-0.211985,-0.119715,1.0,0.0,0.0,0.0,0
72270743,-0.0514521,-0.0741443,0.000252911,0.968489,-0.0273387,-0.216698,-0.119679,1.0,0.0,0.0,0.0,0
72370916,-0.0243413,-0.0840827,-0.0138287,0.96763,-0.0278656,-0.220187,-0.120136,1.0,0.0,0.0,0.0,0
72474734,-0.00164316,0.0332998,0.00890899,0.96738,-0.0275866,-0.221168,-0.120417,1.0,0.0,0.0,0.0,0
72574740,0.0557623,0.0624178,0.00710221,0.96732,-0.0276253,-0.221402,-0.120457,1.0,0.0,0.0,0.0,0
72674757,0.0539661,0.0192849,0.0318421,0.967403,-0.0269769,-0.221647,-0.119488,1.0,0.0,0.0,0.0,0
72778746,0.0313077,0.0243352,0.00886519,0.967611,-0.0262971,-0.221627,-0.11798,1.0,0.0,0.0,0.0,0
72878793,0.0305001,0.00289627,0.0557581,0.968013,-0.025333,-0.221033,-0.115985,1.0,0.0,0.0,0.0,0
72982818,0.0211924,-0.0176192,0.0219365,0.968284,-0.0252463,-0.220768,-0.114239,1.0,0.0,0.0,0.0,0
73081006,-0.00255805,-0.00356657,0.0386846,0.968322,-0.0254021,-0.221237,-0.112969,1.0,0.0,0.0,0.0,0
73185261,-0.017062,-0.0100437,0.00819791,0.968385,-0.0254454,-0.221512,-0.111875,1.0,0.0,0.0,0.0,0
73286738,-0.030494,0.00207852,0.0214085,0.968335,-0.0258869,-0.221993,-0.111246,1.0,0.0,0.0,0.0,0
73386773,0.0133932,0.0171287,0.000506868,0.968087,-0.026099,-0.223298,-0.110748,1.0,0.0,0.0,0.0,0
73486739,0.0291707,-0.15418,0.00667206,0.967021,-0.0268095,-0.227813,-0.110689,1.0,0.0,0.0,0.0,0
73590753,0.0196902,-0.138426,0.0013672,0.965047,-0.0276753,-0.236057,-0.110434,1.0,0.0,0.0,0.0,0
73690728,0.0262665,-0.10644,0.00319171,0.963674,-0.0282297,-0.241576,-0.110346,1.0,0.0,0.0,0.0,0
73794794,-0.0146858,-0.11742,-0.000201006,0.96264,-0.0286436,-0.24559,-0.110403,1.0,0.0,0.0,0.0,0
73894738,-0.0432467,-0.143931,-0.00456358,0.961008,-0.0298523,-0.251674,-0.1106,1.0,0.0,0.0,0.0,0
73994778,0.011575,-0.0958446,0.00381897,0.959415,-0.0300645,-0.25765,-0.110619,1.0,0.0,0.0,0.0,0
74098769,0.013045,-0.0820412,-0.0105095,0.958084,-0.0305026,-0.262528,-0.110561,1.0,0.0,0.0,0.0,0
74198773,0.00908003,-0.0673583,-0.00199266,0.957048,-0.0309117,-0.266143,-0.110779,1.0,0.0,0.0,0.0,0
74298852,0.0093854,-0.0702471,-0.00704234,0.955965,-0.0313045,-0.269943,-0.11082,1.0,0.0,0.0,0.0,0
74402757,-0.00516137,-0.0514863,0.00396731,0.954696,-0.0315056,-0.274377,-0.110818,1.0,0.0,0.0,0.0,0
74502742,0.00853924,0.0366646,0.00580318,0.954747,-0.0315336,-0.274216,-0.110769,1.0,0.0,0.0,0.0,0
74606744,0.00252149,-0.00147691,-0.000325326,0.955335,-0.031234,-0.272127,-0.110932,1.0,0.0,0.0,0.0,0
74706781,0.00352915,-0.000196253,0.00576019,0.955478,-0.03126,-0.271659,-0.110843,1.0,0.0,0.0,0.0,0
74806790,0.0401614,-0.0436309,0.00252117,0.955313,-0.0314621,-0.272195,-0.11089,1.0,0.0,0.0,0.0,0
74910885,0.0276755,-0.0390657,0.010279,0.955135,-0.0316285,-0.27287,-0.110722,1.0,0.0,0.0,0.0,0
75010812,0.0115518,-0.107365,-0.00117718,0.954536,-0.03191,-0.275036,-0.110449,1.0,0.0,0.0,0.0,0
75109294,0.00126739,-0.0488513,0.0187606,0.95392,-0.0321014,-0.277258,-0.110154,1.0,0.0,0.0,0.0,0
75213094,-0.0186433,-0.0212702,0.00183446,0.953347,-0.0322933,-0.279267,-0.109979,1.0,0.0,0.0,0.0,0
75316993,-0.0192526,0.0690169,0.00201029,0.953407,-0.0324024,-0.279051,-0.109977,1.0,0.0,0.0,0.0,0
75418738,0.00819038,0.556182,-0.00109545,0.957289,-0.0307783,-0.265465,-0.110359,1.0,0.0,0.0,0.0,0
75519781,0.0270001,2.00118,0.0177557,0.971692,-0.0239381,-0.2067,-0.111882,1.0,0.0,0.0,0.0,0
75619802,-0.00307556,1.88108,-0.000384492,0.988614,-0.0113352,-0.0974505,-0.114095,1.0,0.0,0.0,0.0,0
75722747,0.0204582,0.780753,-0.0138129,0.992883,-0.00384363,-0.0314539,-0.114802,1.0,0.0,0.0,0.0,0
75823860,0.0132948,0.293433,-0.00853189,0.993344,-0.00118088,-0.00732517,-0.114945,1.0,0.0,0.0,0.0,0
75923743,-0.0439925,0.122416,0.0213302,0.993362,-0.000338622,-0.000906506,-0.115028,1.0,0.0,0.0,0.0,0
76026746,-0.0602825,0.0992966,0.00927083,0.99338,-0.000123377,0.000400763,-0.114871,1.0,0.0,0.0,0.0,0
76126770,-0.040968,0.0424763,-0.0144533,0.993366,-1.33939e-05,0.000722133,-0.114993,1.0,0.0,0.0,0.0,0
76230740,-0.0272427,0.0206127,0.0131138,0.993371,-0.000385597,0.000763344,-0.114953,1.0,0.0,0.0,0.0,0
76330742,-0.00543935,-0.0200089,-0.00507792,0.993352,-0.000215109,0.000166842,-0.115117,1.0,0.0,0.0,0.0,0
76430791,0.0348827,-0.0120408,-0.00155263,0.993334,8.08857e-05,-0.000169984,-0.115269,1.0,0.0,0.0,0.0,0
76534784,0.0376108,-0.0105328,-0.018487,0.9933,0.000290504,-0.000251146,-0.115566,1.0,0.0,0.0,0.0,0
76634743,0.0126009,0.00454019,0.00910655,0.993306,0.000505516,-0.000440075,-0.115513,1.0,0.0,0.0,0.0,0
76734771,-0.0418662,-0.00769599,0.00489391,0.993314,0.000519404,-0.000274099,-0.115445,1.0,0.0,0.0,0.0,0
76838617,0.167601,-0.154288,0.0201439,0.9933,0.00379395,-0.00371637,-0.11544,1.0,0.0,0.0,0.0,0
76938648,0.337472,-0.374873,0.0225332,0.993077,0.0143611,-0.0188866,-0.115042,1.0,0.0,0.0,0.0,0
77042651,0.51124,-0.60009,0.0194721,0.99177,0.0331017,-0.0474597,-0.114209,1.0,0.0,0.0,0.0,0
77142618,0.676609,-0.818912,0.0573125,0.988079,0.0584256,-0.0870426,-0.112738,1.0,0.0,0.0,0.0,0
77241400,0.83959,-1.05639,0.0416079,0.98017,0.0903188,-0.137521,-0.110446,1.0,0.0,0.0,0.0,0
77345308,1.03411,-1.28266,0.0644031,0.964601,0.131015,-0.202494,-0.10666,1.0,0.0,0.0,0.0,0
77448942,1.22274,-1.50219,0.0825965,0.938426,0.178237,-0.278145,-0.101112,1.0,0.0,0.0,0.0,0
77546725,1.36916,-1.7016,0.0809775,0.900666,0.228059,-0.35771,-0.0939853,1.0,0.0,0.0,0.0,0
77650630,1.57315,-1.9233,0.0598167,0.842796,0.285252,-0.448706,-0.083605,1.0,0.0,0.0,0.0,0
77750633,1.75657,-2.15357,0.0933163,0.766291,0.342489,-0.538987,-0.0706584,1.0,0.0,0.0,0.0,0
77854620,1.95917,-2.38102,0.111907,0.661576,0.401565,-0.631023,-0.053596,1.0,0.0,0.0,0.0,0
77954651,2.16827,-2.55471,0.110535,0.534655,0.45442,-0.711711,-0.033393,1.0,0.0,0.0,0.0,0
78054725,2.35092,-2.77035,0.103782,0.381436,0.499096,-0.778022,-0.00962559,1.0,0.0,0.0,0.0,0
78158617,2.55019,-2.98462,0.128853,0.195634,0.531847,-0.823728,0.0184116,1.0,0.0,0.0,0.0,0
78258616,2.75533,-3.16361,0.13686,-0.00427645,0.544851,-0.837169,0.0476104,1.0,0.0,0.0,0.0,0
78358652,2.94818,-3.38153,0.149199,-0.2173,0.534442,-0.813089,0.0777152,1.0,0.0,0.0,0.0,0
78462624,3.17433,-3.56442,0.154102,-0.440806,0.493438,-0.742073,0.10741,1.0,0.0,0.0,0.0,0
78562616,3.41324,-3.72274,0.172976,-0.642695,0.421378,-0.625983,0.132395,1.0,0.0,0.0,0.0,0
78666651,3.62458,-3.91962,0.194123,-0.819815,0.311243,-0.456172,0.151455,1.0,0.0,0.0,0.0,0
78766615,3.87001,-4.09104,0.174445,-0.938416,0.173837,-0.251581,0.160823,1.0,0.0,0.0,0.0,0
78866621,4.08466,-4.25482,0.200584,-0.987037,0.0127528,-0.0182949,0.158934,1.0,0.0,0.0,0.0,0
78970670,4.31398,-4.42826,0.172614,-0.946756,-0.1668,0.235485,0.14275,1.0,0.0,0.0,0.0,0
79070615,4.58161,-4.56932,0.197333,-0.812229,-0.333214,0.46529,0.112951,1.0,0.0,0.0,0.0,0
79174617,4.81992,-4.71276,0.231404,-0.575375,-0.476991,0.661014,0.0669605,1.0,0.0,0.0,0.0,0
79274624,5.09765,-4.85326,0.214294,-0.270618,-0.565352,0.779127,0.0102026,1.0,0.0,0.0,0.0,0
79373534,5.35456,-4.99824,0.250038,0.0750007,-0.585859,0.805123,-0.0540396,1.0,0.0,0.0,0.0,0
79478619,5.61743,-5.10279,0.236594,0.442589,-0.522092,0.718486,-0.123741,1.0,0.0,0.0,0.0,0
79578666,5.88504,-5.20033,0.242123,0.738787,-0.379307,0.526711,-0.18137,1.0,0.0,0.0,0.0,0
79678671,6.17468,-5.32004,0.277623,0.92843,-0.17051,0.247901,-0.217921,1.0,0.0,0.0,0.0,0
79782604,6.46884,-5.40544,0.262953,0.966891,0.0857583,-0.0936003,-0.221373,1.0,0.0,0.0,0.0,0
79882691,6.75603,-5.47207,0.280591,0.829189,0.327345,-0.414471,-0.183044,1.0,0.0,0.0,0.0,0
79985932,7.08052,-5.54304,0.300843,0.519527,0.520843,-0.669905,-0.100206,1.0,0.0,0.0,0.0,0
80086659,7.3811,-5.60181,0.288084,0.103128,0.609751,-0.785749,0.0129045,1.0,0.0,0.0,0.0,0
80186621,7.68876,-5.63174,0.298936,-0.341182,0.571169,-0.734139,0.135649,1.0,0.0,0.0,0.0,0
80290669,8.00215,-5.69022,0.319074,-0.730557,0.393664,-0.50235,0.242814,1.0,0.0,0.0,0.0,0
80390622,8.33267,-5.66671,0.325294,-0.93596,0.120535,-0.151982,0.293858,1.0,0.0,0.0,0.0,0
80490624,8.64096,-5.70335,0.324973,-0.911407,-0.193736,0.242374,0.270294,1.0,0.0,0.0,0.0,0
80591604,8.96128,-5.66921,0.348448,-0.643552,-0.472749,0.578833,0.165233,1.0,0.0,0.0,0.0,0
80694624,9.29583,-5.65354,0.353322,-0.18023,-0.632739,0.753089,-0.00384473,1.0,0.0,0.0,0.0,0
80794616,9.62439,-5.59865,0.350596,0.330647,-0.610176,0.696863,-0.180945,1.0,0.0,0.0,0.0,0
80898678,9.96416,-5.50469,0.349912,0.762006,-0.390394,0.409737,-0.31473,1.0,0.0,0.0,0.0,0
80994675,10.3077,-5.46778,0.389785,0.937686,-0.0567121,0.0154015,-0.342477,1.0,0.0,0.0,0.0,0
81102623,10.6702,-5.35718,0.401856,0.797912,0.35411,-0.424543,-0.240218,1.0,0.0,0.0,0.0,0
81202619,10.9941,-5.22932,0.415305,0.378685,0.632427,-0.674236,-0.0451684,1.0,0.0,0.0,0.0,0
81302775,11.3301,-5.10703,0.39166,-0.183962,0.698358,-0.669306,0.1746,1.0,0.0,0.0,0.0,0
81406652,11.6774,-4.94436,0.407639,-0.701693,0.490879,-0.395663,0.331836,1.0,0.0,0.0,0.0,0
81505097,12.0042,-4.76394,0.42463,-0.934674,0.0862426,0.0110344,0.34471,1.0,0.0,0.0,0.0,0
81609578,12.3458,-4.5648,0.408908,-0.788572,-0.40888,0.41219,0.202658,1.0,0.0,0.0,0.0,0
81710715,12.6783,-4.35449,0.456209,-0.298717,-0.744197,0.596924,-0.0249086,1.0,0.0,0.0,0.0,0
81810625,12.9974,-4.09815,0.441396,0.32782,-0.765896,0.504693,-0.226323,1.0,0.0,0.0,0.0,0
81914623,13.3641,-3.85288,0.459569,0.837431,-0.414928,0.185411,-0.30359,1.0,0.0,0.0,0.0,0
82014621,13.6463,-3.55883,0.455157,0.948451,0.161938,-0.160179,-0.22036,1.0,0.0,0.0,0.0,0
82114731,13.9672,-3.25749,0.474609,0.599135,0.708451,-0.36922,-0.0530246,1.0,0.0,0.0,0.0,0
82218693,14.2662,-2.93835,0.485104,-0.0941707,0.923759,-0.360035,0.0904239,1.0,0.0,0.0,0.0,0
82319626,14.5396,-2.58895,0.495382,-0.739619,0.632167,-0.199593,0.116151,1.0,0.0,0.0,0.0,0
82422614,14.8253,-2.23438,0.492765,-0.996228,-0.0549862,-0.0407092,0.0533829,1.0,0.0,0.0,0.0,0
82522604,15.0617,-1.81464,0.521951,-0.678064,-0.73459,-0.000166678,0.0246242,1.0,0.0,0.0,0.0,0
82622621,15.2835,-1.43332,0.529424,0.0356561,-0.990996,-0.0166412,0.127977,1.0,0.0,0.0,0.0,0
82726619,15.5222,-0.977568,0.539391,0.71415,-0.62147,0.0858169,0.310484,1.0,0.0,0.0,0.0,0
82826607,15.7414,-0.550897,0.510735,0.85759,0.0956076,0.391807,0.319196,1.0,0.0,0.0,0.0,0
82926669,15.9351,-0.0598652,0.5682,0.420405,0.615862,0.662877,-0.0675855,1.0,0.0,0.0,0.0,0
83030697,16.0911,0.441675,0.558102,-0.189,0.549097,0.472699,-0.662818,1.0,0.0,0.0,0.0,0
83130620,16.2354,0.943321,0.572902,-0.341066,0.123582,-0.207696,-0.90844,1.0,0.0,0.0,0.0,0
83230618,16.3324,1.45699,0.566206,-0.00788133,-0.0526468,-0.881896,-0.468429,1.0,0.0,0.0,0.0,0
83335660,16.4369,2.02623,0.569538,0.0866476,-0.14292,-0.929445,0.328935,1.0,0.0,0.0,0.0,0
83434666,16.5148,2.59757,0.611935,0.356211,-0.323058,-0.418059,0.770697,1.0,0.0,0.0,0.0,0
83537127,16.5496,3.17518,0.614711,0.722415,-0.1126,0.235083,0.640448,1.0,0.0,0.0,0.0,0
83638615,16.5478,3.74108,0.623615,0.582477,0.419133,0.656091,0.233649,1.0,0.0,0.0,0.0,0
83738671,16.5298,4.32773,0.609705,-0.119061,0.44222,0.835758,-0.302943,1.0,0.0,0.0,0.0,0
83842615,16.4694,4.97256,0.632256,-0.425598,0.0642713,0.314904,-0.845914,1.0,0.0,0.0,0.0,0
83943747,16.3566,5.5652,0.643714,-0.204156,-0.0575562,-0.507702,-0.835013,1.0,0.0,0.0,0.0,0
84042695,16.213,6.17464,0.642819,-0.107807,-0.214144,-0.953965,-0.180197,1.0,0.0,0.0,0.0,0
84146628,16.0386,6.82651,0.658017,0.415242,-0.443063,-0.688211,0.397032,1.0,0.0,0.0,0.0,0
84246619,15.8672,7.44429,0.667544,0.901646,-0.237618,-0.00101561,0.361347,1.0,0.0,0.0,0.0,0
84350691,15.5881,8.11069,0.686134,0.617478,0.314232,0.649928,0.312365,1.0,0.0,0.0,0.0,0
84450614,15.3239,8.72546,0.670437,-0.117148,0.271741,0.952134,-0.0766423,1.0,0.0,0.0,0.0,0
84550676,14.9802,9.32158,0.694124,-0.462355,-0.0552687,0.557032,-0.687669,1.0,0.0,0.0,0.0,0
84654622,14.6018,9.94428,0.697885,-0.51123,-0.0425331,-0.31433,-0.798769,1.0,0.0,0.0,0.0,0
84755689,14.1953,10.5676,0.722308,-0.269143,-0.226609,-0.903987,-0.242936,1.0,0.0,0.0,0.0,0
84854615,13.7432,11.1134,0.714066,0.385243,-0.474927,-0.762806,0.210142,1.0,0.0,0.0,0.0,0
84958626,13.2437,11.701,0.726407,0.925657,-0.214756,-0.10508,0.293252,1.0,0.0,0.0,0.0,0
85058618,12.7002,12.2549,0.720103,0.631127,0.095358,0.659949,0.396301,1.0,0.0,0.0,0.0,0
85157478,5.75378,6.34477,0.66384,0.0409175,-0.0512754,0.988506,0.136211,1.0,0.0,0.0,0.0,0
85262726,1.17852,0.717042,0.416526,-0.0460084,-0.216962,0.975006,0.013174,1.0,0.0,0.0,0.0,0
85365724,-0.383162,3.31135,0.701707,-0.348215,-0.386552,0.850204,0.0804828,1.0,0.0,0.0,0.0,0
85462742,-2.79132,3.74999,1.38205,-0.561172,-0.484155,0.651767,0.160872,1.0,0.0,0.0,0.0,0
85566732,-4.41772,3.43953,2.21638,-0.741713,-0.496604,0.387569,0.230297,1.0,0.0,0.0,0.0,0
85666750,-4.53847,3.34063,2.76864,-0.8503,-0.481412,0.149548,0.151221,1.0,0.0,0.0,0.0,0
85770749,-0.0111646,0.0222973,0.0147539,-0.836068,-0.547703,0.0216144,0.0233309,1.0,0.0,0.0,0.0,0
85870730,0.00258011,-0.0146581,0.00859923,-0.774435,-0.623865,0.0310156,-0.100404,1.0,0.0,0.0,0.0,0
85974740,-0.0103234,-0.00225572,0.00675666,-0.731916,-0.631329,0.116151,-0.228542,1.0,0.0,0.0,0.0,0
86074730,0.0197358,0.0214217,0.0132289,-0.707944,-0.600272,0.190031,-0.319965,1.0,0.0,0.0,0.0,0
86174795,-0.00296339,0.00376883,-0.00634091,-0.695898,-0.561479,0.239803,-0.378104,1.0,0.0,0.0,0.0,0
86278748,0.00544817,-0.0043294,-0.0026336,-0.693831,-0.528554,0.267041,-0.409778,1.0,0.0,0.0,0.0,0
86380914,-0.00072668,-0.0134014,0.00784217,-0.698461,-0.509323,0.275927,-0.420246,1.0,0.0,0.0,0.0,0
86478816,0.00781424,-0.0022797,-0.00266406,-0.706166,-0.497892,0.276157,-0.420916,1.0,0.0,0.0,0.0,0
86582755,-0.014432,0.0160307,0.00547696,-0.714192,-0.493143,0.271887,-0.415713,1.0,0.0,0.0,0.0,0
86682740,-0.006014,-0.00156393,0.00522447,-0.721578,-0.49091,0.267026,-0.408692,1.0,0.0,0.0,0.0,0
86786738,-0.0127871,0.00537879,-0.00358553,-0.727831,-0.48944,0.263216,-0.401781,1.0,0.0,0.0,0.0,0
86886460,-0.00994467,0.00392872,0.00741336,-0.732215,-0.488235,0.261172,-0.396581,1.0,0.0,0.0,0.0,0
86986842,0.00119985,0.00278476,0.0011086,-0.735137,-0.487083,0.260233,-0.393195,1.0,0.0,0.0,0.0,0
87090801,0.0066045,0.0112341,0.0101351,-0.737084,-0.485929,0.260008,-0.391121,1.0,0.0,0.0,0.0,0
87190140,-0.00410686,0.00485123,-0.00701532,-0.738238,-0.484962,0.260205,-0.390012,1.0,0.0,0.0,0.0,0
87293867,-0.00536252,-0.0178392,0.00342249,-0.738867,-0.484243,0.260528,-0.389499,1.0,0.0,0.0,0.0,0
87394741,-0.00330742,-0.0165628,-0.00250135,-0.739232,-0.483711,0.260751,-0.389319,1.0,0.0,0.0,0.0,0
87494839,0.00359427,-0.0168085,-0.000474257,-0.739316,-0.483307,0.261006,-0.389491,1.0,0.0,0.0,0.0,0
87594740,-0.00417139,0.000742518,0.0145244,-0.739369,-0.482951,0.261079,-0.389782,1.0,0.0,0.0,0.0,0
87699873,-0.00197934,0.00595833,0.00901449,-0.73925,-0.48272,0.261088,-0.390286,1.0,0.0,0.0,0.0,0
87798778,-0.00859305,-0.0110294,0.00266514,-0.739108,-0.482777,0.26112,-0.390463,1.0,0.0,0.0,0.0,0
87902749,-0.0163534,0.00931405,0.01233,-0.738945,-0.482877,0.260904,-0.390793,1.0,0.0,0.0,0.0,0
88003762,-0.00201567,0.00886718,0.00786466,-0.738649,-0.483154,0.260754,-0.391111,1.0,0.0,0.0,0.0,0
88102908,0.00115048,0.000887529,-0.0146734,-0.738477,-0.483225,0.260616,-0.39144,1.0,0.0,0.0,0.0,0
88206754,-0.00203739,-0.0182841,0.000829406,-0.738267,-0.483251,0.260483,-0.391891,1.0,0.0,0.0,0.0,0
88306902,0.00391885,-0.000901768,0.00548984,-0.737984,-0.483562,0.260207,-0.392224,1.0,0.0,0.0,0.0,0
88410761,-0.0073223,-0.00408753,0.00178393,-0.737624,-0.483819,0.26006,-0.392682,1.0,0.0,0.0,0.0,0
88507746,-0.00830779,0.00134382,0.00821023,-0.737255,-0.483985,0.260173,-0.393096,1.0,0.0,0.0,0.0,0
88611785,0.00733256,0.0072811,-0.0223348,-0.736943,-0.484216,0.259887,-0.393584,1.0,0.0,0.0,0.0,0
88714739,-0.0102853,-0.00196379,-0.00338285,-0.736531,-0.484464,0.259724,-0.394158,1.0,0.0,0.0,0.0,0
88814868,-0.0117701,0.00507291,-0.00977329,-0.736252,-0.484631,0.259628,-0.394538,1.0,0.0,0.0,0.0,0
88914748,0.00534651,-0.00630065,-0.00215127,-0.736126,-0.484695,0.259815,-0.39457,1.0,0.0,0.0,0.0,0
89019823,0.00362804,-0.0163017,-0.00796763,-0.736446,-0.48445,0.260047,-0.39412,1.0,0.0,0.0,0.0,0
89119745,-0.00356272,0.00949972,-0.00240403,-0.736897,-0.484007,0.260549,-0.39349,1.0,0.0,0.0,0.0,0
89221564,0.00394656,0.00457707,0.00842009,-0.737476,-0.483547,0.261134,-0.392583,1.0,0.0,0.0,0.0,0
89322818,-0.00450605,-0.02247,0.00549783,-0.738121,-0.483154,0.261478,-0.391624,1.0,0.0,0.0,0.0,0
89425657,-0.00786758,-0.00443736,0.000582714,-0.738714,-0.482476,0.262226,-0.390839,1.0,0.0,0.0,0.0,0
89526779,-0.0140072,0.00800557,-0.00213169,-0.739223,-0.481917,0.262753,-0.390213,1.0,0.0,0.0,0.0,0
89626796,-0.0048558,0.00764546,0.000236535,-0.739741,-0.481469,0.263167,-0.389505,1.0,0.0,0.0,0.0,0
89726748,-0.0120228,0.0139149,-0.00687899,-0.739994,-0.481112,0.263468,-0.389262,1.0,0.0,0.0,0.0,0
89831809,-0.00619482,-0.00500275,0.00585454,-0.738778,-0.48206,0.26267,-0.390935,1.0,0.0,0.0,0.0,0
89930724,-0.00161128,0.00748263,0.00717082,-0.737095,-0.483153,0.261635,-0.393447,1.0,0.0,0.0,0.0,0
90034724,0.00928348,0.00254639,-0.00720579,-0.735752,-0.484158,0.260726,-0.395325,1.0,0.0,0.0,0.0,0
90134743,-0.00673489,-0.00623453,-0.008513,-0.735247,-0.48442,0.260342,-0.396196,1.0,0.0,0.0,0.0,0
90237770,0.00465522,-0.00760541,-0.00451763,-0.735642,-0.483914,0.260401,-0.396042,1.0,0.0,0.0,0.0,0
90338994,-0.00593733,0.00823949,-0.00111705,-0.736661,-0.482914,0.26065,-0.395204,1.0,0.0,0.0,0.0,0
90439749,0.00555325,0.0201456,0.0182276,-0.737844,-0.481692,0.260966,-0.394278,1.0,0.0,0.0,0.0,0
90538835,0.00916914,-0.0141182,0.0055313,-0.739002,-0.480611,0.261527,-0.393056,1.0,0.0,0.0,0.0,0
90643737,0.0067249,0.00399943,-0.00383319,-0.740324,-0.479242,0.262075,-0.391872,1.0,0.0,0.0,0.0,0
90742875,-0.0109911,-0.00297561,-0.00552396,-0.741675,-0.477858,0.262567,-0.390677,1.0,0.0,0.0,0.0,0
90843815,0.00354099,-0.000806251,-0.00660434,-0.743024,-0.476514,0.262813,-0.389589,1.0,0.0,0.0,0.0,0
90946907,-0.00152328,0.0118901,0.0166924,-0.744463,-0.475039,0.263154,-0.388411,1.0,0.0,0.0,0.0,0
91046823,-0.0109219,-0.0238853,-0.00993618,-0.745888,-0.473581,0.263655,-0.387114,1.0,0.0,0.0,0.0,0
91150120,-0.00771011,-0.00702033,-0.00760354,-0.747292,-0.47207,0.263765,-0.386176,1.0,0.0,0.0,0.0,0
91251774,-0.0107124,-0.00647862,-0.0321989,-0.748619,-0.470746,0.263987,-0.385071,1.0,0.0,0.0,0.0,0
91350922,0.00536369,-0.0101383,4.27222e-05,-0.749884,-0.469481,0.263983,-0.384154,1.0,0.0,0.0,0.0,0
91454785,0.014535,0.0165519,0.0114765,-0.75109,-0.468232,0.264167,-0.383195,1.0,0.0,0.0,0.0,0
91554900,-0.0016646,0.00711341,-0.00894095,-0.752281,-0.466867,0.264391,-0.382369,1.0,0.0,0.0,0.0,0
91654738,-0.00974399,0.00277529,-0.000901184,-0.753447,-0.465646,0.264499,-0.381485,1.0,0.0,0.0,0.0,0
91758738,0.00391402,0.00202346,-0.0095037,-0.754663,-0.46429,0.264672,-0.380614,1.0,0.0,0.0,0.0,0
91858793,0.00545301,0.00253905,-0.00619938,-0.755797,-0.463072,0.264741,-0.3798,1.0,0.0,0.0,0.0,0
91959769,0.00769707,-0.00470485,-0.0108869,-0.756938,-0.461976,0.264623,-0.378944,1.0,0.0,0.0,0.0,0
92063763,-0.0155687,-0.0135295,0.00840419,-0.758152,-0.460672,0.264531,-0.378167,1.0,0.0,0.0,0.0,0
92163763,-0.00248523,-0.00226337,-0.0263803,-0.759269,-0.459541,0.264498,-0.377323,1.0,0.0,0.0,0.0,0
92266752,0.0130593,0.0124156,0.00541552,-0.76032,-0.458357,0.264515,-0.376634,1.0,0.0,0.0,0.0,0
92366814,0.00221283,0.00598425,0.00980382,-0.761523,-0.457151,0.264406,-0.375746,1.0,0.0,0.0,0.0,0
92470799,-0.00386674,0.0152861,0.00445359,-0.762604,-0.455882,0.2644,-0.375098,1.0,0.0,0.0,0.0,0
92571760,-0.019274,0.0381583,-0.00331362,-0.76376,-0.45455,0.264378,-0.374379,1.0,0.0,0.0,0.0,0
92670959,0.00223628,0.0151642,0.00327679,-0.764885,-0.453316,0.264282,-0.373645,1.0,0.0,0.0,0.0,0
92771874,-0.00405084,0.011823,0.00226294,-0.766072,-0.451973,0.264206,-0.372892,1.0,0.0,0.0,0.0,0
92875748,-0.00771464,-0.00679835,-0.0025844,-0.767215,-0.450772,0.263869,-0.372235,1.0,0.0,0.0,0.0,0
92974740,0.0242768,0.0053815,0.0135581,-0.768334,-0.449446,0.263704,-0.371646,1.0,0.0,0.0,0.0,0
93078802,-0.00669081,0.0178208,0.00521197,-0.769392,-0.448145,0.263747,-0.370998,1.0,0.0,0.0,0.0,0
93175729,0.000320661,-0.00153025,0.00738511,-0.770472,-0.446898,0.26366,-0.370323,1.0,0.0,0.0,0.0,0
93282553,0.00208133,0.0162043,-0.00851119,-0.771601,-0.445674,0.263486,-0.369569,1.0,0.0,0.0,0.0,0
93383757,-0.0102625,0.024311,5.99396e-06,-0.772727,-0.444306,0.263213,-0.369058,1.0,0.0,0.0,0.0,0
93482805,-0.0143173,0.0122854,0.0109185,-0.773712,-0.443137,0.263072,-0.368501,1.0,0.0,0.0,0.0,0
93582737,-0.0163363,-0.0189747,-0.00828492,-0.774757,-0.441805,0.26326,-0.36777,1.0,0.0,0.0,0.0,0
93686794,0.00600524,0.00824268,-0.0178807,-0.775757,-0.440735,0.263134,-0.367035,1.0,0.0,0.0,0.0,0
93787884,-0.0142176,0.0140786,0.00128397,-0.776872,-0.439305,0.262922,-0.366542,1.0,0.0,0.0,0.0,0
93891764,0.0176778,0.0104214,-0.00385602,-0.777992,-0.438027,0.262444,-0.366038,1.0,0.0,0.0,0.0,0
93991744,-0.0016614,-0.00343884,-0.0103762,-0.778975,-0.436876,0.262047,-0.365608,1.0,0.0,0.0,0.0,0
94091962,-4.4797,4.57395,0.00454188,-0.8367,-0.328286,0.221817,-0.3781,1.0,0.0,0.0,0.0,0
94195884,-3.27276,4.28581,0.0391326,-0.916205,-0.0400615,0.0800608,-0.390581,1.0,0.0,0.0,0.0,0
94295139,-1.25287,2.02884,0.0113535,-0.917258,0.11232,-0.018251,-0.381693,1.0,0.0,0.0,0.0,0
94398804,-0.296627,0.685533,0.0183127,-0.909813,0.16672,-0.0645584,-0.374536,1.0,0.0,0.0,0.0,0
94498844,0.0263742,0.111138,0.0456291,-0.907949,0.174057,-0.0793734,-0.372872,1.0,0.0,0.0,0.0,0
94598725,0.000298605,0.0121305,-0.0109865,-0.908163,0.171148,-0.0822758,-0.373067,1.0,0.0,0.0,0.0,0
94702866,-0.00746654,0.0166919,0.00900228,-0.907948,0.171984,-0.0838085,-0.372866,1.0,0.0,0.0,0.0,0
94802742,-0.00845048,-0.00795651,0.00380657,-0.907789,0.172674,-0.0851583,-0.372626,1.0,0.0,0.0,0.0,0
94906750,-0.00499482,0.00320969,-0.00670697,-0.907473,0.173527,-0.086864,-0.372607,1.0,0.0,0.0,0.0,0
95007790,0.00317915,0.00154153,-0.00894951,-0.907272,0.174316,-0.0881398,-0.372428,1.0,0.0,0.0,0.0,0
95108760,0.0175741,0.00774359,0.0110875,-0.907287,0.174756,-0.0888876,-0.372008,1.0,0.0,0.0,0.0,0
95205733,0.0115927,-0.0119032,-0.00960798,-0.90746,0.175152,-0.0892141,-0.37132,1.0,0.0,0.0,0.0,0
95310287,-0.00590338,0.00534844,-0.0110202,-0.907719,0.17587,-0.0896352,-0.370246,1.0,0.0,0.0,0.0,0
95411124,0.00395437,-0.00449918,-0.00250995,-0.908058,0.176473,-0.0900438,-0.369025,1.0,0.0,0.0,0.0,0
95513999,0.00570476,-0.000828682,0.00460154,-0.908327,0.177545,-0.0908092,-0.367659,1.0,0.0,0.0,0.0,0
95615746,0.0102738,0.00728191,-0.00814637,-0.908657,0.178602,-0.0917432,-0.366097,1.0,0.0,0.0,0.0,0
95715971,-0.000901371,0.00515209,-0.0116853,-0.90897,0.179675,-0.0926522,-0.364562,1.0,0.0,0.0,0.0,0
95819741,0.00164083,0.0125924,0.00185928,-0.909181,0.180858,-0.0934,-0.36326,1.0,0.0,0.0,0.0,0
95921757,-0.0132345,0.00221218,0.0101108,-0.909334,0.181936,-0.0944756,-0.362056,1.0,0.0,0.0,0.0,0
96018764,0.00147233,0.00406077,-0.0252296,-0.909478,0.183022,-0.0955236,-0.360872,1.0,0.0,0.0,0.0,0
96123783,-0.00667479,0.032106,-0.0119673,-0.90962,0.184353,-0.0965841,-0.359553,1.0,0.0,0.0,0.0,0
96223737,0.0164475,0.00592183,0.0239021,-0.909641,0.18557,-0.0975613,-0.358607,1.0,0.0,0.0,0.0,0
96327763,-0.0152395,-0.00209809,0.0012769,-0.909682,0.186791,-0.0984327,-0.357629,1.0,0.0,0.0,0.0,0
96427735,-0.00918465,-0.0148093,-0.00892144,-0.90973,0.188226,-0.0992046,-0.356539,1.0,0.0,0.0,0.0,0
96527796,0.00238785,-0.00582315,0.00331331,-0.909701,0.189433,-0.100226,-0.355688,1.0,0.0,0.0,0.0,0
96631738,-0.0177778,-0.00855612,0.00413508,-0.909691,0.190926,-0.101384,-0.354587,1.0,0.0,0.0,0.0,0
96727735,0.01462,0.0132865,-0.00765744,-0.909671,0.192318,-0.102143,-0.353664,1.0,0.0,0.0,0.0,0
96834735,-0.0154324,0.0121338,-0.00471315,-0.909584,0.194068,-0.103408,-0.352563,1.0,0.0,0.0,0.0,0
96931753,0.000487583,0.0100638,-0.00126939,-0.909489,0.195611,-0.104385,-0.351667,1.0,0.0,0.0,0.0,0
97034732,-0.00173183,0.0105711,-0.00417278,-0.909323,0.197438,-0.10572,-0.350676,1.0,0.0,0.0,0.0,0
97139734,-0.00687721,-0.00401412,0.00774144,-0.909272,0.19904,-0.10688,-0.349548,1.0,0.0,0.0,0.0,0
97239761,-0.0231328,-0.00493472,0.0147934,-0.909163,0.200245,-0.107786,-0.348865,1.0,0.0,0.0,0.0,0
97338151,-0.0154541,0.000807131,-0.00759609,-0.90911,0.201053,-0.108385,-0.348353,1.0,0.0,0.0,0.0,0
97441947,-0.0192759,-0.0120308,0.00586914,-0.909074,0.201534,-0.108661,-0.348084,1.0,0.0,0.0,0.0,0
97545735,-0.0196475,0.0106687,-0.00397651,-0.90906,0.20195,-0.108879,-0.347809,1.0,0.0,0.0,0.0,0
97643738,0.00214867,-0.010554,-0.010775,-0.909012,0.20223,-0.108974,-0.347743,1.0,0.0,0.0,0.0,0
97747750,0.0053698,0.00574308,-0.0115321,-0.909031,0.202728,-0.109117,-0.347357,1.0,0.0,0.0,0.0,0
97847741,3.0539e-05,0.020164,-0.00625539,-0.908962,0.203249,-0.109557,-0.347095,1.0,0.0,0.0,0.0,0
97951724,0.0162538,0.0146946,-0.029149,-0.908968,0.203864,-0.109968,-0.346589,1.0,0.0,0.0,0.0,0
98051751,-0.013486,-0.00351362,-0.0166643,-0.908979,0.204679,-0.110387,-0.345947,1.0,0.0,0.0,0.0,0
98154729,-0.00406359,0.000664137,0.00227725,-0.909026,0.205687,-0.110901,-0.345058,1.0,0.0,0.0,0.0,0
98255792,0.00363988,-0.000903832,-0.00182625,-0.90904,0.206717,-0.111607,-0.344178,1.0,0.0,0.0,0.0,0
98354958,0.0029075,0.0238042,-0.00887605,-0.909052,0.207911,-0.112733,-0.34306,1.0,0.0,0.0,0.0,0
98455742,0.00312385,-0.0201072,-0.00388965,-0.909112,0.209376,-0.113788,-0.341656,1.0,0.0,0.0,0.0,0
98559779,0.0143282,0.0104292,-0.00846725,-0.909114,0.210913,-0.115411,-0.340158,1.0,0.0,0.0,0.0,0
98659741,-0.021893,-0.00281416,0.00508064,-0.909203,0.212547,-0.11697,-0.338367,1.0,0.0,0.0,0.0,0
98763764,-0.00583975,0.0188869,-0.00611136,-0.909303,0.214465,-0.118907,-0.336207,1.0,0.0,0.0,0.0,0
98863737,-6.17602e-05,0.00634628,0.00625783,-0.909262,0.21667,-0.120731,-0.334246,1.0,0.0,0.0,0.0,0
98963914,-0.00660705,0.00599105,-0.0162601,-0.909354,0.218974,-0.122571,-0.331816,1.0,0.0,0.0,0.0,0
99067736,0.572061,-0.723455,0.0625638,-0.91548,0.197723,-0.109986,-0.332723,1.0,0.0,0.0,0.0,0
99167747,0.488821,-0.691759,0.141275,-0.923937,0.154418,-0.0833306,-0.339929,1.0,0.0,0.0,0.0,0
99267921,0.297739,-0.484734,0.201188,-0.926283,0.128029,-0.0667374,-0.348073,1.0,0.0,0.0,0.0,0
99371939,0.152955,-0.277853,0.21455,-0.925432,0.114894,-0.058393,-0.356321,1.0,0.0,0.0,0.0,0
99469907,0.12678,-0.223648,0.173891,-0.923913,0.109593,-0.0543945,-0.362514,1.0,0.0,0.0,0.0,0
99574191,0.100155,-0.164809,0.134259,-0.92265,0.105315,-0.0511353,-0.367437,1.0,0.0,0.0,0.0,0
99676887,0.09511,-0.148423,0.0887177,-0.921973,0.102088,-0.048574,-0.370384,1.0,0.0,0.0,0.0,0
99775793,0.0774405,-0.101105,0.0654145,-0.921976,0.0995053,-0.0468356,-0.371302,1.0,0.0,0.0,0.0,0
99879792,0.105106,-0.128831,0.010506,-0.922642,0.0968019,-0.0448736,-0.370604,1.0,0.0,0.0,0.0,0
99979759,0.0152733,-0.0980601,0.0371835,-0.92374,0.0942504,-0.0431895,-0.368722,1.0,0.0,0.0,0.0,0
100079872,0.0734052,-0.0991883,-0.00561186,-0.925313,0.0902635,-0.0417471,-0.365932,1.0,0.0,0.0,0.0,0
100183798,0.0359575,-0.10723,-0.00271391,-0.927017,0.0871777,-0.0401401,-0.362531,1.0,0.0,0.0,0.0,0
100283750,-0.0143595,-0.118052,-0.0408863,-0.929616,0.0864767,-0.0401742,-0.355981,1.0,0.0,0.0,0.0,0
100387746,0.0420829,-0.141453,-0.00636672,-0.933096,0.0862999,-0.0404658,-0.346765,1.0,0.0,0.0,0.0,0
100487738,0.102827,-0.163021,0.0105815,-0.936645,0.0843975,-0.040649,-0.337522,1.0,0.0,0.0,0.0,0
100587826,0.162153,-0.141072,0.0568365,-0.939714,0.0807091,-0.0395293,-0.329941,1.0,0.0,0.0,0.0,0
100691739,0.150372,-0.126745,0.10377,-0.941968,0.0764304,-0.0374998,-0.324728,1.0,0.0,0.0,0.0,0
100791971,0.131554,-0.0908537,0.123142,-0.943202,0.0717358,-0.0355297,-0.32243,1.0,0.0,0.0,0.0,0
100891738,0.0317943,-0.0737973,0.140931,-0.943552,0.0677222,-0.0329154,-0.322552,1.0,0.0,0.0,0.0,0
100995776,0.0428888,-0.0255359,0.142052,-0.94318,0.0637863,-0.030699,-0.324654,1.0,0.0,0.0,0.0,0
101095737,0.0116125,-0.0124162,0.132279,-0.942406,0.0608773,-0.0284402,-0.327653,1.0,0.0,0.0,0.0,0
101199904,-0.185021,-0.15242,0.132506,-0.994836,-0.00200797,-0.0743618,0.0690441,0.915305,0.0336336,0.0410252,-0.399253,1
101299739,-0.310384,-0.202555,0.101252,-0.996008,0.016556,-0.0591242,0.0647924,0.915305,0.0336336,0.0410252,-0.399253,1
101398111,-0.539096,0.00392607,0.0663856,-0.995901,0.0446215,-0.0438307,0.0653451,0.915305,0.0336336,0.0410252,-0.399253,1
101502322,-1.45359,0.207697,0.0563001,-0.989652,0.117705,-0.0391923,0.0720986,0.915305,0.0336336,0.0410252,-0.399253,1
101603737,-0.673509,0.136786,0.0306005,-0.978366,0.185472,-0.0421645,0.0813707,0.915305,0.0336336,0.0410252,-0.399253,1
101703773,0.598146,0.115496,0.0534073,-0.975925,0.196582,-0.0445897,0.0832876,0.915305,0.0336336,0.0410252,-0.399253,1
101807750,1.59424,0.0897833,0.0616612,-0.989013,0.129685,-0.0392828,0.0590921,0.915305,0.0336336,0.0410252,-0.399253,1
101907774,0.842465,0.0674854,-0.0107018,-0.997206,0.0704708,-0.023705,-0.00716846,0.915305,0.0336336,0.0410252,-0.399253,1
102011746,0.274226,0.192826,-0.264566,-0.992731,0.0432365,-0.0124889,-0.11162,0.915305,0.0336336,0.0410252,-0.399253,1
102110087,0.101159,0.171488,-0.653651,-0.976566,0.0355499,-0.0179388,-0.211504,0.915305,0.0336336,0.0410252,-0.399253,1
102211797,0.478597,0.865075,-1.0796,-0.960817,0.0298576,-0.0471479,-0.271507,0.915305,0.0336336,0.0410252,-0.399253,1
102315777,0.974462,1.35942,-1.43886,-0.953796,0.0119651,-0.124013,-0.273404,0.915305,0.0336336,0.0410252,-0.399253,1
102415766,0.748756,0.80371,-1.66184,-0.953746,-0.00547257,-0.194108,-0.22948,0.915305,0.0336336,0.0410252,-0.399253,1
102515752,0.452591,0.258789,-1.65817,-0.959958,-0.00746483,-0.229008,-0.161184,0.915305,0.0336336,0.0410252,-0.399253,1
102619744,0.238209,-0.267401,-1.49046,-0.968057,0.00348639,-0.236183,-0.0840913,0.915305,0.0336336,0.0410252,-0.399253,1
102720967,-0.747669,-0.582107,-1.26252,-0.976955,0.0381688,-0.208889,-0.0216188,0.915305,0.0336336,0.0410252,-0.399253,1
102823795,-1.20839,-0.502609,-1.01637,-0.977536,0.112913,-0.176924,0.0192888,0.915305,0.0336336,0.0410252,-0.399253,1
102923813,-0.745009,-0.644166,-0.789705,-0.973148,0.174625,-0.143202,0.0445128,0.915305,0.0336336,0.0410252,-0.399253,1
103023827,0.119421,-0.819182,-0.556873,-0.973397,0.195816,-0.102603,0.0602323,0.915305,0.0336336,0.0410252,-0.399253,1
103127866,0.621966,-0.501039,-0.382147,-0.979671,0.178268,-0.059264,0.0703839,0.915305,0.0336336,0.0410252,-0.399253,1
103227760,0.860631,-0.17501,-0.249346,-0.986097,0.142419,-0.0359683,0.0776978,0.915305,0.0336336,0.0410252,-0.399253,1
103326107,0.635049,-0.0293049,-0.14472,-0.991107,0.10097,-0.0265057,0.0825168,0.915305,0.0336336,0.0410252,-0.399253,1
103430374,0.190444,0.0338457,-0.061,-0.993222,0.0751982,-0.0246496,0.0851317,0.915305,0.0336336,0.0410252,-0.399253,1
103533997,-0.729566,-0.0109803,-0.00836667,-0.992371,0.084573,-0.0271139,0.0855057,0.915305,0.0336336,0.0410252,-0.399253,1
103635763,-1.23049,-0.0210886,0.0110759,-0.986758,0.134691,-0.0326627,0.0842573,0.915305,0.0336336,0.0410252,-0.399253,1
103735745,-1.04307,-0.0312529,0.0330426,-0.977797,0.188671,-0.0380009,0.0829026,0.915305,0.0336336,0.0410252,-0.399253,1
103835800,-0.631142,8.97995e-05,0.0272973,-0.969294,0.228238,-0.0413832,0.0816317,0.915305,0.0336336,0.0410252,-0.399253,1
103939732,-0.225699,-0.0164175,0.026172,-0.963433,0.25177,-0.0432754,0.0808459,0.915305,0.0336336,0.0410252,-0.399253,1
104039798,-0.0401539,-0.0302557,0.0401785,-0.960979,0.261178,-0.0435781,0.0800385,0.915305,0.0336336,0.0410252,-0.399253,1
104139770,-0.0939279,0.0127931,0.0311128,-0.960059,0.264719,-0.0435737,0.0794417,0.915305,0.0336336,0.0410252,-0.399253,1
104243748,-0.339797,0.0262202,0.0167803,-0.956338,0.278124,-0.0441136,0.0782282,0.915305,0.0336336,0.0410252,-0.399253,1
104343777,-0.292167,-0.143181,0.0150336,-0.950916,0.296639,-0.0435377,0.0766138,0.915305,0.0336336,0.0410252,-0.399253,1
104447774,-0.114586,-0.18307,-0.00480641,-0.948129,0.306667,-0.0369611,0.0751023,0.915305,0.0336336,0.0410252,-0.399253,1
104547899,-0.0652625,-0.15474,-0.0180865,-0.94733,0.309517,-0.0324771,0.0755659,0.915305,0.0336336,0.0410252,-0.399253,1
104647847,-0.0353514,-0.289183,-0.0192859,-0.947215,0.310589,-0.0239752,0.0757863,0.915305,0.0336336,0.0410252,-0.399253,1
104751779,0.106632,-0.763873,-0.0647505,-0.948142,0.309514,0.00144541,0.0722942,0.915305,0.0336336,0.0410252,-0.399253,1
104851745,0.271509,-0.963672,-0.108721,-0.950194,0.301157,0.046141,0.0656337,0.915305,0.0336336,0.0410252,-0.399253,1
104951744,0.293889,-0.781361,-0.148227,-0.951324,0.288334,0.0890695,0.0625474,0.915305,0.0336336,0.0410252,-0.399253,1
105055778,0.329747,-0.628289,-0.183349,-0.951756,0.272955,0.124721,0.0640323,0.915305,0.0336336,0.0410252,-0.399253,1
105155745,0.272689,-0.439625,-0.153505,-0.951981,0.256256,0.153013,0.0682071,0.915305,0.0336336,0.0410252,-0.399253,1
105259730,0.156145,-0.228866,-0.136208,-0.9515,0.244261,0.170973,0.0758506,0.915305,0.0336336,0.0410252,-0.399253,1
105360738,0.107572,-0.136979,-0.0515876,-0.950803,0.236958,0.181705,0.0825061,0.915305,0.0336336,0.0410252,-0.399253,1
105460003,-0.295361,0.267778,0.0442969,-0.950505,0.236334,0.18106,0.0889031,0.915305,0.0336336,0.0410252,-0.399253,1
105563741,0.25133,1.50658,0.205353,-0.956057,0.237948,0.139554,0.0993022,0.915305,0.0336336,0.0410252,-0.399253,1
105662412,1.19298,1.48531,0.293743,-0.974232,0.18906,0.061806,0.106339,0.915305,0.0336336,0.0410252,-0.399253,1
105766335,1.45587,0.726436,0.31734,-0.989046,0.107641,0.0104719,0.100454,0.915305,0.0336336,0.0410252,-0.399253,1
105867912,0.816525,0.214665,0.319832,-0.995148,0.0426921,-0.00880922,0.0882034,0.915305,0.0336336,0.0410252,-0.399253,1
105967809,0.247926,-0.00986809,0.298766,-0.997014,0.0130793,-0.013575,0.0748893,0.915305,0.0336336,0.0410252,-0.399253,1
106071770,-0.0105481,-0.0619969,0.277863,-0.998029,0.00265464,-0.01316,0.0613079,0.915305,0.0336336,0.0410252,-0.399253,1
106171739,-0.0978419,-0.0371368,0.233964,-0.998698,0.000179226,-0.0117065,0.0496469,0.915305,0.0336336,0.0410252,-0.399253,1
106271788,-0.139025,-0.0320213,0.182933,-0.999154,-1.85301e-05,-0.0104075,0.0397922,0.915305,0.0336336,0.0410252,-0.399253,1
106375737,-0.138769,-0.0477306,0.104175,-0.999435,4.43631e-05,-0.00940212,0.0322662,0.915305,0.0336336,0.0410252,-0.399253,1
106475740,-0.110116,-0.0414096,0.0716623,-0.999579,0.000232862,-0.00877105,0.0276433,0.915305,0.0336336,0.0410252,-0.399253,1
106575828,-0.116536,-0.0333514,0.0248182,-0.999644,0.000319157,-0.00822331,0.025392,0.915305,0.0336336,0.0410252,-0.399253,1
106679744,-0.125927,0.0102056,-0.0131289,-0.999664,0.000413929,-0.007399,0.0248243,0.915305,0.0336336,0.0410252,-0.399253,1
106779775,-0.0658716,0.0277092,-0.0433209,-0.999641,0.000488158,-0.00685032,0.0259051,0.915305,0.0336336,0.0410252,-0.399253,1
106883812,-0.043052,0.0407067,-0.0396223,-0.999585,0.000115994,-0.00592704,0.0282057,0.915305,0.0336336,0.0410252,-0.399253,1
106983762,-0.0660421,0.0722685,-0.039405,-0.999517,-4.37483e-05,-0.00498295,0.0306733,0.915305,0.0336336,0.0410252,-0.399253,1
107083829,-0.0778383,0.0689354,-0.0321297,-0.999442,-0.00027646,-0.00420745,0.0331361,0.915305,0.0336336,0.0410252,-0.399253,1
107187769,-0.0800892,0.0399095,-0.0150792,-0.999361,-0.000496062,-0.0036905,0.0355426,0.915305,0.0336336,0.0410252,-0.399253,1
107287739,-0.0804877,0.0376227,-0.0337673,-0.999286,-0.000981185,-0.00347797,0.0376008,0.915305,0.0336336,0.0410252,-0.399253,1
107387740,-0.0854857,0.0322398,-0.00828875,-0.99922,-0.00170362,-0.00325865,0.0393097,0.915305,0.0336336,0.0410252,-0.399253,1
107491766,-0.112986,0.0118691,-0.0445296,-0.999135,-0.00149777,-0.00234542,0.0414922,0.915305,0.0336336,0.0410252,-0.399253,1
107591822,-0.118585,-0.0177528,-0.197207,-0.998797,-0.00174816,-0.00183551,0.0489787,0.915305,0.0336336,0.0410252,-0.399253,1
107695738,-0.138436,0.012077,-0.50434,-0.997595,-0.00186744,-0.00112251,0.0692754,0.915305,0.0336336,0.0410252,-0.399253,1
107795737,-0.14178,0.0359077,-0.778208,-0.99466,-0.0022295,-0.000715891,0.103184,0.915305,0.0336336,0.0410252,-0.399253,1
107894120,-0.0857192,0.0736086,-0.99132,-0.988884,-0.00265834,-0.000434339,0.148662,0.915305,0.0336336,0.0410252,-0.399253,1
107999232,-0.10551,0.0705286,-1.16478,-0.978379,-0.00315834,-0.000380276,0.206798,0.915305,0.0336336,0.0410252,-0.399253,1
108099762,-0.110915,0.0308139,-1.26108,-0.963412,-0.00386765,-0.000375965,0.267995,0.915305,0.0336336,0.0410252,-0.399253,1
108199741,-0.096571,-0.0407469,-1.17423,-0.944434,-0.00497627,-0.000536262,0.328664,0.915305,0.0336336,0.0410252,-0.399253,1
108303917,-0.130684,-0.0215989,-0.866894,-0.924937,-0.00521849,-0.002055,0.38008,0.915305,0.0336336,0.0410252,-0.399253,1
108403747,-0.1213,-0.0142856,-0.539863,-0.910322,-0.00554084,-0.00346302,0.41385,0.915305,0.0336336,0.0410252,-0.399253,1
108503745,-0.179033,-0.00784492,-0.266265,-0.901264,-0.0051513,-0.00456502,0.433216,0.915305,0.0336336,0.0410252,-0.399253,1
108607747,-0.913454,-0.115421,0.0128384,-0.89782,0.0175242,-0.0137303,0.4398,0.915305,0.0336336,0.0410252,-0.399253,1
108707797,-0.966599,-0.155077,0.201036,-0.897799,0.0608706,-0.0289012,0.435219,0.915305,0.0336336,0.0410252,-0.399253,1
108811747,-0.584484,-0.143424,0.317166,-0.900223,0.0955792,-0.0398647,0.422936,0.915305,0.0336336,0.0410252,-0.399253,1
108911900,-0.333601,-0.12848,0.39113,-0.905333,0.112525,-0.0448286,0.407063,0.915305,0.0336336,0.0410252,-0.399253,1
109011772,-0.329348,-0.126268,0.397723,-0.911425,0.123179,-0.0480828,0.38964,0.915305,0.0336336,0.0410252,-0.399253,1
109115754,-0.358904,-0.136015,0.39785,-0.916862,0.137537,-0.0528464,0.371018,0.915305,0.0336336,0.0410252,-0.399253,1
109215798,0.0554085,-0.0634382,0.326831,-0.921938,0.143889,-0.0552331,0.355353,0.915305,0.0336336,0.0410252,-0.399253,1
109315891,0.869894,0.0188736,0.26764,-0.930517,0.114317,-0.0460838,0.344886,0.915305,0.0336336,0.0410252,-0.399253,1
109420755,1.10484,-0.0512365,0.197669,-0.939053,0.0578224,-0.0268494,0.33781,0.915305,0.0336336,0.0410252,-0.399253,1
109519797,0.505935,-0.0445438,0.162054,-0.943145,0.0186624,-0.0120684,0.331637,0.915305,0.0336336,0.0410252,-0.399253,1
109623929,0.105154,-0.0414163,0.109166,-0.945254,0.00270205,-0.00520878,0.326282,0.915305,0.0336336,0.0410252,-0.399253,1
109723823,-0.0424145,0.0102862,0.0666465,-0.946407,-0.00064935,-0.00290457,0.322962,0.915305,0.0336336,0.0410252,-0.399253,1
109823796,-0.0473673,-0.026034,0.00907808,-0.947035,-0.000163892,-0.00236638,0.321122,0.915305,0.0336336,0.0410252,-0.399253,1
109927757,-0.0282566,-0.024086,-0.00750497,-0.947237,0.000896414,-0.00253429,0.320522,0.915305,0.0336336,0.0410252,-0.399253,1
110026478,-0.0113797,-0.0116441,-0.0213132,-0.947097,0.0013811,-0.00295006,0.320931,0.915305,0.0336336,0.0410252,-0.399253,1
110130167,0.00451248,-0.0108801,0.0117865,-0.946878,0.00169913,-0.00325136,0.321571,0.915305,0.0336336,0.0410252,-0.399253,1
110231737,0.00316624,0.00138163,-0.0238949,-0.94654,0.0014938,-0.00327667,0.322567,0.915305,0.0336336,0.0410252,-0.399253,1
110331815,0.0290414,0.0126237,-0.0242064,-0.946241,0.00157366,-0.00311905,0.323445,0.915305,0.0336336,0.0410252,-0.399253,1
110435851,0.0128699,0.0182192,-0.0187612,-0.945936,0.00151916,-0.0026534,0.324339,0.915305,0.0336336,0.0410252,-0.399253,1
110535788,0.0358547,0.00185846,-0.0251789,-0.945728,0.00138734,-0.0022834,0.32495,0.915305,0.0336336,0.0410252,-0.399253,1
110636822,0.0319217,-0.00865129,-0.0197085,-0.945479,0.00103451,-0.00241648,0.325673,0.915305,0.0336336,0.0410252,-0.399253,1
110739783,0.022506,-0.00199546,-0.030858,-0.945322,0.00100143,-0.00247185,0.326127,0.915305,0.0336336,0.0410252,-0.399253,1
110839743,0.0379404,-0.0116006,-0.00250281,-0.945264,0.00105359,-0.00233853,0.326295,0.915305,0.0336336,0.0410252,-0.399253,1
110943764,0.000338654,-0.00970465,-0.017396,-0.94517,0.00108381,-0.00234259,0.326568,0.915305,0.0336336,0.0410252,-0.399253,1
111043741,0.0181513,-0.0244399,-0.00935765,-0.945129,0.000881764,-0.002211,0.32669,0.915305,0.0336336,0.0410252,-0.399253,1
111143797,-0.00409111,-0.0369896,-0.00572985,-0.945126,0.000766252,-0.00222701,0.326698,0.915305,0.0336336,0.0410252,-0.399253,1
111247742,-0.0167669,-0.0441957,-0.0260416,-0.945135,0.00083072,-0.00205413,0.326674,0.915305,0.0336336,0.0410252,-0.399253,1
111347745,-0.00981516,-0.0376784,-0.0139399,-0.945172,0.000750843,-0.00201226,0.326565,0.915305,0.0336336,0.0410252,-0.399253,1
111447809,-0.011161,0.00556699,0.0173824,-0.945179,0.000503021,-0.00184552,0.326546,0.915305,0.0336336,0.0410252,-0.399253,1
111551913,-0.0107548,-0.00685179,-0.0137977,-0.945206,0.000405391,-0.00192144,0.326468,0.915305,0.0336336,0.0410252,-0.399253,1
111651772,0.0132297,0.00358402,-0.00481767,-0.945273,0.000545884,-0.00176315,0.326274,0.915305,0.0336336,0.0410252,-0.399253,1
111755741,-0.0191439,0.0015004,-0.01166,-0.94529,0.000610397,-0.00195121,0.326225,0.915305,0.0336336,0.0410252,-0.399253,1
111855768,0.00499405,0.0334543,-0.0197867,-0.945278,0.000524585,-0.00195044,0.32626,0.915305,0.0336336,0.0410252,-0.399253,1
111955793,0.000698779,0.00722017,0.00480808,-0.945293,0.000420102,-0.00171578,0.326217,0.915305,0.0336336,0.0410252,-0.399253,1
112059785,0.00549401,-0.00567803,-0.00221639,-0.945277,0.000626951,-0.00145019,0.326264,0.915305,0.0336336,0.0410252,-0.399253,1
112158451,-0.00308591,0.0280338,-0.0100784,-0.945291,0.000566125,-0.00150946,0.326225,0.915305,0.0336336,0.0410252,-0.399253,1
112260725,-0.0100031,0.000558365,-0.0145915,-0.945285,0.000597137,-0.00154881,0.326243,0.915305,0.0336336,0.0410252,-0.399253,1
112363749,-0.0356473,0.00100375,-0.0101208,-0.94526,0.000470713,-0.00153774,0.326315,0.915305,0.0336336,0.0410252,-0.399253,1
112463754,-0.0106349,-0.0214253,0.00144466,-0.945264,0.00025357,-0.00154333,0.326302,0.915305,0.0336336,0.0410252,-0.399253,1
112567738,-0.00138431,-0.0139971,-0.0190679,-0.945233,0.000495619,-0.00157921,0.326392,0.915305,0.0336336,0.0410252,-0.399253,1
112667753,-0.00198721,-0.00132679,0.00522128,-0.945233,0.000543129,-0.00156191,0.326393,0.915305,0.0336336,0.0410252,-0.399253,1
112767824,-0.316781,0.00902099,-0.0186981,-0.945106,0.0075718,-0.00401729,0.326653,0.915305,0.0336336,0.0410252,-0.399253,1
112871749,0.0784194,0.00105122,-0.00235949,-0.944999,0.0137086,-0.0061369,0.326728,0.915305,0.0336336,0.0410252,-0.399253,1
112971913,0.113192,-0.0415929,-0.0171938,-0.944953,0.00712844,-0.00402106,0.327103,0.915305,0.0336336,0.0410252,-0.399253,1
113071743,0.013894,-0.05725,-0.024217,-0.944991,0.00264437,-0.0025242,0.327075,0.915305,0.0336336,0.0410252,-0.399253,1
113176735,-0.910958,-0.0500426,-0.00887016,-0.944673,0.0237556,-0.00940622,0.327016,0.915305,0.0336336,0.0410252,-0.399253,1
113276894,-1.33363,-0.041265,-0.00475139,-0.94144,0.0806384,-0.0290064,0.32611,0.915305,0.0336336,0.0410252,-0.399253,1
113379846,-0.542354,-0.0522951,0.0103445,-0.935909,0.129919,-0.045997,0.32416,0.915305,0.0336336,0.0410252,-0.399253,1
113480742,0.51941,-0.0288003,-0.00898652,-0.9361,0.128155,-0.0452771,0.324412,0.915305,0.0336336,0.0410252,-0.399253,1
113579790,1.2806,-0.0102778,-0.0222257,-0.941374,0.0804888,-0.0288962,0.326347,0.915305,0.0336336,0.0410252,-0.399253,1
113680745,0.752201,-0.000784656,-0.00846523,-0.94434,0.031552,-0.0118362,0.32724,0.915305,0.0336336,0.0410252,-0.399253,1
113783738,0.266699,-0.4872,-0.0117009,-0.944874,0.0118491,0.00371588,0.327198,0.915305,0.0336336,0.0410252,-0.399253,1
113883778,0.074967,-1.27409,-0.00877491,-0.943586,0.0203018,0.0498858,0.326719,0.915305,0.0336336,0.0410252,-0.399253,1
113987763,-0.0026718,-0.670532,-0.00197539,-0.939011,0.0382935,0.1047,0.325314,0.915305,0.0336336,0.0410252,-0.399253,1
114088727,0.0151768,0.86457,-0.00344085,-0.939718,0.0366502,0.0969701,0.325857,0.915305,0.0336336,0.0410252,-0.399253,1
114191744,0.0296443,0.929521,0.00218611,-0.943691,0.0174903,0.045824,0.327173,0.915305,0.0336336,0.0410252,-0.399253,1
114292740,0.023741,0.387962,0.00646712,-0.944797,0.00566065,0.0146578,0.32728,0.915305,0.0336336,0.0410252,-0.399253,1
114391790,0.0167779,-0.228186,0.00138877,-0.944873,0.00332355,0.00832004,0.327314,0.915305,0.0336336,0.0410252,-0.399253,1
114495785,0.028567,-0.625533,0.0195231,-0.944447,0.0109637,0.0306614,0.327047,0.915305,0.0336336,0.0410252,-0.399253,1
114595754,0.00946319,-0.476005,0.00297437,-0.94311,0.0216274,0.0609153,0.326137,0.915305,0.0336336,0.0410252,-0.399253,1
114695737,-0.0252067,0.102601,0.0119637,-0.942881,0.0233028,0.0661081,0.325673,0.915305,0.0336336,0.0410252,-0.399253,1
114799896,-0.0906108,-0.127904,-0.0209075,-0.94307,0.0225195,0.0629928,0.325797,0.915305,0.0336336,0.0410252,-0.399253,1
114899725,-0.613744,-0.126587,-0.256143,-0.940056,0.0419148,0.0651174,0.33211,0.915305,0.0336336,0.0410252,-0.399253,1
114999789,-0.781083,0.1503,-0.678841,-0.929917,0.0769115,0.0532688,0.35567,0.915305,0.0336336,0.0410252,-0.399253,1
115104773,-0.618357,0.629391,-1.1769,-0.908494,0.101978,0.0239741,0.404555,0.915305,0.0336336,0.0410252,-0.399253,1
115203842,-0.428539,0.747829,-1.60431,-0.875393,0.111181,-0.0105784,0.470333,0.915305,0.0336336,0.0410252,-0.399253,1
115307739,-0.400532,0.709662,-1.9589,-0.824269,0.114672,-0.042523,0.552831,0.915305,0.0336336,0.0410252,-0.399253,1
115408761,-0.375014,0.697215,-2.16384,-0.757626,0.117432,-0.071842,0.638005,0.915305,0.0336336,0.0410252,-0.399253,1
115508732,-0.215119,0.651064,-2.27982,-0.677321,0.11473,-0.0935575,0.720639,0.915305,0.0336336,0.0410252,-0.399253,1
115611779,-0.137888,0.555753,-2.25661,-0.584412,0.108834,-0.106597,0.797029,0.915305,0.0336336,0.0410252,-0.399253,1
115713065,-0.0971006,0.495053,-2.14793,-0.488737,0.102012,-0.114297,0.858875,0.915305,0.0336336,0.0410252,-0.399253,1
115811844,0.85917,0.411084,-1.81986,-0.400443,0.0871134,-0.10317,0.906318,0.915305,0.0336336,0.0410252,-0.399253,1
115916735,1.18319,0.40579,-1.25108,-0.328959,0.048938,-0.0498255,0.941758,0.915305,0.0336336,0.0410252,-0.399253,1
116015800,0.528389,0.25691,-0.73508,-0.284632,0.0212149,-0.0162081,0.958265,0.915305,0.0336336,0.0410252,-0.399253,1
116115022,0.183084,0.15569,-0.318928,-0.260656,0.00780557,-0.00401465,0.965392,0.915305,0.0336336,0.0410252,-0.399253,1
116218575,0.0234411,0.0603226,0.00831012,-0.253515,0.00217366,-0.000960652,0.967328,0.915305,0.0336336,0.0410252,-0.399253,1
116319825,-0.00105511,0.0126606,0.195575,-0.259214,0.000539138,-0.00081329,0.96582,0.915305,0.0336336,0.0410252,-0.399253,1
116422449,-0.0182304,0.00639141,0.324265,-0.272841,9.47099e-05,-0.000996624,0.962059,0.915305,0.0336336,0.0410252,-0.399253,1
116523813,0.0106657,-0.00679112,0.351954,-0.289649,-3.77854e-05,-0.00100586,0.957132,0.915305,0.0336336,0.0410252,-0.399253,1
116627772,-0.20296,-0.0154906,0.265684,-0.305596,0.000894928,-0.0049379,0.952148,0.915305,0.0336336,0.0410252,-0.399253,1
116727798,-0.387405,0.0371103,0.0384174,-0.312701,0.00610648,-0.0222164,0.949572,0.915305,0.0336336,0.0410252,-0.399253,1
116827790,0.0486627,4.97908e-05,-0.0824081,-0.310795,0.00842366,-0.0327686,0.949875,0.915305,0.0336336,0.0410252,-0.399253,1
116931757,0.329335,-0.0302581,-0.114318,-0.305456,0.00444552,-0.0180889,0.952024,0.915305,0.0336336,0.0410252,-0.399253,1
117031741,0.122509,0.00446991,-0.149076,-0.299038,0.00197258,-0.00656958,0.954216,0.915305,0.0336336,0.0410252,-0.399253,1
117131843,0.0520722,-0.0289249,-0.133473,-0.29272,0.000634326,-0.00186595,0.956196,0.915305,0.0336336,0.0410252,-0.399253,1
117235751,-0.004843,-0.0317306,-0.101825,-0.286585,0.000200263,-0.000744024,0.958055,0.915305,0.0336336,0.0410252,-0.399253,1
117335763,-0.0118284,0.00712997,-0.081447,-0.281843,-2.16422e-05,-0.000654499,0.95946,0.915305,0.0336336,0.0410252,-0.399253,1
117440002,0.0276271,-0.00968458,-0.0691021,-0.277768,-0.00021177,-0.00106522,0.960648,0.915305,0.0336336,0.0410252,-0.399253,1
117539875,0.0377651,-0.02327,-0.0331306,-0.275259,-0.000398007,-0.00110367,0.96137,0.915305,0.0336336,0.0410252,-0.399253,1
117638812,0.0039902,-0.00520257,-0.0159499,-0.27385,-0.000450443,-0.000830925,0.961772,0.915305,0.0336336,0.0410252,-0.399253,1
117743738,0.0131324,-0.0120547,0.000402943,-0.273122,-0.000492764,-0.000861992,0.961979,0.915305,0.0336336,0.0410252,-0.399253,1
117844758,0.00918615,-0.0101057,0.00439847,-0.27298,-0.000533519,-0.000968795,0.962019,0.915305,0.0336336,0.0410252,-0.399253,1
117944739,-0.0115038,-0.0142907,0.0140601,-0.273183,-0.000666186,-0.00100878,0.961961,0.915305,0.0336336,0.0410252,-0.399253,1
118048772,-0.0194445,-0.0221429,-0.00282449,-0.273479,-0.00127616,-0.00120291,0.961876,0.915305,0.0336336,0.0410252,-0.399253,1
118148739,0.0114782,-0.015464,0.010991,-0.273724,-0.00141499,-0.00147416,0.961806,0.915305,0.0336336,0.0410252,-0.399253,1
118251821,-0.000469012,-0.0340667,0.0100569,-0.274032,-0.00130289,-0.00143954,0.961719,0.915305,0.0336336,0.0410252,-0.399253,1
118351802,0.0151176,-0.0187146,0.0129775,-0.27433,-0.00143375,-0.001481,0.961634,0.915305,0.0336336,0.0410252,-0.399253,1
118451814,0.0115892,-0.0237897,0.00107886,-0.27431,-0.00123186,-0.00192199,0.961639,0.915305,0.0336336,0.0410252,-0.399253,1
118554449,0.00663851,-0.0381936,0.0170772,-0.274133,-0.00132294,-0.00202572,0.961689,0.915305,0.0336336,0.0410252,-0.399253,1
118655787,0.0241509,-0.0388547,0.00557674,-0.273958,-0.00159468,-0.00209771,0.961738,0.915305,0.0336336,0.0410252,-0.399253,1
118755768,0.0292173,-0.00643463,0.0124109,-0.273796,-0.00202222,-0.00239238,0.961783,0.915305,0.0336336,0.0410252,-0.399253,1
118859800,0.0245276,-0.00784309,0.00333175,-0.273298,-0.00202897,-0.00257848,0.961924,0.915305,0.0336336,0.0410252,-0.399253,1
118959770,0.0479001,-0.0574098,0.0080828,-0.273033,-0.00180164,-0.00265437,0.961999,0.915305,0.0336336,0.0410252,-0.399253,1
119063735,0.0168993,-0.0276959,0.00166734,-0.272516,-0.00227385,-0.00268319,0.962145,0.915305,0.0336336,0.0410252,-0.399253,1
119163911,0.0500147,-0.0359072,0.0121864,-0.272189,-0.00249134,-0.0026503,0.962237,0.915305,0.0336336,0.0410252,-0.399253,1
119263790,0.0302508,-0.0215925,0.000667974,-0.271652,-0.00227495,-0.00279801,0.962389,0.915305,0.0336336,0.0410252,-0.399253,1
119367771,-0.00464986,-0.0436186,0.0142047,-0.271378,-0.00221107,-0.0033382,0.962465,0.915305,0.0336336,0.0410252,-0.399253,1
119467788,0.0213878,-0.0501135,0.0121033,-0.270934,-0.00251306,-0.00356443,0.962588,0.915305,0.0336336,0.0410252,-0.399253,1
119567867,0.0287172,-0.0537421,0.000967194,-0.270378,-0.00281295,-0.00342639,0.962744,0.915305,0.0336336,0.0410252,-0.399253,1
119671748,0.023725,-0.0269237,0.0142832,-0.270277,-0.00301849,-0.00335499,0.962772,0.915305,0.0336336,0.0410252,-0.399253,1
119771755,0.0238758,-0.0172184,0.00777091,-0.270076,-0.00300342,-0.00309209,0.962829,0.915305,0.0336336,0.0410252,-0.399253,1
