timestamp,roll_body,pitch_body,yaw_body,yaw_sp_move_rate,q_d[0],q_d[1],q_d[2],q_d[3],thrust,landing_gear,q_d_valid,roll_reset_integral,pitch_reset_integral,yaw_reset_integral,fw_control_yaw,disable_mc_yaw_control,apply_flaps
52494023,0.0,-0.0,0.0130055,0.0,0.999979,0.0,0.0,0.00650269,0.0,-1.0,1,0,0,0,0,0,0
52612436,0.0,-0.0,0.0132863,0.0,0.999978,0.0,0.0,0.0066431,0.0,-1.0,1,0,0,0,0,0,0
52714428,0.0,-0.0,0.0132059,0.0,0.999978,0.0,0.0,0.00660291,0.0,-1.0,1,0,0,0,0,0,0
52813152,0.0,-0.0,0.0132767,0.0,0.999978,0.0,0.0,0.00663828,0.0,-1.0,1,0,0,0,0,0,0
52917240,0.0,-0.0,0.0132149,0.0,0.999978,0.0,0.0,0.00660741,0.0,-1.0,1,0,0,0,0,0,0
53018847,0.0,-0.0,0.0133297,0.0,0.999978,0.0,0.0,0.00666482,0.0,-1.0,1,0,0,0,0,0,0
53115817,0.0,-0.0,0.013121,0.0,0.999978,0.0,0.0,0.00656043,0.0,-1.0,1,0,0,0,0,0,0
53220177,0.0,-0.0,0.0134834,0.0,0.999977,0.0,0.0,0.00674164,0.0,-1.0,1,0,0,0,0,0,0
53325339,0.0,-0.0,0.0136616,0.0,0.999977,0.0,0.0,0.00683076,0.0,-1.0,1,0,0,0,0,0,0
53426398,0.0,-0.0,0.0136241,0.0,0.999977,0.0,0.0,0.006812,0.0,-1.0,1,0,0,0,0,0,0
53526734,0.0,-0.0,0.0133956,0.0,0.999978,0.0,0.0,0.00669775,0.0850376,-1.0,1,0,0,0,0,0,0
53629079,0.0,-0.0,0.0132645,0.000428993,0.999978,0.0,0.0,0.00663221,0.443264,-1.0,1,0,0,0,0,0,0
53729100,0.0,-0.0,0.013268,5.89453e-06,0.999978,0.0,0.0,0.00663396,0.616645,-1.0,1,0,0,0,0,0,0
53829416,0.0,-0.0,0.0132682,-1.96597e-07,0.999978,0.0,0.0,0.00663404,0.619204,-1.0,1,0,0,0,0,0,0
53933519,0.0,-0.0,0.0132682,-4.63901e-09,0.999978,0.0,0.0,0.00663403,0.619361,-1.0,1,0,0,0,0,0,0
54033004,0.0,-0.0,0.0132682,-1.00431e-11,0.999978,0.0,0.0,0.00663403,0.619335,-1.0,1,0,0,0,0,0,0
54136661,0.0,-0.0,0.0132682,1.55274e-12,0.999978,0.0,0.0,0.00663403,0.618207,-1.0,1,0,0,0,0,0,0
54238011,0.0,-0.0,0.0132682,4.68838e-14,0.999978,0.0,0.0,0.00663403,0.610349,-1.0,1,0,0,0,0,0,0
54338495,0.0,-0.0,0.0132682,6.08758e-16,0.999978,0.0,0.0,0.00663403,0.241339,-1.0,1,0,0,0,0,0,0
54441374,0.0,-0.0,0.0132682,-9.23301e-18,0.999978,0.0,0.0,0.00663403,0.258148,-1.0,1,0,0,0,0,0,0
54541046,0.0,-0.0,0.0132682,-4.36851e-19,0.999978,0.0,0.0,0.00663403,0.260051,-1.0,1,0,0,0,0,0,0
54642979,0.0,-0.0,0.0132682,-1.17887e-20,0.999978,0.0,0.0,0.00663403,0.259288,-1.0,1,0,0,0,0,0,0
54742003,0.0,-0.0,0.0132682,-1.28295e-21,0.999978,0.0,0.0,0.00663403,0.08,-1.0,1,0,0,0,0,0,0
54845667,0.0,-0.0,0.0132682,-1.28295e-21,0.999978,0.0,0.0,0.00663403,0.08,-1.0,1,0,0,0,0,0,0
54945949,0.0,-0.0,0.0132682,-1.28295e-21,0.999978,0.0,0.0,0.00663403,0.08,-1.0,1,0,0,0,0,0,0
55049846,0.0,-0.0,0.0132682,-1.28295e-21,0.999978,0.0,0.0,0.00663403,0.08,-1.0,1,0,0,0,0,0,0
55149767,0.0,-0.0,0.0132682,-1.28295e-21,0.999978,0.0,0.0,0.00663403,0.08,-1.0,1,0,0,0,0,0,0
55249700,0.0,-0.0,0.0132682,-1.28295e-21,0.999978,0.0,0.0,0.00663403,0.08,-1.0,1,0,0,0,0,0,0
55353867,0.0,-0.0,0.0132682,-1.28295e-21,0.999978,0.0,0.0,0.00663403,0.08,-1.0,1,0,0,0,0,0,0
55454467,0.0,-0.0,0.0132682,-1.28295e-21,0.999978,0.0,0.0,0.00663403,0.08,-1.0,1,0,0,0,0,0,0
55550161,0.0,-0.0,0.0132682,-1.28295e-21,0.999978,0.0,0.0,0.00663403,0.08,-1.0,1,0,0,0,0,0,0
55657055,0.0,-0.0,0.0132682,-1.28295e-21,0.999978,0.0,0.0,0.00663403,0.08,-1.0,1,0,0,0,0,0,0
55757047,0.0,-0.0,0.0132682,-1.28295e-21,0.999978,0.0,0.0,0.00663403,0.08,-1.0,1,0,0,0,0,0,0
55861052,0.0,-0.0,0.0132682,-1.28295e-21,0.999978,0.0,0.0,0.00663403,0.08,-1.0,1,0,0,0,0,0,0
55961367,0.0,-0.0,0.0132682,-1.28295e-21,0.999978,0.0,0.0,0.00663403,0.08,-1.0,1,0,0,0,0,0,0
56065050,0.0,-0.0,0.0132682,-1.28295e-21,0.999978,0.0,0.0,0.00663403,0.08,-1.0,1,0,0,0,0,0,0
56166031,0.0,-0.0,0.0132682,-1.28295e-21,0.999978,0.0,0.0,0.00663403,0.08,-1.0,1,0,0,0,0,0,0
56266747,0.0,-0.0,0.0132682,-1.28295e-21,0.999978,0.0,0.0,0.00663403,0.08,-1.0,1,0,0,0,0,0,0
56366238,0.0,-0.0,0.0132682,-1.28295e-21,0.999978,0.0,0.0,0.00663403,0.08,-1.0,1,0,0,0,0,0,0
56471259,0.0,-0.0,0.0132682,-1.28295e-21,0.999978,0.0,0.0,0.00663403,0.08,-1.0,1,0,0,0,0,0,0
56570960,0.0,-0.0,0.0132682,-1.28295e-21,0.999978,0.0,0.0,0.00663403,0.08,-1.0,1,0,0,0,0,0,0
56674753,0.0,-0.0,0.0132682,-1.28295e-21,0.999978,0.0,0.0,0.00663403,0.08,-1.0,1,0,0,0,0,0,0
56776162,0.0,-0.0,0.0132682,-1.28295e-21,0.999978,0.0,0.0,0.00663403,0.08,-1.0,1,0,0,0,0,0,0
56873034,0.0,-0.0,0.0132682,-1.28295e-21,0.999978,0.0,0.0,0.00663403,0.08,-1.0,1,0,0,0,0,0,0
56978354,0.0,-0.0,0.0132682,-1.28295e-21,0.999978,0.0,0.0,0.00663403,0.08,-1.0,1,0,0,0,0,0,0
57077747,0.0,-0.0,0.0132682,-1.28295e-21,0.999978,0.0,0.0,0.00663403,0.08,-1.0,1,0,0,0,0,0,0
57181719,0.0,-0.0,0.0132682,-1.28295e-21,0.999978,0.0,0.0,0.00663403,0.08,-1.0,1,0,0,0,0,0,0
57280996,0.0,-0.0,0.0132682,-1.28295e-21,0.999978,0.0,0.0,0.00663403,0.08,-1.0,1,0,0,0,0,0,0
57381362,0.0,-0.0,0.0132682,-1.28295e-21,0.999978,0.0,0.0,0.00663403,0.08,-1.0,1,0,0,0,0,0,0
57485495,0.0,-0.0,0.0132682,-1.28295e-21,0.999978,0.0,0.0,0.00663403,0.08,-1.0,1,0,0,0,0,0,0
57586281,0.0,-0.0,0.0132682,0.0,0.999978,0.0,0.0,0.00663403,0.200953,-1.0,1,0,0,0,0,0,0
57687298,0.0,-0.0,0.0132682,0.0,0.999978,0.0,0.0,0.00663403,0.340451,-1.0,1,0,0,0,0,0,0
57789400,0.0,-0.0,0.0132682,0.0,0.999978,0.0,0.0,0.00663403,0.471375,-1.0,1,0,0,0,0,0,0
57889983,0.0,-0.0,0.0132682,0.0,0.999978,0.0,0.0,0.00663403,0.580963,-1.0,1,0,0,0,0,0,0
57993364,0.0,-0.0,0.0132682,0.0,0.999978,0.0,0.0,0.00663403,0.581977,-1.0,1,0,0,0,0,0,0
58093815,0.0,-0.0,0.0132682,0.0,0.999978,0.0,0.0,0.00663403,0.581841,-1.0,1,0,0,0,0,0,0
58193192,0.0,-0.0,0.031235,0.346806,0.999878,0.0,0.0,0.0156168,0.409818,-1.0,1,0,0,0,0,0,0
58296203,0.0,-0.0,0.0379814,-0.000525962,0.99982,0.0,0.0,0.0189896,0.545503,-1.0,1,0,0,0,0,0,0
58397434,0.0,-0.0,0.0380564,-0.000254076,0.999819,0.0,0.0,0.0190271,0.565011,-1.0,1,0,0,0,0,0,0
58497007,0.0,-0.0,0.0380547,-3.04493e-06,0.999819,0.0,0.0,0.0190262,0.563086,-1.0,1,0,0,0,0,0,0
58601011,0.0,-0.0,0.0131074,-0.57552,0.999979,0.0,0.0,0.00655367,0.689979,-1.0,1,0,0,0,0,0,0
58702747,0.0,-0.0,-0.0203944,0.0491302,0.999948,0.0,-0.0,-0.010197,0.699749,-1.0,1,0,0,0,0,0,0
58801045,0.0,-0.0,-0.0194104,3.29926e-05,0.999953,0.0,-0.0,-0.00970503,0.699045,-1.0,1,0,0,0,0,0,0
58906041,-0.0124302,0.0307851,-0.0195888,-5.56973e-05,0.999815,-0.00606329,0.0154518,-0.00969724,0.698206,-1.0,1,0,0,0,0,0,0
59005445,-0.0217495,0.0128338,-0.019537,-7.21219e-07,0.999873,-0.0108111,0.00652239,-0.00969781,0.699253,-1.0,1,0,0,0,0,0,0
59109407,0.000379777,-0.000261666,-0.0245823,-0.355484,0.999924,0.000188266,-0.000133157,-0.0122908,0.698719,-1.0,1,0,0,0,0,0,0
59209759,-0.0494242,-6.23207e-06,-0.0806397,-0.654107,0.998882,-0.0246896,0.000992904,-0.0402967,0.698235,-1.0,1,0,0,0,0,0,0
59313186,-0.185333,1.53155e-08,-0.132927,-0.191112,0.993511,-0.0923295,0.00614558,-0.0661295,0.698741,-1.0,1,0,0,0,0,0,0
59414426,-0.117435,2.22622e-09,-0.134963,-0.0025455,0.996005,-0.0585502,0.00395706,-0.0673141,0.698602,-1.0,1,0,0,0,0,0,0
59513746,0.00421848,9.73175e-11,-0.135034,9.17397e-05,0.997719,0.00210444,-0.000142301,-0.0674656,0.699056,-1.0,1,0,0,0,0,0,0
59617090,1.26193e-06,4.309e-13,-0.134769,0.0220618,0.99773,6.29531e-07,-4.24848e-08,-0.0673336,0.698895,-1.0,1,0,0,0,0,0,0
59717911,-4.86355e-06,-9.14348e-14,-0.133044,0.000963547,0.997788,-2.4264e-06,1.61648e-07,-0.0664731,0.69815,-1.0,1,0,0,0,0,0,0
59820879,5.46652e-08,4.29057e-16,-0.131857,0.013,0.997827,2.72732e-08,-1.8007e-09,-0.0658808,0.699083,-1.0,1,0,0,0,0,0,0
59921645,-3.67472e-10,-1.10878e-17,-0.131484,-0.000473428,0.99784,-1.83339e-10,1.20705e-11,-0.0656946,0.699205,-1.0,1,0,0,0,0,0,0
60021046,0.0,-0.0,-0.131494,6.636e-06,0.997839,0.0,-0.0,-0.0656995,0.698178,-1.0,1,0,0,0,0,0,0
60121073,0.0,-0.0,-0.131494,2.56019e-07,0.997839,0.0,-0.0,-0.0656996,0.698429,-1.0,1,0,0,0,0,0,0
60225026,0.0,-0.0,-0.131494,5.47763e-09,0.997839,0.0,-0.0,-0.0656996,0.699027,-1.0,1,0,0,0,0,0,0
60325766,0.0,-0.0,-0.131494,-2.29972e-11,0.997839,0.0,-0.0,-0.0656996,0.698233,-1.0,1,0,0,0,0,0,0
60429022,0.0,-0.0,-0.131494,-7.58841e-12,0.997839,0.0,-0.0,-0.0656996,0.699253,-1.0,1,0,0,0,0,0,0
60530332,0.0,-0.0,-0.131494,-8.83016e-14,0.997839,0.0,-0.0,-0.0656996,0.698149,-1.0,1,0,0,0,0,0,0
60629378,0.0,-0.0,-0.131494,-3.17094e-16,0.997839,0.0,-0.0,-0.0656996,0.69891,-1.0,1,0,0,0,0,0,0
60733680,0.0,-0.0,-0.131494,8.67819e-17,0.997839,0.0,-0.0,-0.0656996,0.698517,-1.0,1,0,0,0,0,0,0
60833478,0.0,-0.0,-0.131494,1.21998e-18,0.997839,0.0,-0.0,-0.0656996,0.698231,-1.0,1,0,0,0,0,0,0
60937400,0.0,-0.0,-0.131494,9.58053e-21,0.997839,0.0,-0.0,-0.0656996,0.699027,-1.0,1,0,0,0,0,0,0
61037639,-0.0486614,-4.04326e-35,-0.131494,-9.3028e-22,0.997544,-0.0242757,0.00159836,-0.0656802,0.698689,-1.0,1,0,0,0,0,0,0
61137089,-0.000475524,-2.66518e-37,-0.131494,-1.53173e-23,0.997839,-0.000237248,1.56209e-05,-0.0656996,0.69817,-1.0,1,0,0,0,0,0,0
61241041,-0.00829531,-0.0959025,-0.131096,2.95322e-25,0.996684,-0.0072736,-0.0475582,-0.0656235,0.69843,-1.0,1,0,0,0,0,0,0
61341530,0.0056864,-0.274461,-0.132279,9.30989e-27,0.988455,-0.00623096,-0.136687,-0.0650817,0.698143,-1.0,1,0,0,0,0,0,0
61441073,0.00128026,-0.315068,-0.131697,1.36085e-28,0.985483,-0.00969224,-0.156585,-0.064886,0.698913,-1.0,1,0,0,0,0,0,0
61546054,2.01349e-05,-0.316216,-0.131497,-1.63985e-30,0.985393,-0.0103347,-0.15711,-0.0648801,0.699228,-1.0,1,0,0,0,0,0,0
61646051,-4.55724e-07,-0.317119,-0.131494,-2.43745e-31,0.985322,-0.0103739,-0.157555,-0.0648755,0.698143,-1.0,1,0,0,0,0,0,0
61749600,-1.31054e-08,-0.319212,-0.131494,-2.50984e-33,0.985157,-0.0104416,-0.158586,-0.0648646,0.698459,-1.0,1,0,0,0,0,0,0
61847365,-2.40293e-10,-0.323875,-0.131494,-9.35569e-37,0.984784,-0.0105928,-0.160882,-0.06484,0.698436,-1.0,1,0,0,0,0,0,0
61951302,2.91144e-12,-0.326335,-0.131494,2.88408e-36,0.984586,-0.0106725,-0.162093,-0.064827,0.698861,-1.0,1,0,0,0,0,0,0
62053070,1.25254e-13,-0.361874,-0.131494,3.70657e-38,0.98155,-0.0118227,-0.179563,-0.0646271,0.698199,-1.0,1,0,0,0,0,0,0
62153027,3.12391e-15,-0.452233,-0.131494,-1.45414e-39,0.972439,-0.0147295,-0.22371,-0.0640272,0.699049,-1.0,1,0,0,0,0,0,0
62253391,-2.30529e-16,-0.514268,-0.131494,-3.7601e-41,0.965033,-0.0167081,-0.25376,-0.0635396,0.698199,-1.0,1,0,0,0,0,0,0
62357419,-4.20238e-18,-0.576798,-0.131494,4.34403e-44,0.956629,-0.0186861,-0.283803,-0.0629862,0.698405,-1.0,1,0,0,0,0,0,0
62457389,-5.17466e-20,-0.610865,-0.131494,9.80909e-45,0.951656,-0.0197563,-0.300056,-0.0626588,0.698714,-1.0,1,0,0,0,0,0,0
62557478,2.31535e-21,-0.610855,-0.131494,0.0,0.951658,-0.0197559,-0.300051,-0.0626589,0.699264,-1.0,1,0,0,0,0,0,0
62661448,4.82314e-23,-0.610864,-0.131494,0.0,0.951657,-0.0197562,-0.300056,-0.0626588,0.698206,-1.0,1,0,0,0,0,0,0
62761586,-2.12633e-25,-0.610865,-0.131494,0.0,0.951656,-0.0197563,-0.300056,-0.0626588,0.699253,-1.0,1,0,0,0,0,0,0
62865373,-2.01811e-26,-0.610865,-0.131494,0.0,0.951656,-0.0197563,-0.300056,-0.0626588,0.69815,-1.0,1,0,0,0,0,0,0
62965060,-7.94515e-28,-0.610865,-0.131494,0.0,0.951656,-0.0197563,-0.300056,-0.0626588,0.698912,-1.0,1,0,0,0,0,0,0
63065656,-2.80637e-30,-0.610865,-0.131494,0.0,0.951656,-0.0197563,-0.300056,-0.0626588,0.69838,-1.0,1,0,0,0,0,0,0
63169984,7.83259e-31,-0.610865,-0.131494,0.0,0.951656,-0.0197563,-0.300056,-0.0626588,0.698895,-1.0,1,0,0,0,0,0,0
63269844,1.09909e-32,-0.610865,-0.131494,0.0,0.951656,-0.0197563,-0.300056,-0.0626588,0.698543,-1.0,1,0,0,0,0,0,0
63373409,-3.47131e-34,-0.610865,-0.131494,0.0,0.951656,-0.0197563,-0.300056,-0.0626588,0.698599,-1.0,1,0,0,0,0,0,0
63470047,-1.21253e-35,-0.610865,-0.131494,0.0,0.951656,-0.0197563,-0.300056,-0.0626588,0.698263,-1.0,1,0,0,0,0,0,0
63573263,-2.86481e-38,-0.610865,-0.131494,0.0,0.951656,-0.0197563,-0.300056,-0.0626588,0.699084,-1.0,1,0,0,0,0,0,0
63677021,2.67918e-39,-0.610865,-0.131494,0.0,0.951656,-0.0197563,-0.300056,-0.0626588,0.699262,-1.0,1,0,0,0,0,0,0
63778153,1.7193e-40,-0.610865,-0.131494,0.0,0.951656,-0.0197563,-0.300056,-0.0626588,0.698626,-1.0,1,0,0,0,0,0,0
63876323,-5.9359e-42,-0.610865,-0.131494,0.0,0.951656,-0.0197563,-0.300056,-0.0626588,0.698541,-1.0,1,0,0,0,0,0,0
63980019,-1.37327e-43,-0.610865,-0.131494,0.0,0.951656,-0.0197563,-0.300056,-0.0626588,0.698604,-1.0,1,0,0,0,0,0,0
64081058,-2.8026e-45,-0.610865,-0.131494,0.0,0.951656,-0.0197563,-0.300056,-0.0626588,0.699293,-1.0,1,0,0,0,0,0,0
64185070,0.0,-0.610865,-0.131494,0.0,0.951656,-0.0197563,-0.300056,-0.0626588,0.698181,-1.0,1,0,0,0,0,0,0
64285058,0.0,-0.610865,-0.131494,0.0,0.951656,-0.0197563,-0.300056,-0.0626588,0.699254,-1.0,1,0,0,0,0,0,0
64385091,0.0,-0.610865,-0.131494,0.0,0.951656,-0.0197563,-0.300056,-0.0626588,0.698176,-1.0,1,0,0,0,0,0,0
64489070,0.0,-0.610865,-0.131494,0.0,0.951656,-0.0197563,-0.300056,-0.0626588,0.698912,-1.0,1,0,0,0,0,0,0
64589493,-0.00774255,-0.610822,-0.129053,0.0,0.951656,-0.023073,-0.299819,-0.0626588,0.698485,-1.0,1,0,0,0,0,0,0
64689406,-0.0103218,-0.610789,-0.12824,0.0,0.951656,-0.0241774,-0.299732,-0.0626588,0.698914,-1.0,1,0,0,0,0,0,0
64794761,-0.00963938,-0.610799,-0.128455,0.0,0.951656,-0.0238852,-0.299756,-0.0626588,0.698176,-1.0,1,0,0,0,0,0,0
64893647,-0.00671763,-0.610833,-0.129376,0.0,0.951656,-0.0226341,-0.299853,-0.0626588,0.698746,-1.0,1,0,0,0,0,0,0
64997396,-0.000365926,-0.610865,-0.131379,0.0,0.951656,-0.0199131,-0.300046,-0.0626588,0.698228,-1.0,1,0,0,0,0,0,0
65097033,-1.70331e-05,-0.610865,-0.131489,0.0,0.951656,-0.0197636,-0.300056,-0.0626588,0.698707,-1.0,1,0,0,0,0,0,0
65198781,-0.00659059,-0.516148,-0.129754,0.0,0.964789,-0.0197256,-0.254474,-0.0635235,0.698203,-1.0,1,0,0,0,0,0,0
65301408,-0.0459044,-0.000203681,-0.131489,0.0,0.997577,-0.0229073,0.00140617,-0.0656823,0.698996,-1.0,1,0,0,0,0,0,0
65402036,0.00194136,-0.000658391,-0.131495,0.0,0.997839,0.000946955,-0.000392257,-0.0656996,0.698233,-1.0,1,0,0,0,0,0,0
65501413,2.30121e-05,-8.31033e-06,-0.131494,0.0,0.997839,1.12082e-05,-4.90213e-06,-0.0656996,0.699287,-1.0,1,0,0,0,0,0,0
65606675,-1.07898e-06,3.39772e-07,-0.131494,0.0,0.997839,-5.27161e-07,2.04963e-07,-0.0656996,0.698353,-1.0,1,0,0,0,0,0,0
65707740,-2.20769e-08,7.33744e-09,-0.131494,0.0,0.997839,-1.07736e-08,4.38601e-09,-0.0656996,0.698433,-1.0,1,0,0,0,0,0,0
65808663,-3.14852e-10,1.10066e-10,-0.131494,0.0,0.997839,-1.5347e-10,6.5257e-11,-0.0656996,0.698403,-1.0,1,0,0,0,0,0,0
65910424,0.0,-0.0,-0.131494,0.0,0.997839,0.0,-0.0,-0.0656996,0.698405,-1.0,1,0,0,0,0,0,0
66009099,0.0,-0.0,-0.131494,0.0,0.997839,0.0,-0.0,-0.0656996,0.69838,-1.0,1,0,0,0,0,0,0
66112283,0.0,-0.0,-0.131494,0.0,0.997839,0.0,-0.0,-0.0656996,0.698659,-1.0,1,0,0,0,0,0,0
66213638,0.0,-0.0,-0.131494,0.0,0.997839,0.0,-0.0,-0.0656996,0.698579,-1.0,1,0,0,0,0,0,0
66313473,0.0,-0.0,-0.131494,0.0,0.997839,0.0,-0.0,-0.0656996,0.698436,-1.0,1,0,0,0,0,0,0
66417664,0.0,-0.0,-0.131494,0.0,0.997839,0.0,-0.0,-0.0656996,0.698684,-1.0,1,0,0,0,0,0,0
66517400,0.0,-0.0,-0.131494,0.0,0.997839,0.0,-0.0,-0.0656996,0.699288,-1.0,1,0,0,0,0,0,0
66621095,0.0,-0.0,-0.131494,0.0,0.997839,0.0,-0.0,-0.0656996,0.698181,-1.0,1,0,0,0,0,0,0
66721056,0.0,-0.0,-0.131494,0.0,0.997839,0.0,-0.0,-0.0656996,0.699027,-1.0,1,0,0,0,0,0,0
66820370,0.0,-0.0,-0.131494,0.0,0.997839,0.0,-0.0,-0.0656996,0.698721,-1.0,1,0,0,0,0,0,0
66870764,0.0,-0.0,-0.131494,0.0,0.997839,0.0,-0.0,-0.0656996,0.698996,-1.0,1,0,0,0,0,0,0
66870764,0.0,-0.0,-0.131494,0.0,0.997839,0.0,-0.0,-0.0656996,0.698996,-1.0,1,0,0,0,0,0,0
66870764,0.0,-0.0,-0.131494,0.0,0.997839,0.0,-0.0,-0.0656996,0.698996,-1.0,1,0,0,0,0,0,0
66870764,0.0,-0.0,-0.131494,0.0,0.997839,0.0,-0.0,-0.0656996,0.698996,-1.0,1,0,0,0,0,0,0
66870764,0.0,-0.0,-0.131494,0.0,0.997839,0.0,-0.0,-0.0656996,0.698996,-1.0,1,0,0,0,0,0,0
66870764,0.0,-0.0,-0.131494,0.0,0.997839,0.0,-0.0,-0.0656996,0.698996,-1.0,1,0,0,0,0,0,0
66870764,0.0,-0.0,-0.131494,0.0,0.997839,0.0,-0.0,-0.0656996,0.698996,-1.0,1,0,0,0,0,0,0
66870764,0.0,-0.0,-0.131494,0.0,0.997839,0.0,-0.0,-0.0656996,0.698996,-1.0,1,0,0,0,0,0,0
66870764,0.0,-0.0,-0.131494,0.0,0.997839,0.0,-0.0,-0.0656996,0.698996,-1.0,1,0,0,0,0,0,0
66870764,0.0,-0.0,-0.131494,0.0,0.997839,0.0,-0.0,-0.0656996,0.698996,-1.0,1,0,0,0,0,0,0
66870764,0.0,-0.0,-0.131494,0.0,0.997839,0.0,-0.0,-0.0656996,0.698996,-1.0,1,0,0,0,0,0,0
66870764,0.0,-0.0,-0.131494,0.0,0.997839,0.0,-0.0,-0.0656996,0.698996,-1.0,1,0,0,0,0,0,0
66870764,0.0,-0.0,-0.131494,0.0,0.997839,0.0,-0.0,-0.0656996,0.698996,-1.0,1,0,0,0,0,0,0
66870764,0.0,-0.0,-0.131494,0.0,0.997839,0.0,-0.0,-0.0656996,0.698996,-1.0,1,0,0,0,0,0,0
66870764,0.0,-0.0,-0.131494,0.0,0.997839,0.0,-0.0,-0.0656996,0.698996,-1.0,1,0,0,0,0,0,0
66870764,0.0,-0.0,-0.131494,0.0,0.997839,0.0,-0.0,-0.0656996,0.698996,-1.0,1,0,0,0,0,0,0
66870764,0.0,-0.0,-0.131494,0.0,0.997839,0.0,-0.0,-0.0656996,0.698996,-1.0,1,0,0,0,0,0,0
66870764,0.0,-0.0,-0.131494,0.0,0.997839,0.0,-0.0,-0.0656996,0.698996,-1.0,1,0,0,0,0,0,0
66870764,0.0,-0.0,-0.131494,0.0,0.997839,0.0,-0.0,-0.0656996,0.698996,-1.0,1,0,0,0,0,0,0
66870764,0.0,-0.0,-0.131494,0.0,0.997839,0.0,-0.0,-0.0656996,0.698996,-1.0,1,0,0,0,0,0,0
66870764,0.0,-0.0,-0.131494,0.0,0.997839,0.0,-0.0,-0.0656996,0.698996,-1.0,1,0,0,0,0,0,0
66870764,0.0,-0.0,-0.131494,0.0,0.997839,0.0,-0.0,-0.0656996,0.698996,-1.0,1,0,0,0,0,0,0
66870764,0.0,-0.0,-0.131494,0.0,0.997839,0.0,-0.0,-0.0656996,0.698996,-1.0,1,0,0,0,0,0,0
66870764,0.0,-0.0,-0.131494,0.0,0.997839,0.0,-0.0,-0.0656996,0.698996,-1.0,1,0,0,0,0,0,0
66870764,0.0,-0.0,-0.131494,0.0,0.997839,0.0,-0.0,-0.0656996,0.698996,-1.0,1,0,0,0,0,0,0
66870764,0.0,-0.0,-0.131494,0.0,0.997839,0.0,-0.0,-0.0656996,0.698996,-1.0,1,0,0,0,0,0,0
66870764,0.0,-0.0,-0.131494,0.0,0.997839,0.0,-0.0,-0.0656996,0.698996,-1.0,1,0,0,0,0,0,0
66870764,0.0,-0.0,-0.131494,0.0,0.997839,0.0,-0.0,-0.0656996,0.698996,-1.0,1,0,0,0,0,0,0
66870764,0.0,-0.0,-0.131494,0.0,0.997839,0.0,-0.0,-0.0656996,0.698996,-1.0,1,0,0,0,0,0,0
66870764,0.0,-0.0,-0.131494,0.0,0.997839,0.0,-0.0,-0.0656996,0.698996,-1.0,1,0,0,0,0,0,0
66870764,0.0,-0.0,-0.131494,0.0,0.997839,0.0,-0.0,-0.0656996,0.698996,-1.0,1,0,0,0,0,0,0
66870764,0.0,-0.0,-0.131494,0.0,0.997839,0.0,-0.0,-0.0656996,0.698996,-1.0,1,0,0,0,0,0,0
66870764,0.0,-0.0,-0.131494,0.0,0.997839,0.0,-0.0,-0.0656996,0.698996,-1.0,1,0,0,0,0,0,0
66870764,0.0,-0.0,-0.131494,0.0,0.997839,0.0,-0.0,-0.0656996,0.698996,-1.0,1,0,0,0,0,0,0
66870764,0.0,-0.0,-0.131494,0.0,0.997839,0.0,-0.0,-0.0656996,0.698996,-1.0,1,0,0,0,0,0,0
66870764,0.0,-0.0,-0.131494,0.0,0.997839,0.0,-0.0,-0.0656996,0.698996,-1.0,1,0,0,0,0,0,0
66870764,0.0,-0.0,-0.131494,0.0,0.997839,0.0,-0.0,-0.0656996,0.698996,-1.0,1,0,0,0,0,0,0
66870764,0.0,-0.0,-0.131494,0.0,0.997839,0.0,-0.0,-0.0656996,0.698996,-1.0,1,0,0,0,0,0,0
66870764,0.0,-0.0,-0.131494,0.0,0.997839,0.0,-0.0,-0.0656996,0.698996,-1.0,1,0,0,0,0,0,0
66870764,0.0,-0.0,-0.131494,0.0,0.997839,0.0,-0.0,-0.0656996,0.698996,-1.0,1,0,0,0,0,0,0
66870764,0.0,-0.0,-0.131494,0.0,0.997839,0.0,-0.0,-0.0656996,0.698996,-1.0,1,0,0,0,0,0,0
66870764,0.0,-0.0,-0.131494,0.0,0.997839,0.0,-0.0,-0.0656996,0.698996,-1.0,1,0,0,0,0,0,0
71188050,0.0,-0.0,-1.25615,0.0,0.809161,0.0,-0.0,-0.587587,0.699063,-1.0,1,0,0,0,0,0,0
71288916,0.0,-0.0,-1.25615,0.0,0.809161,0.0,-0.0,-0.587587,0.69889,-1.0,1,0,0,0,0,0,0
71389108,0.0,-0.0,-1.25615,0.0,0.809161,0.0,-0.0,-0.587587,0.698143,-1.0,1,0,0,0,0,0,0
71492025,0.0,-0.0,-1.25615,0.0,0.809161,0.0,-0.0,-0.587587,0.698511,-1.0,1,0,0,0,0,0,0
71593374,0.0,-0.0,-1.25615,0.0,0.809161,0.0,-0.0,-0.587587,0.69826,-1.0,1,0,0,0,0,0,0
71696152,0.0,-0.0,-1.25615,0.0,0.809161,0.0,-0.0,-0.587587,0.699084,-1.0,1,0,0,0,0,0,0
71795309,0.0,-0.0,-1.25615,0.0,0.809161,0.0,-0.0,-0.587587,0.699265,-1.0,1,0,0,0,0,0,0
71898917,0.0,-0.0,-1.25615,0.0,0.809161,0.0,-0.0,-0.587587,0.698697,-1.0,1,0,0,0,0,0,0
72000806,0.0,-0.0,-1.25615,0.0,0.809161,0.0,-0.0,-0.587587,0.69849,-1.0,1,0,0,0,0,0,0
72100180,0.0,-0.0,-1.25615,0.0,0.809161,0.0,-0.0,-0.587587,0.698463,-1.0,1,0,0,0,0,0,0
72200416,0.0,-0.0,-1.25615,0.0,0.809161,0.0,-0.0,-0.587587,0.698487,-1.0,1,0,0,0,0,0,0
72305038,0.0,-0.0,-1.25615,0.0,0.809161,0.0,-0.0,-0.587587,0.698948,-1.0,1,0,0,0,0,0,0
72405704,0.0,-0.0,-1.25615,0.0,0.809161,0.0,-0.0,-0.587587,0.698149,-1.0,1,0,0,0,0,0,0
72508227,0.0,-0.0,-1.25615,0.0,0.809161,0.0,-0.0,-0.587587,0.698224,-1.0,1,0,0,0,0,0,0
72609733,0.0,-0.0,-1.25615,0.0,0.809161,0.0,-0.0,-0.587587,0.698599,-1.0,1,0,0,0,0,0,0
72708120,0.0,-0.0,-1.25615,0.0,0.809161,0.0,-0.0,-0.587587,0.699089,-1.0,1,0,0,0,0,0,0
72812025,0.0,-0.0,-1.25615,0.0,0.809161,0.0,-0.0,-0.587587,0.69844,-1.0,1,0,0,0,0,0,0
72913065,0.0,-0.0,-1.25615,0.0,0.809161,0.0,-0.0,-0.587587,0.698403,-1.0,1,0,0,0,0,0,0
73013037,0.0,-0.0,-1.25615,0.0,0.809161,0.0,-0.0,-0.587587,0.69854,-1.0,1,0,0,0,0,0,0
73116294,0.0,-0.0,-1.25615,0.0,0.809161,0.0,-0.0,-0.587587,0.698429,-1.0,1,0,0,0,0,0,0
73216412,0.0,-0.0,-1.25615,0.0,0.809161,0.0,-0.0,-0.587587,0.699172,-1.0,1,0,0,0,0,0,0
73316027,0.0,-0.0,-1.25615,0.0,0.809161,0.0,-0.0,-0.587587,0.698832,-1.0,1,0,0,0,0,0,0
73421040,0.0,-0.0,-1.25615,0.0,0.809161,0.0,-0.0,-0.587587,0.698885,-1.0,1,0,0,0,0,0,0
73521509,0.0,-0.0,-1.25615,0.0,0.809161,0.0,-0.0,-0.587587,0.698516,-1.0,1,0,0,0,0,0,0
73624661,0.0,-0.0,-1.25615,0.0,0.809161,0.0,-0.0,-0.587587,0.698435,-1.0,1,0,0,0,0,0,0
73726139,0.0,-0.0,-1.25615,0.0,0.809161,0.0,-0.0,-0.587587,0.698885,-1.0,1,0,0,0,0,0,0
73826104,0.0,-0.0,-1.25615,0.0,0.809161,0.0,-0.0,-0.587587,0.698999,-1.0,1,0,0,0,0,0,0
73930211,0.0,-0.0,-1.25615,0.0,0.809161,0.0,-0.0,-0.587587,0.759389,-1.0,1,0,0,0,0,0,0
74027231,0.0,-0.0,-1.25802,-0.00248642,0.808611,0.0,-0.0,-0.588343,1.0,-1.0,1,0,0,0,0,0,0
74131956,0.0,-0.0,-1.25793,-0.000145748,0.808637,0.0,-0.0,-0.588307,1.0,-1.0,1,0,0,0,0,0,0
74232023,0.0,-0.0,-1.25793,-3.41352e-06,0.808638,0.0,-0.0,-0.588307,1.0,-1.0,1,0,0,0,0,0,0
74332439,0.0,-0.0,-1.25793,-6.12141e-09,0.808638,0.0,-0.0,-0.588307,1.0,-1.0,1,0,0,0,0,0,0
74432632,0.0,-0.0,-1.25793,5.08985e-09,0.808638,0.0,-0.0,-0.588307,1.0,-1.0,1,0,0,0,0,0,0
74537742,-0.0326997,-0.0,-1.25793,6.70333e-11,0.80853,-0.0132205,0.00961829,-0.588228,1.0,-1.0,1,0,0,0,0,0,0
74636737,-0.0430129,-0.0,-1.25793,4.33846e-13,0.808451,-0.0173896,0.0126514,-0.588171,1.0,-1.0,1,0,0,0,0,0,0
74740611,0.000266152,-0.0,-1.25793,-5.5899e-14,0.808638,0.00010761,-7.82896e-05,-0.588307,1.0,-1.0,1,0,0,0,0,0,0
74841718,1.8972e-05,-0.0,-1.25793,-8.69009e-16,0.808638,7.67076e-06,-5.58069e-06,-0.588307,1.0,-1.0,1,0,0,0,0,0,0
74940636,6.69502e-07,-0.0,-1.25793,2.04008e-17,0.808638,2.70693e-07,-1.96936e-07,-0.588307,1.0,-1.0,1,0,0,0,0,0,0
75045401,1.65242e-09,-0.0,-1.25793,5.74616e-19,0.808638,6.68106e-10,-4.86066e-10,-0.588307,1.0,-1.0,1,0,0,0,0,0,0
75144497,-6.96832e-10,-0.0,-1.25793,5.86013e-21,0.808638,-2.81743e-10,2.04976e-10,-0.588307,1.0,-1.0,1,0,0,0,0,0,0
75248994,0.0,-0.0,-1.25793,-1.33548e-22,0.808638,0.0,-0.0,-0.588307,1.0,-1.0,1,0,0,0,0,0,0
75349172,0.0,-0.0,-1.25793,-1.37485e-23,0.808638,0.0,-0.0,-0.588307,1.0,-1.0,1,0,0,0,0,0,0
75447741,0.0,-0.0,-1.25793,-1.26696e-25,0.808638,0.0,-0.0,-0.588307,1.0,-1.0,1,0,0,0,0,0,0
75550729,0.0,-0.0,-1.25793,3.68595e-28,0.808638,0.0,-0.0,-0.588307,1.0,-1.0,1,0,0,0,0,0,0
75654716,0.0,-0.0,-1.25793,1.67077e-28,0.808638,0.0,-0.0,-0.588307,1.0,-1.0,1,0,0,0,0,0,0
75753091,0.0,-0.0,-1.25793,-2.48357e-30,0.808638,0.0,-0.0,-0.588307,1.0,-1.0,1,0,0,0,0,0,0
75852412,0.0,-0.0,-1.25793,-9.21554e-32,0.808638,0.0,-0.0,-0.588307,1.0,-1.0,1,0,0,0,0,0,0
75957425,0.0,-0.0,-1.25793,-1.89595e-33,0.808638,0.0,-0.0,-0.588307,1.0,-1.0,1,0,0,0,0,0,0
76060121,0.0,-0.0,-1.25793,9.69e-36,0.808638,0.0,-0.0,-0.588307,1.0,-1.0,1,0,0,0,0,0,0
76160790,0.0,-0.0,-1.25793,8.10263e-37,0.808638,0.0,-0.0,-0.588307,1.0,-1.0,1,0,0,0,0,0,0
76260043,0.0,-0.0,-1.25793,3.05525e-38,0.808638,0.0,-0.0,-0.588307,1.0,-1.0,1,0,0,0,0,0,0
76365380,0.0,-0.0,-1.25793,9.55209e-41,0.808638,0.0,-0.0,-0.588307,1.0,-1.0,1,0,0,0,0,0,0
76464030,0.0,-0.0,-1.25793,-3.07627e-41,0.808638,0.0,-0.0,-0.588307,1.0,-1.0,1,0,0,0,0,0,0
76568384,0.0,-0.0,-1.25793,-4.25995e-43,0.808638,0.0,-0.0,-0.588307,1.0,-1.0,1,0,0,0,0,0,0
76669108,0.0,-0.0,-1.25793,1.96182e-44,0.808638,0.0,-0.0,-0.588307,1.0,-1.0,1,0,0,0,0,0,0
76768684,0.0,-0.0,-1.25793,0.0,0.808638,0.0,-0.0,-0.588307,1.0,-1.0,1,0,0,0,0,0,0
76868201,0.0,-0.0,-1.25793,0.0,0.808638,0.0,-0.0,-0.588307,1.0,-1.0,1,0,0,0,0,0,0
76972029,0.0,-0.0,-1.25793,0.0,0.808638,0.0,-0.0,-0.588307,1.0,-1.0,1,0,0,0,0,0,0
77073258,0.0,-0.0,-1.25793,0.0,0.808638,0.0,-0.0,-0.588307,1.0,-1.0,1,0,0,0,0,0,0
77177246,0.0,-0.0,-1.25793,0.0,0.808638,0.0,-0.0,-0.588307,1.0,-1.0,1,0,0,0,0,0,0
77274671,0.0,-0.0,-1.25793,0.0,0.808638,0.0,-0.0,-0.588307,1.0,-1.0,1,0,0,0,0,0,0
77378714,0.0,-0.0,-1.25793,0.0,0.808638,0.0,-0.0,-0.588307,1.0,-1.0,1,0,0,0,0,0,0
77481015,0.0,-0.0,-1.25793,0.0,0.808638,0.0,-0.0,-0.588307,1.0,-1.0,1,0,0,0,0,0,0
77580629,0.0,-0.0,-1.25793,0.0,0.808638,0.0,-0.0,-0.588307,1.0,-1.0,1,0,0,0,0,0,0
77684368,0.0,-0.0,-1.25793,0.0,0.808638,0.0,-0.0,-0.588307,1.0,-1.0,1,0,0,0,0,0,0
77784049,0.0,-0.0,-1.25793,0.0,0.808638,0.0,-0.0,-0.588307,1.0,-1.0,1,0,0,0,0,0,0
77884393,0.0,-0.0,-1.25793,0.0,0.808638,0.0,-0.0,-0.588307,1.0,-1.0,1,0,0,0,0,0,0
77989563,0.0,-0.0,-1.25793,0.0,0.808638,0.0,-0.0,-0.588307,1.0,-1.0,1,0,0,0,0,0,0
78088116,0.0,-0.0,-1.25793,0.0,0.808638,0.0,-0.0,-0.588307,1.0,-1.0,1,0,0,0,0,0,0
78192790,0.0,-0.0,-1.25793,0.0,0.808638,0.0,-0.0,-0.588307,1.0,-1.0,1,0,0,0,0,0,0
78292026,0.0,-0.0,-1.25793,0.0,0.808638,0.0,-0.0,-0.588307,1.0,-1.0,1,0,0,0,0,0,0
78393383,0.0,-0.0,-1.25793,0.0,0.808638,0.0,-0.0,-0.588307,1.0,-1.0,1,0,0,0,0,0,0
78496708,0.0,-0.0,-1.25793,0.0,0.808638,0.0,-0.0,-0.588307,1.0,-1.0,1,0,0,0,0,0,0
78597415,0.0,-0.0,-1.25793,0.0,0.808638,0.0,-0.0,-0.588307,1.0,-1.0,1,0,0,0,0,0,0
78696068,0.0,-0.0,-1.25793,0.0,0.808638,0.0,-0.0,-0.588307,1.0,-1.0,1,0,0,0,0,0,0
78800034,0.0,-0.0,-1.25793,0.0,0.808638,0.0,-0.0,-0.588307,1.0,-1.0,1,0,0,0,0,0,0
78900956,0.0,-0.0,-1.25793,0.0,0.808638,0.0,-0.0,-0.588307,1.0,-1.0,1,0,0,0,0,0,0
79004034,0.0,-0.0,-1.25793,0.0,0.808638,0.0,-0.0,-0.588307,1.0,-1.0,1,0,0,0,0,0,0
79104422,0.0,-0.0,-1.25793,0.0,0.808638,0.0,-0.0,-0.588307,1.0,-1.0,1,0,0,0,0,0,0
79203502,0.0,-0.0,-1.25793,0.0,0.808638,0.0,-0.0,-0.588307,1.0,-1.0,1,0,0,0,0,0,0
79308724,0.0,-0.0,-1.25793,0.0,0.808638,0.0,-0.0,-0.588307,1.0,-1.0,1,0,0,0,0,0,0
79408025,0.0,-0.0,-1.25793,0.0,0.808638,0.0,-0.0,-0.588307,1.0,-1.0,1,0,0,0,0,0,0
79508739,0.0,-0.0,-1.25793,0.0,0.808638,0.0,-0.0,-0.588307,1.0,-1.0,1,0,0,0,0,0,0
79613817,0.0,-0.0,-1.25793,0.0,0.808638,0.0,-0.0,-0.588307,1.0,-1.0,1,0,0,0,0,0,0
79712034,0.0,-0.0,-1.25793,0.0,0.808638,0.0,-0.0,-0.588307,1.0,-1.0,1,0,0,0,0,0,0
79816027,0.0,-0.0,-1.25793,0.0,0.808638,0.0,-0.0,-0.588307,1.0,-1.0,1,0,0,0,0,0,0
79916400,0.0,-0.0,-1.25793,0.0,0.808638,0.0,-0.0,-0.588307,1.0,-1.0,1,0,0,0,0,0,0
80016092,0.0,-0.0,-1.25793,0.0,0.808638,0.0,-0.0,-0.588307,1.0,-1.0,1,0,0,0,0,0,0
80116781,0.0,-0.0,-1.25793,0.0,0.808638,0.0,-0.0,-0.588307,1.0,-1.0,1,0,0,0,0,0,0
80216734,0.0,-0.0,-1.25793,0.0,0.808638,0.0,-0.0,-0.588307,1.0,-1.0,1,0,0,0,0,0,0
80320384,0.0,-0.0,-1.25793,0.0,0.808638,0.0,-0.0,-0.588307,1.0,-1.0,1,0,0,0,0,0,0
80424532,0.0,-0.0,-1.25793,0.0,0.808638,0.0,-0.0,-0.588307,1.0,-1.0,1,0,0,0,0,0,0
80520106,0.0,-0.0,-1.25793,0.0,0.808638,0.0,-0.0,-0.588307,1.0,-1.0,1,0,0,0,0,0,0
80628768,0.0,-0.0,-1.25793,0.0,0.808638,0.0,-0.0,-0.588307,1.0,-1.0,1,0,0,0,0,0,0
80728027,0.0,-0.0,-1.25793,0.0,0.808638,0.0,-0.0,-0.588307,1.0,-1.0,1,0,0,0,0,0,0
80828077,0.0,-0.0,-1.25793,0.0,0.808638,0.0,-0.0,-0.588307,1.0,-1.0,1,0,0,0,0,0,0
80932042,0.0,-0.0,-1.25793,0.0,0.808638,0.0,-0.0,-0.588307,1.0,-1.0,1,0,0,0,0,0,0
81030867,0.0,-0.0,-1.25793,0.0,0.808638,0.0,-0.0,-0.588307,1.0,-1.0,1,0,0,0,0,0,0
81133141,0.0,-0.0,-1.25793,0.0,0.808638,0.0,-0.0,-0.588307,1.0,-1.0,1,0,0,0,0,0,0
81237017,0.0,-0.0,-1.25793,0.0,0.808638,0.0,-0.0,-0.588307,1.0,-1.0,1,0,0,0,0,0,0
81334756,0.0,-0.0,-1.25793,0.0,0.808638,0.0,-0.0,-0.588307,1.0,-1.0,1,0,0,0,0,0,0
81416178,0.0,-0.0,-1.25793,0.0,0.808638,0.0,-0.0,-0.588307,1.0,-1.0,1,0,0,0,0,0,0
81416178,0.0,-0.0,-1.25793,0.0,0.808638,0.0,-0.0,-0.588307,1.0,-1.0,1,0,0,0,0,0,0
81416178,0.0,-0.0,-1.25793,0.0,0.808638,0.0,-0.0,-0.588307,1.0,-1.0,1,0,0,0,0,0,0
81416178,0.0,-0.0,-1.25793,0.0,0.808638,0.0,-0.0,-0.588307,1.0,-1.0,1,0,0,0,0,0,0
81416178,0.0,-0.0,-1.25793,0.0,0.808638,0.0,-0.0,-0.588307,1.0,-1.0,1,0,0,0,0,0,0
81416178,0.0,-0.0,-1.25793,0.0,0.808638,0.0,-0.0,-0.588307,1.0,-1.0,1,0,0,0,0,0,0
81416178,0.0,-0.0,-1.25793,0.0,0.808638,0.0,-0.0,-0.588307,1.0,-1.0,1,0,0,0,0,0,0
81416178,0.0,-0.0,-1.25793,0.0,0.808638,0.0,-0.0,-0.588307,1.0,-1.0,1,0,0,0,0,0,0
81416178,0.0,-0.0,-1.25793,0.0,0.808638,0.0,-0.0,-0.588307,1.0,-1.0,1,0,0,0,0,0,0
81416178,0.0,-0.0,-1.25793,0.0,0.808638,0.0,-0.0,-0.588307,1.0,-1.0,1,0,0,0,0,0,0
81416178,0.0,-0.0,-1.25793,0.0,0.808638,0.0,-0.0,-0.588307,1.0,-1.0,1,0,0,0,0,0,0
81416178,0.0,-0.0,-1.25793,0.0,0.808638,0.0,-0.0,-0.588307,1.0,-1.0,1,0,0,0,0,0,0
81416178,0.0,-0.0,-1.25793,0.0,0.808638,0.0,-0.0,-0.588307,1.0,-1.0,1,0,0,0,0,0,0
81416178,0.0,-0.0,-1.25793,0.0,0.808638,0.0,-0.0,-0.588307,1.0,-1.0,1,0,0,0,0,0,0
81416178,0.0,-0.0,-1.25793,0.0,0.808638,0.0,-0.0,-0.588307,1.0,-1.0,1,0,0,0,0,0,0
81416178,0.0,-0.0,-1.25793,0.0,0.808638,0.0,-0.0,-0.588307,1.0,-1.0,1,0,0,0,0,0,0
81416178,0.0,-0.0,-1.25793,0.0,0.808638,0.0,-0.0,-0.588307,1.0,-1.0,1,0,0,0,0,0,0
81416178,0.0,-0.0,-1.25793,0.0,0.808638,0.0,-0.0,-0.588307,1.0,-1.0,1,0,0,0,0,0,0
81416178,0.0,-0.0,-1.25793,0.0,0.808638,0.0,-0.0,-0.588307,1.0,-1.0,1,0,0,0,0,0,0
81416178,0.0,-0.0,-1.25793,0.0,0.808638,0.0,-0.0,-0.588307,1.0,-1.0,1,0,0,0,0,0,0
81416178,0.0,-0.0,-1.25793,0.0,0.808638,0.0,-0.0,-0.588307,1.0,-1.0,1,0,0,0,0,0,0
81416178,0.0,-0.0,-1.25793,0.0,0.808638,0.0,-0.0,-0.588307,1.0,-1.0,1,0,0,0,0,0,0
81416178,0.0,-0.0,-1.25793,0.0,0.808638,0.0,-0.0,-0.588307,1.0,-1.0,1,0,0,0,0,0,0
81416178,0.0,-0.0,-1.25793,0.0,0.808638,0.0,-0.0,-0.588307,1.0,-1.0,1,0,0,0,0,0,0
83872095,0.0,-0.0,-2.62251,0.0,0.256636,0.0,-0.0,-0.966508,1.0,-1.0,1,0,0,0,0,0,0
83976780,0.0,-0.0,-2.62251,0.0,0.256636,0.0,-0.0,-0.966508,1.0,-1.0,1,0,0,0,0,0,0
84076183,0.0,-0.0,-2.62251,0.0,0.256636,0.0,-0.0,-0.966508,1.0,-1.0,1,0,0,0,0,0,0
84180112,0.0,-0.0,-2.62251,0.0,0.256636,0.0,-0.0,-0.966508,1.0,-1.0,1,0,0,0,0,0,0
84280029,0.0,-0.0,-2.62251,0.0,0.256636,0.0,-0.0,-0.966508,1.0,-1.0,1,0,0,0,0,0,0
84380090,0.0,-0.0,-2.62251,0.0,0.256636,0.0,-0.0,-0.966508,1.0,-1.0,1,0,0,0,0,0,0
84484719,0.0,-0.0,-2.62251,0.0,0.256636,0.0,-0.0,-0.966508,1.0,-1.0,1,0,0,0,0,0,0
84584027,0.0,-0.0,-2.62251,0.0,0.256636,0.0,-0.0,-0.966508,1.0,-1.0,1,0,0,0,0,0,0
84684689,0.0,-0.0,-2.62251,0.0,0.256636,0.0,-0.0,-0.966508,1.0,-1.0,1,0,0,0,0,0,0
84788390,0.0,-0.0,-2.62251,0.0,0.256636,0.0,-0.0,-0.966508,1.0,-1.0,1,0,0,0,0,0,0
84888097,0.0,-0.0,-2.62251,0.0,0.256636,0.0,-0.0,-0.966508,1.0,-1.0,1,0,0,0,0,0,0
84988390,0.0,-0.0,-2.62251,0.0,0.256636,0.0,-0.0,-0.966508,1.0,-1.0,1,0,0,0,0,0,0
85092087,0.0,-0.0,-2.62251,0.0,0.256636,0.0,-0.0,-0.966508,1.0,-1.0,1,0,0,0,0,0,0
85192650,0.0,-0.0,-2.62251,0.0,0.256636,0.0,-0.0,-0.966508,1.0,-1.0,1,0,0,0,0,0,0
85296961,0.0,-0.0,-2.62251,0.0,0.256636,0.0,-0.0,-0.966508,1.0,-1.0,1,0,0,0,0,0,0
85396170,0.0,-0.0,-2.62251,0.0,0.256636,0.0,-0.0,-0.966508,1.0,-1.0,1,0,0,0,0,0,0
85500573,0.0,-0.0,-2.62251,0.0,0.256636,0.0,-0.0,-0.966508,1.0,-1.0,1,0,0,0,0,0,0
85600028,0.0,-0.0,-2.62251,0.0,0.256636,0.0,-0.0,-0.966508,1.0,-1.0,1,0,0,0,0,0,0
85700543,0.0,0.109346,-2.62251,0.0,0.256252,0.0528156,0.0140241,-0.965064,1.0,-1.0,1,0,0,0,0,0,0
85800043,0.0,0.220193,-2.62251,0.0,0.255082,0.106194,0.0281976,-0.960657,1.0,-1.0,1,0,0,0,0,0,0
85900369,0.0,0.100962,-2.62251,0.0,0.256309,0.0487698,0.0129498,-0.965277,1.0,-1.0,1,0,0,0,0,0,0
86004473,0.0,0.000140698,-2.62251,0.0,0.256636,6.79927e-05,1.8054e-05,-0.966508,1.0,-1.0,1,0,0,0,0,0,0
86108123,0.0,-1.32776e-05,-2.62251,0.0,0.256636,-6.41647e-06,-1.70376e-06,-0.966508,1.0,-1.0,1,0,0,0,0,0,0
86208751,0.0,-8.5057e-07,-2.62251,0.0,0.256636,-4.11041e-07,-1.09143e-07,-0.966508,1.0,-1.0,1,0,0,0,0,0,0
86312042,0.0,-6.02117e-09,-2.62251,0.0,0.256636,-2.90976e-09,-7.72624e-10,-0.966508,1.0,-1.0,1,0,0,0,0,0,0
86412453,0.0,6.82612e-10,-2.62251,0.0,0.256636,3.29875e-10,8.75913e-11,-0.966508,1.0,-1.0,1,0,0,0,0,0,0
86512093,0.0,-0.0,-2.62251,0.0,0.256636,0.0,-0.0,-0.966508,1.0,-1.0,1,0,0,0,0,0,0
86616028,0.0,-0.0,-2.62251,0.0,0.256636,0.0,-0.0,-0.966508,1.0,-1.0,1,0,0,0,0,0,0
86716076,0.0,-0.0,-2.62251,0.0,0.256636,0.0,-0.0,-0.966508,1.0,-1.0,1,0,0,0,0,0,0
86816364,0.0,-0.0,-2.62251,0.0,0.256636,0.0,-0.0,-0.966508,1.0,-1.0,1,0,0,0,0,0,0
86920724,0.0,-0.0,-2.62251,0.0,0.256636,0.0,-0.0,-0.966508,1.0,-1.0,1,0,0,0,0,0,0
87022377,0.0,-0.0,-2.62251,0.0,0.256636,0.0,-0.0,-0.966508,1.0,-1.0,1,0,0,0,0,0,0
87124379,0.0,-0.0,-2.62251,0.0,0.256636,0.0,-0.0,-0.966508,1.0,-1.0,1,0,0,0,0,0,0
87224149,0.0,-0.0,-2.62251,0.0,0.256636,0.0,-0.0,-0.966508,1.0,-1.0,1,0,0,0,0,0,0
87248048,0.0,-0.0,-2.62251,0.0,0.256636,0.0,-0.0,-0.966508,1.0,-1.0,1,0,0,0,0,0,0
87248048,0.0,-0.0,-2.62251,0.0,0.256636,0.0,-0.0,-0.966508,1.0,-1.0,1,0,0,0,0,0,0
87248048,0.0,-0.0,-2.62251,0.0,0.256636,0.0,-0.0,-0.966508,1.0,-1.0,1,0,0,0,0,0,0
87248048,0.0,-0.0,-2.62251,0.0,0.256636,0.0,-0.0,-0.966508,1.0,-1.0,1,0,0,0,0,0,0
87248048,0.0,-0.0,-2.62251,0.0,0.256636,0.0,-0.0,-0.966508,1.0,-1.0,1,0,0,0,0,0,0
87248048,0.0,-0.0,-2.62251,0.0,0.256636,0.0,-0.0,-0.966508,1.0,-1.0,1,0,0,0,0,0,0
87248048,0.0,-0.0,-2.62251,0.0,0.256636,0.0,-0.0,-0.966508,1.0,-1.0,1,0,0,0,0,0,0
87248048,0.0,-0.0,-2.62251,0.0,0.256636,0.0,-0.0,-0.966508,1.0,-1.0,1,0,0,0,0,0,0
87248048,0.0,-0.0,-2.62251,0.0,0.256636,0.0,-0.0,-0.966508,1.0,-1.0,1,0,0,0,0,0,0
87248048,0.0,-0.0,-2.62251,0.0,0.256636,0.0,-0.0,-0.966508,1.0,-1.0,1,0,0,0,0,0,0
87248048,0.0,-0.0,-2.62251,0.0,0.256636,0.0,-0.0,-0.966508,1.0,-1.0,1,0,0,0,0,0,0
87248048,0.0,-0.0,-2.62251,0.0,0.256636,0.0,-0.0,-0.966508,1.0,-1.0,1,0,0,0,0,0,0
87248048,0.0,-0.0,-2.62251,0.0,0.256636,0.0,-0.0,-0.966508,1.0,-1.0,1,0,0,0,0,0,0
87248048,0.0,-0.0,-2.62251,0.0,0.256636,0.0,-0.0,-0.966508,1.0,-1.0,1,0,0,0,0,0,0
87248048,0.0,-0.0,-2.62251,0.0,0.256636,0.0,-0.0,-0.966508,1.0,-1.0,1,0,0,0,0,0,0
87248048,0.0,-0.0,-2.62251,0.0,0.256636,0.0,-0.0,-0.966508,1.0,-1.0,1,0,0,0,0,0,0
87248048,0.0,-0.0,-2.62251,0.0,0.256636,0.0,-0.0,-0.966508,1.0,-1.0,1,0,0,0,0,0,0
87248048,0.0,-0.0,-2.62251,0.0,0.256636,0.0,-0.0,-0.966508,1.0,-1.0,1,0,0,0,0,0,0
87248048,0.0,-0.0,-2.62251,0.0,0.256636,0.0,-0.0,-0.966508,1.0,-1.0,1,0,0,0,0,0,0
89255483,0.0,-0.0,-1.99247,0.0,0.543468,0.0,-0.0,-0.83943,1.0,-1.0,1,0,0,0,0,0,0
89355151,0.0,-0.0,-1.99247,0.0,0.543468,0.0,-0.0,-0.83943,1.0,-1.0,1,0,0,0,0,0,0
89456445,0.0,-0.0,-1.99247,0.0,0.543468,0.0,-0.0,-0.83943,1.0,-1.0,1,0,0,0,0,0,0
89558970,0.0,-0.0,-1.99247,0.0,0.543468,0.0,-0.0,-0.83943,1.0,-1.0,1,0,0,0,0,0,0
89659869,0.0,-0.0,-1.99247,0.0,0.543468,0.0,-0.0,-0.83943,1.0,-1.0,1,0,0,0,0,0,0
89761505,0.0,-0.0,-1.99247,0.0,0.543468,0.0,-0.0,-0.83943,1.0,-1.0,1,0,0,0,0,0,0
89864090,0.0,-0.0,-1.99247,0.0,0.543468,0.0,-0.0,-0.83943,1.0,-1.0,1,0,0,0,0,0,0
89963503,0.0,-0.0,-1.99247,0.0,0.543468,0.0,-0.0,-0.83943,1.0,-1.0,1,0,0,0,0,0,0
90065037,0.0,-0.0,-1.99247,0.0,0.543468,0.0,-0.0,-0.83943,1.0,-1.0,1,0,0,0,0,0,0
90168049,0.0,-0.0,-1.99247,0.0,0.543468,0.0,-0.0,-0.83943,1.0,-1.0,1,0,0,0,0,0,0
90267706,0.0,-0.0,-1.99247,0.0,0.543468,0.0,-0.0,-0.83943,1.0,-1.0,1,0,0,0,0,0,0
90372794,0.0,-0.0,-1.99247,0.0,0.543468,0.0,-0.0,-0.83943,1.0,-1.0,1,0,0,0,0,0,0
90472043,0.0,-0.0,-1.99247,0.0,0.543468,0.0,-0.0,-0.83943,1.0,-1.0,1,0,0,0,0,0,0
90573936,0.0,-0.0,-1.99247,0.0,0.543468,0.0,-0.0,-0.83943,1.0,-1.0,1,0,0,0,0,0,0
90676128,0.0,-0.0,-1.99247,0.0,0.543468,0.0,-0.0,-0.83943,1.0,-1.0,1,0,0,0,0,0,0
90776456,0.0,-0.0,-1.99247,0.0,0.543468,0.0,-0.0,-0.83943,1.0,-1.0,1,0,0,0,0,0,0
90875576,0.0,-0.0,-1.99247,0.0,0.543468,0.0,-0.0,-0.83943,1.0,-1.0,1,0,0,0,0,0,0
90980112,0.0,-0.0,-1.99247,0.0,0.543468,0.0,-0.0,-0.83943,1.0,-1.0,1,0,0,0,0,0,0
91080019,0.0,-0.0,-1.99247,0.0,0.543468,0.0,-0.0,-0.83943,1.0,-1.0,1,0,0,0,0,0,0
91184030,0.0,-0.0,-1.99247,0.0,0.543468,0.0,-0.0,-0.83943,1.0,-1.0,1,0,0,0,0,0,0
91284018,0.0,-0.0,-1.99247,0.0,0.543468,0.0,-0.0,-0.83943,1.0,-1.0,1,0,0,0,0,0,0
91385003,0.0,-0.0,-1.99247,0.0,0.543468,0.0,-0.0,-0.83943,1.0,-1.0,1,0,0,0,0,0,0
91489251,0.0,-0.0,-1.99247,0.0,0.543468,0.0,-0.0,-0.83943,1.0,-1.0,1,0,0,0,0,0,0
91585932,0.0,-0.0,-1.99247,0.0,0.543468,0.0,-0.0,-0.83943,1.0,-1.0,1,0,0,0,0,0,0
91690677,0.0,-0.0,-1.99247,0.0,0.543468,0.0,-0.0,-0.83943,1.0,-1.0,1,0,0,0,0,0,0
91792045,0.0,-0.0,-1.99247,0.0,0.543468,0.0,-0.0,-0.83943,1.0,-1.0,1,0,0,0,0,0,0
91892384,0.0,-0.0,-1.99247,0.0,0.543468,0.0,-0.0,-0.83943,1.0,-1.0,1,0,0,0,0,0,0
91996043,0.0,-0.0,-1.99247,0.0,0.543468,0.0,-0.0,-0.83943,1.0,-1.0,1,0,0,0,0,0,0
92096646,0.0,-0.0,-1.99247,0.0,0.543468,0.0,-0.0,-0.83943,1.0,-1.0,1,0,0,0,0,0,0
92199388,0.0,-0.0,-1.99247,0.0,0.543468,0.0,-0.0,-0.83943,1.0,-1.0,1,0,0,0,0,0,0
92300454,0.0,-0.0,-1.99247,0.0,0.543468,0.0,-0.0,-0.83943,1.0,-1.0,1,0,0,0,0,0,0
92399683,0.0,0.00125435,-1.99247,0.0,0.543468,0.00052647,0.00034085,-0.839429,1.0,-1.0,1,0,0,0,0,0,0
92499022,0.0,-0.000339942,-1.99247,0.0,0.543468,-0.000142679,-9.23739e-05,-0.83943,1.0,-1.0,1,0,0,0,0,0,0
92604054,0.0,-2.46266e-06,-1.99247,0.0,0.543468,-1.03362e-06,-6.69189e-07,-0.83943,1.0,-1.0,1,0,0,0,0,0,0
92704066,0.0,2.6991e-07,-1.99247,0.0,0.543468,1.13285e-07,7.33438e-08,-0.83943,1.0,-1.0,1,0,0,0,0,0,0
92807043,0.0,0.0027304,-1.99247,0.0,0.543468,0.00114599,0.000741942,-0.839429,1.0,-1.0,1,0,0,0,0,0,0
92909959,0.0,1.978e-05,-1.99247,0.0,0.543468,8.30195e-06,5.3749e-06,-0.83943,1.0,-1.0,1,0,0,0,0,0,0
93008133,0.0,-2.1679e-06,-1.99247,0.0,0.543468,-9.09901e-07,-5.89094e-07,-0.83943,1.0,-1.0,1,0,0,0,0,0,0
93111045,0.0,-3.8877e-09,-1.99247,0.0,0.543468,-1.63173e-09,-1.05642e-09,-0.83943,1.0,-1.0,1,0,0,0,0,0,0
93212676,0.0,7.35884e-10,-1.99247,0.0,0.543468,3.08862e-10,1.99965e-10,-0.83943,1.0,-1.0,1,0,0,0,0,0,0
93316148,0.0,-0.0,-1.99247,0.0,0.543468,0.0,-0.0,-0.83943,1.0,-1.0,1,0,0,0,0,0,0
93415073,0.0,-0.0,-1.99247,0.0,0.543468,0.0,-0.0,-0.83943,1.0,-1.0,1,0,0,0,0,0,0
93516476,0.0,-0.0,-1.99247,0.0,0.543468,0.0,-0.0,-0.83943,1.0,-1.0,1,0,0,0,0,0,0
93620159,0.0,-0.0,-1.99247,0.0,0.543468,0.0,-0.0,-0.83943,1.0,-1.0,1,0,0,0,0,0,0
93721957,0.0,-0.0,-1.99247,0.0,0.543468,0.0,-0.0,-0.83943,1.0,-1.0,1,0,0,0,0,0,0
93822896,0.0,-0.0,-1.99247,0.0,0.543468,0.0,-0.0,-0.83943,1.0,-1.0,1,0,0,0,0,0,0
93923162,0.0,-0.0,-1.99247,0.0,0.543468,0.0,-0.0,-0.83943,1.0,-1.0,1,0,0,0,0,0,0
94025915,0.0,-0.0,-1.99247,0.0,0.543468,0.0,-0.0,-0.83943,1.0,-1.0,1,0,0,0,0,0,0
94127659,0.0,-0.0,-1.99247,0.0,0.543468,0.0,-0.0,-0.83943,1.0,-1.0,1,0,0,0,0,0,0
94227032,0.0,-0.0,-1.99247,0.0,0.543468,0.0,-0.0,-0.83943,1.0,-1.0,1,0,0,0,0,0,0
94327054,0.0,-0.0,-1.99247,0.0,0.543468,0.0,-0.0,-0.83943,1.0,-1.0,1,0,0,0,0,0,0
94431036,0.0,-0.0,-1.98946,0.080286,0.544731,0.0,-0.0,-0.838611,1.0,-1.0,1,0,0,0,0,0,0
94531395,0.0,-0.0,-1.98273,0.0225858,0.547549,0.0,-0.0,-0.836773,1.0,-1.0,1,0,0,0,0,0,0
94633219,0.0,-0.0,-1.98256,0.000238559,0.547618,0.0,-0.0,-0.836728,1.0,-1.0,1,0,0,0,0,0,0
94736631,0.0,-0.0,-1.98256,-5.5234e-06,0.54762,0.0,-0.0,-0.836727,1.0,-1.0,1,0,0,0,0,0,0
94835125,0.0,-0.0,-1.98256,-1.56762e-07,0.54762,0.0,-0.0,-0.836727,1.0,-1.0,1,0,0,0,0,0,0
94939091,0.0,-0.0,-1.98256,-1.64802e-09,0.54762,0.0,-0.0,-0.836727,1.0,-1.0,1,0,0,0,0,0,0
95039628,0.0,-0.0,-1.98256,3.58058e-11,0.54762,0.0,-0.0,-0.836727,1.0,-1.0,1,0,0,0,0,0,0
95139040,0.0,-0.0,-1.98256,3.77593e-12,0.54762,0.0,-0.0,-0.836727,1.0,-1.0,1,0,0,0,0,0,0
95243097,0.0,-0.0,-1.96244,0.503652,0.556011,0.0,-0.0,-0.831175,0.952148,-1.0,1,0,0,0,0,0,0
95344760,0.0,-0.0,-1.87569,1.1609,0.591525,0.0,-0.0,-0.806287,0.379037,-1.0,1,0,0,0,0,0,0
95444062,0.0,-0.0,-1.84658,1.28499,0.603201,0.0,-0.0,-0.797589,0.08,-1.0,1,0,0,0,0,0,0
95548026,0.0,-0.0,-1.84658,1.28499,0.603201,0.0,-0.0,-0.797589,0.08,-1.0,1,0,0,0,0,0,0
95648308,0.0,-0.0,-1.84658,1.28499,0.603201,0.0,-0.0,-0.797589,0.08,-1.0,1,0,0,0,0,0,0
95745966,0.0,-0.0,-1.84658,1.28499,0.603201,0.0,-0.0,-0.797589,0.08,-1.0,1,0,0,0,0,0,0
95851993,0.0,-0.0,-1.84658,1.28499,0.603201,0.0,-0.0,-0.797589,0.08,-1.0,1,0,0,0,0,0,0
95951011,0.0,-0.0,-1.84658,1.28499,0.603201,0.0,-0.0,-0.797589,0.08,-1.0,1,0,0,0,0,0,0
96056017,0.0,-0.0,-1.84658,1.28499,0.603201,0.0,-0.0,-0.797589,0.08,-1.0,1,0,0,0,0,0,0
96156041,0.0,-0.0,-1.84658,1.28499,0.603201,0.0,-0.0,-0.797589,0.08,-1.0,1,0,0,0,0,0,0
96256097,0.0,-0.0,-1.84658,1.28499,0.603201,0.0,-0.0,-0.797589,0.08,-1.0,1,0,0,0,0,0,0
96360018,0.0,-0.0,-1.84658,1.28499,0.603201,0.0,-0.0,-0.797589,0.08,-1.0,1,0,0,0,0,0,0
96459714,0.0,-0.0,-1.84658,1.28499,0.603201,0.0,-0.0,-0.797589,0.08,-1.0,1,0,0,0,0,0,0
96563683,0.0,-0.0,-1.84658,1.28499,0.603201,0.0,-0.0,-0.797589,0.08,-1.0,1,0,0,0,0,0,0
96663036,0.0,-0.0,-1.84658,1.28499,0.603201,0.0,-0.0,-0.797589,0.08,-1.0,1,0,0,0,0,0,0
96763094,0.0,-0.0,-1.84658,1.28499,0.603201,0.0,-0.0,-0.797589,0.08,-1.0,1,0,0,0,0,0,0
96867040,0.0,-0.0,-1.84658,1.28499,0.603201,0.0,-0.0,-0.797589,0.08,-1.0,1,0,0,0,0,0,0
96968637,0.0,-0.0,-1.84658,1.28499,0.603201,0.0,-0.0,-0.797589,0.08,-1.0,1,0,0,0,0,0,0
97068075,0.0,-0.0,-1.84658,1.28499,0.603201,0.0,-0.0,-0.797589,0.08,-1.0,1,0,0,0,0,0,0
97171509,0.0,-0.0,-1.84658,1.28499,0.603201,0.0,-0.0,-0.797589,0.08,-1.0,1,0,0,0,0,0,0
97267695,0.0,-0.0,-1.84658,1.28499,0.603201,0.0,-0.0,-0.797589,0.08,-1.0,1,0,0,0,0,0,0
97375680,0.0,-0.0,-1.84658,1.28499,0.603201,0.0,-0.0,-0.797589,0.08,-1.0,1,0,0,0,0,0,0
97476475,0.0,-0.0,-1.84658,1.28499,0.603201,0.0,-0.0,-0.797589,0.08,-1.0,1,0,0,0,0,0,0
97575044,0.0,-0.0,-1.84658,1.28499,0.603201,0.0,-0.0,-0.797589,0.08,-1.0,1,0,0,0,0,0,0
97679112,0.0,-0.0,-1.84658,1.28499,0.603201,0.0,-0.0,-0.797589,0.08,-1.0,1,0,0,0,0,0,0
97779138,0.0,-0.0,-1.84658,1.28499,0.603201,0.0,-0.0,-0.797589,0.08,-1.0,1,0,0,0,0,0,0
97884468,0.0,-0.0,-1.84658,1.28499,0.603201,0.0,-0.0,-0.797589,0.08,-1.0,1,0,0,0,0,0,0
97988168,0.0,-0.0,-1.84658,1.28499,0.603201,0.0,-0.0,-0.797589,0.08,-1.0,1,0,0,0,0,0,0
98086528,0.0,-0.0,-1.84658,1.28499,0.603201,0.0,-0.0,-0.797589,0.08,-1.0,1,0,0,0,0,0,0
98189872,0.0,-0.0,-1.84658,1.28499,0.603201,0.0,-0.0,-0.797589,0.08,-1.0,1,0,0,0,0,0,0
98292440,0.0,-0.0,-1.84658,1.28499,0.603201,0.0,-0.0,-0.797589,0.08,-1.0,1,0,0,0,0,0,0
98392368,0.0,-0.0,-1.84658,1.28499,0.603201,0.0,-0.0,-0.797589,0.08,-1.0,1,0,0,0,0,0,0
98495711,0.0,-0.0,-1.84658,1.28499,0.603201,0.0,-0.0,-0.797589,0.08,-1.0,1,0,0,0,0,0,0
98596404,0.0,-0.0,-1.84658,1.28499,0.603201,0.0,-0.0,-0.797589,0.08,-1.0,1,0,0,0,0,0,0
98695146,0.0,-0.0,-1.84658,1.28499,0.603201,0.0,-0.0,-0.797589,0.08,-1.0,1,0,0,0,0,0,0
98799733,0.0,-0.0,-1.84658,1.28499,0.603201,0.0,-0.0,-0.797589,0.08,-1.0,1,0,0,0,0,0,0
98899090,0.0,-0.0,-1.84658,1.28499,0.603201,0.0,-0.0,-0.797589,0.08,-1.0,1,0,0,0,0,0,0
98999358,0.0,-0.0,-1.84658,1.28499,0.603201,0.0,-0.0,-0.797589,0.08,-1.0,1,0,0,0,0,0,0
99104402,0.0,-0.0,-1.84658,1.28499,0.603201,0.0,-0.0,-0.797589,0.08,-1.0,1,0,0,0,0,0,0
99204039,0.0,-0.0,-1.84658,1.28499,0.603201,0.0,-0.0,-0.797589,0.08,-1.0,1,0,0,0,0,0,0
99307104,0.0,-0.0,-1.84658,1.28499,0.603201,0.0,-0.0,-0.797589,0.08,-1.0,1,0,0,0,0,0,0
99407120,0.0,-0.0,-1.84658,1.28499,0.603201,0.0,-0.0,-0.797589,0.08,-1.0,1,0,0,0,0,0,0
99508732,0.0,-0.0,-1.84658,1.28499,0.603201,0.0,-0.0,-0.797589,0.08,-1.0,1,0,0,0,0,0,0
99612038,0.0,-0.0,-1.84658,1.28499,0.603201,0.0,-0.0,-0.797589,0.08,-1.0,1,0,0,0,0,0,0
99712420,0.0,-0.0,-1.84658,1.28499,0.603201,0.0,-0.0,-0.797589,0.08,-1.0,1,0,0,0,0,0,0
99815694,0.0,-0.0,-1.84658,1.28499,0.603201,0.0,-0.0,-0.797589,0.08,-1.0,1,0,0,0,0,0,0
99916056,0.0,-0.0,-1.84658,1.28499,0.603201,0.0,-0.0,-0.797589,0.08,-1.0,1,0,0,0,0,0,0
100016105,0.0,-0.0,-1.84658,1.28499,0.603201,0.0,-0.0,-0.797589,0.08,-1.0,1,0,0,0,0,0,0
100114042,0.0,-0.0,-1.84658,1.28499,0.603201,0.0,-0.0,-0.797589,0.08,-1.0,1,0,0,0,0,0,0
100218314,0.0,-0.0,-1.84658,1.28499,0.603201,0.0,-0.0,-0.797589,0.08,-1.0,1,0,0,0,0,0,0
100321826,0.0,-0.0,-1.84658,1.28499,0.603201,0.0,-0.0,-0.797589,0.08,-1.0,1,0,0,0,0,0,0
100423485,0.0,-0.0,-1.84658,1.28499,0.603201,0.0,-0.0,-0.797589,0.08,-1.0,1,0,0,0,0,0,0
100523697,0.0,-0.0,-1.84658,1.28499,0.603201,0.0,-0.0,-0.797589,0.08,-1.0,1,0,0,0,0,0,0
100627416,0.0,-0.0,-1.84658,1.28499,0.603201,0.0,-0.0,-0.797589,0.08,-1.0,1,0,0,0,0,0,0
100727033,0.0,-0.0,-1.84658,1.28499,0.603201,0.0,-0.0,-0.797589,0.08,-1.0,1,0,0,0,0,0,0
100827110,0.0,-0.0,-1.84658,1.28499,0.603201,0.0,-0.0,-0.797589,0.08,-1.0,1,0,0,0,0,0,0
100931108,0.0,-0.0,-1.84658,1.28499,0.603201,0.0,-0.0,-0.797589,0.08,-1.0,1,0,0,0,0,0,0
101031712,0.0,-0.0,-1.84658,1.28499,0.603201,0.0,-0.0,-0.797589,0.08,-1.0,1,0,0,0,0,0,0
101131436,0.0,-0.0,-1.84658,1.28499,0.603201,0.0,-0.0,-0.797589,0.08,-1.0,1,0,0,0,0,0,0
101235704,0.0,-0.0,-1.84658,1.28499,0.603201,0.0,-0.0,-0.797589,0.08,-1.0,1,0,0,0,0,0,0
101335065,0.0,-0.0,-1.84658,1.28499,0.603201,0.0,-0.0,-0.797589,0.08,-1.0,1,0,0,0,0,0,0
101439042,0.0,-0.0,-1.84658,1.28499,0.603201,0.0,-0.0,-0.797589,0.08,-1.0,1,0,0,0,0,0,0
101540428,0.0,-0.0,-1.84658,1.28499,0.603201,0.0,-0.0,-0.797589,0.08,-1.0,1,0,0,0,0,0,0
101639075,0.0,-0.0,-1.84658,1.28499,0.603201,0.0,-0.0,-0.797589,0.08,-1.0,1,0,0,0,0,0,0
101743061,0.0,-0.0,-1.84658,1.28499,0.603201,0.0,-0.0,-0.797589,0.08,-1.0,1,0,0,0,0,0,0
101843736,0.0,-0.0,-1.84658,1.28499,0.603201,0.0,-0.0,-0.797589,0.08,-1.0,1,0,0,0,0,0,0
101944105,0.0,-0.0,-1.84658,1.28499,0.603201,0.0,-0.0,-0.797589,0.08,-1.0,1,0,0,0,0,0,0
102043177,0.0,-0.0,-1.84658,1.28499,0.603201,0.0,-0.0,-0.797589,0.08,-1.0,1,0,0,0,0,0,0
102147807,0.0,-0.0,-1.84658,1.28499,0.603201,0.0,-0.0,-0.797589,0.08,-1.0,1,0,0,0,0,0,0
102251458,0.0,-0.0,-1.84658,1.28499,0.603201,0.0,-0.0,-0.797589,0.08,-1.0,1,0,0,0,0,0,0
102349843,0.0,-0.0,-1.84658,1.28499,0.603201,0.0,-0.0,-0.797589,0.08,-1.0,1,0,0,0,0,0,0
102454253,0.0,-0.0,-1.84658,1.28499,0.603201,0.0,-0.0,-0.797589,0.08,-1.0,1,0,0,0,0,0,0
102555031,0.0,-0.0,-1.84658,1.28499,0.603201,0.0,-0.0,-0.797589,0.08,-1.0,1,0,0,0,0,0,0
102655404,0.0,-0.0,-1.84658,1.28499,0.603201,0.0,-0.0,-0.797589,0.08,-1.0,1,0,0,0,0,0,0
102755019,0.0,-0.0,-1.84658,1.28499,0.603201,0.0,-0.0,-0.797589,0.08,-1.0,1,0,0,0,0,0,0
102859149,0.0,-0.0,-1.84658,1.28499,0.603201,0.0,-0.0,-0.797589,0.08,-1.0,1,0,0,0,0,0,0
102959025,0.0,-0.0,-1.84658,1.28499,0.603201,0.0,-0.0,-0.797589,0.08,-1.0,1,0,0,0,0,0,0
103063216,0.0,-0.0,-1.84658,1.28499,0.603201,0.0,-0.0,-0.797589,0.08,-1.0,1,0,0,0,0,0,0
103163514,0.0,-0.0,-1.84658,1.28499,0.603201,0.0,-0.0,-0.797589,0.08,-1.0,1,0,0,0,0,0,0
103263101,0.0,-0.0,-1.84658,1.28499,0.603201,0.0,-0.0,-0.797589,0.08,-1.0,1,0,0,0,0,0,0
103363411,0.0,-0.0,-1.84658,1.28499,0.603201,0.0,-0.0,-0.797589,0.08,-1.0,1,0,0,0,0,0,0
103467375,0.0,-0.0,-1.84658,1.28499,0.603201,0.0,-0.0,-0.797589,0.08,-1.0,1,0,0,0,0,0,0
103567088,0.0,-0.0,-1.84658,1.28499,0.603201,0.0,-0.0,-0.797589,0.08,-1.0,1,0,0,0,0,0,0
103671035,0.0,-0.0,-1.84658,1.28499,0.603201,0.0,-0.0,-0.797589,0.08,-1.0,1,0,0,0,0,0,0
103771062,0.0,-0.0,-1.84658,1.28499,0.603201,0.0,-0.0,-0.797589,0.08,-1.0,1,0,0,0,0,0,0
103875027,0.0,-0.0,-1.84658,1.28499,0.603201,0.0,-0.0,-0.797589,0.08,-1.0,1,0,0,0,0,0,0
103975423,0.0,-0.0,-1.84658,1.28499,0.603201,0.0,-0.0,-0.797589,0.08,-1.0,1,0,0,0,0,0,0
104076176,0.0,-0.0,-1.84658,1.28499,0.603201,0.0,-0.0,-0.797589,0.08,-1.0,1,0,0,0,0,0,0
104179077,0.0,-0.0,-1.84658,1.28499,0.603201,0.0,-0.0,-0.797589,0.08,-1.0,1,0,0,0,0,0,0
104280114,0.0,-0.0,-1.84658,1.28499,0.603201,0.0,-0.0,-0.797589,0.08,-1.0,1,0,0,0,0,0,0
104377544,0.0,-0.0,-1.84658,1.28499,0.603201,0.0,-0.0,-0.797589,0.08,-1.0,1,0,0,0,0,0,0
104481507,0.0,-0.0,-1.84658,1.28499,0.603201,0.0,-0.0,-0.797589,0.08,-1.0,1,0,0,0,0,0,0
104583369,0.0,-0.0,-1.84658,1.28499,0.603201,0.0,-0.0,-0.797589,0.08,-1.0,1,0,0,0,0,0,0
104687731,0.0,-0.0,-1.84658,1.28499,0.603201,0.0,-0.0,-0.797589,0.08,-1.0,1,0,0,0,0,0,0
104788187,0.0,-0.0,-1.84658,1.28499,0.603201,0.0,-0.0,-0.797589,0.08,-1.0,1,0,0,0,0,0,0
104887119,0.0,-0.0,-1.84658,1.28499,0.603201,0.0,-0.0,-0.797589,0.08,-1.0,1,0,0,0,0,0,0
104991203,0.0,-0.0,-1.84658,1.28499,0.603201,0.0,-0.0,-0.797589,0.08,-1.0,1,0,0,0,0,0,0
105091076,0.0,-0.0,-1.84658,1.28499,0.603201,0.0,-0.0,-0.797589,0.08,-1.0,1,0,0,0,0,0,0
105191718,0.0,-0.0,-1.84658,1.28499,0.603201,0.0,-0.0,-0.797589,0.08,-1.0,1,0,0,0,0,0,0
105295074,0.0,-0.0,-1.84658,1.28499,0.603201,0.0,-0.0,-0.797589,0.08,-1.0,1,0,0,0,0,0,0
105395839,0.0,-0.0,-1.84658,1.28499,0.603201,0.0,-0.0,-0.797589,0.08,-1.0,1,0,0,0,0,0,0
105499801,0.0,-0.0,-1.84658,1.28499,0.603201,0.0,-0.0,-0.797589,0.08,-1.0,1,0,0,0,0,0,0
105599041,0.0,-0.0,-1.84658,1.28499,0.603201,0.0,-0.0,-0.797589,0.08,-1.0,1,0,0,0,0,0,0
105699815,0.0,-0.0,-1.84658,1.28499,0.603201,0.0,-0.0,-0.797589,0.08,-1.0,1,0,0,0,0,0,0
105803394,0.0,-0.0,-1.84658,1.28499,0.603201,0.0,-0.0,-0.797589,0.08,-1.0,1,0,0,0,0,0,0
105903043,0.0,-0.0,-1.84658,1.28499,0.603201,0.0,-0.0,-0.797589,0.08,-1.0,1,0,0,0,0,0,0
106003435,0.0,-0.0,-1.84658,1.28499,0.603201,0.0,-0.0,-0.797589,0.08,-1.0,1,0,0,0,0,0,0
106107761,0.0,-0.0,-1.84658,1.28499,0.603201,0.0,-0.0,-0.797589,0.08,-1.0,1,0,0,0,0,0,0
106207071,0.0,-0.0,-1.84658,1.28499,0.603201,0.0,-0.0,-0.797589,0.08,-1.0,1,0,0,0,0,0,0
106311021,0.0,-0.0,-1.84658,1.28499,0.603201,0.0,-0.0,-0.797589,0.08,-1.0,1,0,0,0,0,0,0
106411979,0.0,-0.0,-1.84658,1.28499,0.603201,0.0,-0.0,-0.797589,0.08,-1.0,1,0,0,0,0,0,0
106511243,0.0,-0.0,-1.84658,1.28499,0.603201,0.0,-0.0,-0.797589,0.08,-1.0,1,0,0,0,0,0,0
106615345,0.0,-0.0,-1.84658,1.28499,0.603201,0.0,-0.0,-0.797589,0.08,-1.0,1,0,0,0,0,0,0
106715046,0.0,-0.0,-1.84658,1.28499,0.603201,0.0,-0.0,-0.797589,0.08,-1.0,1,0,0,0,0,0,0
106818397,0.0,-0.0,-1.84658,1.28499,0.603201,0.0,-0.0,-0.797589,0.08,-1.0,1,0,0,0,0,0,0
106919391,0.0,-0.0,-1.84658,1.28499,0.603201,0.0,-0.0,-0.797589,0.08,-1.0,1,0,0,0,0,0,0
107019024,0.0,-0.0,-1.84658,1.28499,0.603201,0.0,-0.0,-0.797589,0.08,-1.0,1,0,0,0,0,0,0
107123087,0.0,-0.0,-1.84658,1.28499,0.603201,0.0,-0.0,-0.797589,0.08,-1.0,1,0,0,0,0,0,0
107223502,0.0,-0.0,-1.84658,1.28499,0.603201,0.0,-0.0,-0.797589,0.08,-1.0,1,0,0,0,0,0,0
107323126,0.0,-0.0,-1.84658,1.28499,0.603201,0.0,-0.0,-0.797589,0.08,-1.0,1,0,0,0,0,0,0
107427025,0.0,-0.0,-1.84658,1.28499,0.603201,0.0,-0.0,-0.797589,0.08,-1.0,1,0,0,0,0,0,0
107527072,0.0,-0.0,-1.84658,1.28499,0.603201,0.0,-0.0,-0.797589,0.08,-1.0,1,0,0,0,0,0,0
107627044,0.0,-0.0,-1.84658,-6.58584e-13,0.603201,0.0,-0.0,-0.797589,0.106086,-1.0,1,0,0,0,0,0,0
107731147,0.0,-0.0,-1.84658,9.82086e-14,0.603201,0.0,-0.0,-0.797589,0.0917396,-1.0,1,0,0,0,0,0,0
107829486,0.0,-0.0,-1.84658,9.82086e-14,0.603201,0.0,-0.0,-0.797589,0.08,-1.0,1,0,0,0,0,0,0
107935709,0.0,-0.0,-1.84658,9.82086e-14,0.603201,0.0,-0.0,-0.797589,0.08,-1.0,1,0,0,0,0,0,0
108035643,0.0,-0.0,-1.84658,9.82086e-14,0.603201,0.0,-0.0,-0.797589,0.08,-1.0,1,0,0,0,0,0,0
108135099,0.0,-0.0,-1.84658,9.82086e-14,0.603201,0.0,-0.0,-0.797589,0.08,-1.0,1,0,0,0,0,0,0
108239021,0.0,-0.0,-1.84658,9.82086e-14,0.603201,0.0,-0.0,-0.797589,0.08,-1.0,1,0,0,0,0,0,0
108339699,0.0,-0.0,-1.84658,9.82086e-14,0.603201,0.0,-0.0,-0.797589,0.08,-1.0,1,0,0,0,0,0,0
108439078,0.0,-0.0,-1.84658,9.82086e-14,0.603201,0.0,-0.0,-0.797589,0.08,-1.0,1,0,0,0,0,0,0
108543022,0.0,-0.0,-1.84658,9.82086e-14,0.603201,0.0,-0.0,-0.797589,0.08,-1.0,1,0,0,0,0,0,0
108643998,0.0,-0.0,-1.84658,9.82086e-14,0.603201,0.0,-0.0,-0.797589,0.08,-1.0,1,0,0,0,0,0,0
108746303,0.0,-0.0,-1.84658,9.82086e-14,0.603201,0.0,-0.0,-0.797589,0.08,-1.0,1,0,0,0,0,0,0
108845908,0.0,-0.0,-1.84658,9.82086e-14,0.603201,0.0,-0.0,-0.797589,0.08,-1.0,1,0,0,0,0,0,0
108949780,0.0,-0.0,-1.84658,9.82086e-14,0.603201,0.0,-0.0,-0.797589,0.08,-1.0,1,0,0,0,0,0,0
109051131,0.0,-0.0,-1.84658,9.82086e-14,0.603201,0.0,-0.0,-0.797589,0.08,-1.0,1,0,0,0,0,0,0
109150676,0.0,-0.0,-1.84658,9.82086e-14,0.603201,0.0,-0.0,-0.797589,0.08,-1.0,1,0,0,0,0,0,0
109251024,0.0,-0.0,-1.84658,9.82086e-14,0.603201,0.0,-0.0,-0.797589,0.08,-1.0,1,0,0,0,0,0,0
109356049,0.0,-0.0,-1.84658,9.82086e-14,0.603201,0.0,-0.0,-0.797589,0.08,-1.0,1,0,0,0,0,0,0
109455024,0.0,-0.0,-1.84658,9.82086e-14,0.603201,0.0,-0.0,-0.797589,0.08,-1.0,1,0,0,0,0,0,0
109559025,0.0,-0.0,-1.84658,9.82086e-14,0.603201,0.0,-0.0,-0.797589,0.08,-1.0,1,0,0,0,0,0,0
109659039,0.0,-0.0,-1.84658,9.82086e-14,0.603201,0.0,-0.0,-0.797589,0.08,-1.0,1,0,0,0,0,0,0
109762045,0.0,-0.0,-1.84658,9.82086e-14,0.603201,0.0,-0.0,-0.797589,0.08,-1.0,1,0,0,0,0,0,0
109863372,0.0,-0.0,-1.84658,9.82086e-14,0.603201,0.0,-0.0,-0.797589,0.08,-1.0,1,0,0,0,0,0,0
109962222,0.0,-0.0,-1.84658,9.82086e-14,0.603201,0.0,-0.0,-0.797589,0.08,-1.0,1,0,0,0,0,0,0
110062636,0.0,-0.0,-1.84658,9.82086e-14,0.603201,0.0,-0.0,-0.797589,0.08,-1.0,1,0,0,0,0,0,0
110167402,0.0,-0.0,-1.84658,9.82086e-14,0.603201,0.0,-0.0,-0.797589,0.08,-1.0,1,0,0,0,0,0,0
110266027,0.0,-0.0,-1.84658,9.82086e-14,0.603201,0.0,-0.0,-0.797589,0.08,-1.0,1,0,0,0,0,0,0
110371048,0.0,-0.0,-1.84658,9.82086e-14,0.603201,0.0,-0.0,-0.797589,0.08,-1.0,1,0,0,0,0,0,0
110471689,0.0,-0.0,-1.84658,9.82086e-14,0.603201,0.0,-0.0,-0.797589,0.08,-1.0,1,0,0,0,0,0,0
110574987,0.0,-0.0,-1.84658,9.82086e-14,0.603201,0.0,-0.0,-0.797589,0.08,-1.0,1,0,0,0,0,0,0
110675149,0.0,-0.0,-1.84658,9.82086e-14,0.603201,0.0,-0.0,-0.797589,0.08,-1.0,1,0,0,0,0,0,0
110775150,0.0,-0.0,-1.84658,9.82086e-14,0.603201,0.0,-0.0,-0.797589,0.08,-1.0,1,0,0,0,0,0,0
110873912,0.0,-0.0,-1.84658,9.82086e-14,0.603201,0.0,-0.0,-0.797589,0.08,-1.0,1,0,0,0,0,0,0
110977157,0.0,-0.0,-1.84658,9.82086e-14,0.603201,0.0,-0.0,-0.797589,0.08,-1.0,1,0,0,0,0,0,0
111081768,0.0,-0.0,-1.84658,9.82086e-14,0.603201,0.0,-0.0,-0.797589,0.08,-1.0,1,0,0,0,0,0,0
111183014,0.0,-0.0,-1.84658,9.82086e-14,0.603201,0.0,-0.0,-0.797589,0.08,-1.0,1,0,0,0,0,0,0
111282413,0.0,-0.0,-1.84658,9.82086e-14,0.603201,0.0,-0.0,-0.797589,0.08,-1.0,1,0,0,0,0,0,0
111382105,0.0,-0.0,-1.84658,9.82086e-14,0.603201,0.0,-0.0,-0.797589,0.08,-1.0,1,0,0,0,0,0,0
111487048,0.0,-0.0,-1.84658,9.82086e-14,0.603201,0.0,-0.0,-0.797589,0.08,-1.0,1,0,0,0,0,0,0
111587375,0.0,-0.0,-1.84658,9.82086e-14,0.603201,0.0,-0.0,-0.797589,0.08,-1.0,1,0,0,0,0,0,0
111687067,0.0,-0.0,-1.84658,-4.45566e-22,0.603201,0.0,-0.0,-0.797589,0.368777,-1.0,1,0,0,0,0,0,0
111791390,0.0,-0.0,-1.84658,-6.10328e-24,0.603201,0.0,-0.0,-0.797589,0.428594,-1.0,1,0,0,0,0,0,0
111891817,0.0,-0.0,-1.84658,-4.46421e-26,0.603201,0.0,-0.0,-0.797589,0.427042,-1.0,1,0,0,0,0,0,0
111995395,0.0,-0.0,-1.84658,4.9231e-28,0.603201,0.0,-0.0,-0.797589,0.4951,-1.0,1,0,0,0,0,0,0
112094195,0.0,-0.0,-1.84972,-0.184533,0.601947,0.0,-0.0,-0.798536,0.891117,-1.0,1,0,0,0,0,0,0
112198133,0.0,-0.0,-1.88914,-0.0657823,0.586089,0.0,-0.0,-0.810246,1.0,-1.0,1,0,0,0,0,0,0
112298438,0.0,-0.0,-1.88918,-0.00408637,0.586074,0.0,-0.0,-0.810258,1.0,-1.0,1,0,0,0,0,0,0
112398186,0.0,-0.0,-1.88924,-2.82053e-05,0.586051,0.0,-0.0,-0.810274,1.0,-1.0,1,0,0,0,0,0,0
112498784,0.0,-0.0,-1.88924,3.31676e-06,0.58605,0.0,-0.0,-0.810275,1.0,-1.0,1,0,0,0,0,0,0
112603468,0.0,-0.0,-1.88924,5.2455e-08,0.58605,0.0,-0.0,-0.810275,1.0,-1.0,1,0,0,0,0,0,0
112703040,0.0,-0.0,-1.88924,-1.16437e-09,0.58605,0.0,-0.0,-0.810275,1.0,-1.0,1,0,0,0,0,0,0
112807377,0.0,-0.0,-1.88924,-3.38309e-11,0.58605,0.0,-0.0,-0.810275,1.0,-1.0,1,0,0,0,0,0,0
112907128,0.0,-0.0,-1.88924,-3.87948e-13,0.58605,0.0,-0.0,-0.810275,1.0,-1.0,1,0,0,0,0,0,0
113005320,0.0,-0.0,-1.88924,7.31605e-15,0.58605,0.0,-0.0,-0.810275,1.0,-1.0,1,0,0,0,0,0,0
113109048,0.0,-0.0,-1.88924,8.31359e-16,0.58605,0.0,-0.0,-0.810275,1.0,-1.0,1,0,0,0,0,0,0
113211441,0.0,-0.0,-1.88924,7.93631e-18,0.58605,0.0,-0.0,-0.810275,1.0,-1.0,1,0,0,0,0,0,0
113314051,0.0,-0.0,-1.88924,-1.44933e-20,0.58605,0.0,-0.0,-0.810275,1.0,-1.0,1,0,0,0,0,0,0
113414165,0.0,-0.0,-1.88924,-1.00216e-20,0.58605,0.0,-0.0,-0.810275,1.0,-1.0,1,0,0,0,0,0,0
113514464,0.0,-0.0,-1.88924,1.37772e-22,0.58605,0.0,-0.0,-0.810275,1.0,-1.0,1,0,0,0,0,0,0
113618021,0.0,-0.0,-1.88924,5.38506e-24,0.58605,0.0,-0.0,-0.810275,1.0,-1.0,1,0,0,0,0,0,0
113718469,0.0,-0.0,-1.88924,1.12906e-25,0.58605,0.0,-0.0,-0.810275,1.0,-1.0,1,0,0,0,0,0,0
113822416,0.0,-0.0,-1.88924,-4.56809e-28,0.58605,0.0,-0.0,-0.810275,1.0,-1.0,1,0,0,0,0,0,0
113923459,0.0,-0.0,-1.88924,-4.6721e-29,0.58605,0.0,-0.0,-0.810275,1.0,-1.0,1,0,0,0,0,0,0
114024855,0.0,-0.0,-1.88924,-1.8808e-30,0.58605,0.0,-0.0,-0.810275,1.0,-1.0,1,0,0,0,0,0,0
114126585,0.0,-0.0,-1.88924,-7.0245e-33,0.58605,0.0,-0.0,-0.810275,1.0,-1.0,1,0,0,0,0,0,0
114226408,0.0,-0.0,-1.88924,1.83445e-33,0.58605,0.0,-0.0,-0.810275,0.990833,-1.0,1,0,0,0,0,0,0
114326529,0.0,-0.0,-1.88822,0.0775058,0.586465,0.0,-0.0,-0.809974,0.761853,-1.0,1,0,0,0,0,0,0
114430411,0.0,-0.0,-1.87416,0.14083,0.592145,0.0,-0.0,-0.805831,0.592377,-1.0,1,0,0,0,0,0,0
114530029,0.0,-0.0,-1.86298,0.0924275,0.596639,0.0,-0.0,-0.80251,0.497756,-1.0,1,0,0,0,0,0,0
114634477,0.0,-0.0,-1.85747,0.00110508,0.598849,0.0,-0.0,-0.800862,0.49389,-1.0,1,0,0,0,0,0,0
114734028,0.0,-0.0,-1.85733,-0.000403452,0.598903,0.0,-0.0,-0.800822,0.493878,-1.0,1,0,0,0,0,0,0
114834159,0.0,-0.0,-1.85734,-2.89107e-06,0.598901,0.0,-0.0,-0.800823,0.49334,-1.0,1,0,0,0,0,0,0
114938422,0.0,-0.0,-1.85734,3.42425e-08,0.598901,0.0,-0.0,-0.800823,0.491988,-1.0,1,0,0,0,0,0,0
115038147,0.0,-0.0,-1.85734,5.14748e-09,0.598901,0.0,-0.0,-0.800823,0.448671,-1.0,1,0,0,0,0,0,0
115137437,0.0,-0.0,-1.85734,5.31442e-11,0.598901,0.0,-0.0,-0.800823,0.447154,-1.0,1,0,0,0,0,0,0
115241239,0.0,-0.0,-1.85734,2.37435e-14,0.598901,0.0,-0.0,-0.800823,0.413108,-1.0,1,0,0,0,0,0,0
115345611,0.0,-0.0,-1.85734,-6.08652e-14,0.598901,0.0,-0.0,-0.800823,0.405007,-1.0,1,0,0,0,0,0,0
115446038,0.0,-0.0,-1.85734,-7.83677e-16,0.598901,0.0,-0.0,-0.800823,0.20966,-1.0,1,0,0,0,0,0,0
115547210,0.0,-0.0,-1.85734,-4.21261e-16,0.598901,0.0,-0.0,-0.800823,0.08,-1.0,1,0,0,0,0,0,0
115646585,0.0,-0.0,-1.85734,-4.21261e-16,0.598901,0.0,-0.0,-0.800823,0.08,-1.0,1,0,0,0,0,0,0
115750031,0.0,-0.0,-1.85734,-4.21261e-16,0.598901,0.0,-0.0,-0.800823,0.08,-1.0,1,0,0,0,0,0,0
115850707,0.0,-0.0,-1.85734,-4.21261e-16,0.598901,0.0,-0.0,-0.800823,0.08,-1.0,1,0,0,0,0,0,0
115950104,0.0,-0.0,-1.85734,-4.21261e-16,0.598901,0.0,-0.0,-0.800823,0.08,-1.0,1,0,0,0,0,0,0
116055314,0.0,-0.0,-1.85734,-4.21261e-16,0.598901,0.0,-0.0,-0.800823,0.08,-1.0,1,0,0,0,0,0,0
116154861,0.0,-0.0,-1.85734,-4.21261e-16,0.598901,0.0,-0.0,-0.800823,0.08,-1.0,1,0,0,0,0,0,0
116258220,0.0,-0.0,-1.85734,-4.21261e-16,0.598901,0.0,-0.0,-0.800823,0.08,-1.0,1,0,0,0,0,0,0
116358462,0.0,-0.0,-1.85734,-4.21261e-16,0.598901,0.0,-0.0,-0.800823,0.08,-1.0,1,0,0,0,0,0,0
116458750,0.0,-0.0,-1.85734,-4.21261e-16,0.598901,0.0,-0.0,-0.800823,0.08,-1.0,1,0,0,0,0,0,0
116558074,0.0,-0.0,-1.85734,-4.21261e-16,0.598901,0.0,-0.0,-0.800823,0.08,-1.0,1,0,0,0,0,0,0
116662036,0.0,-0.0,-1.85734,-4.21261e-16,0.598901,0.0,-0.0,-0.800823,0.08,-1.0,1,0,0,0,0,0,0
116763051,0.0,-0.0,-1.85734,-4.21261e-16,0.598901,0.0,-0.0,-0.800823,0.08,-1.0,1,0,0,0,0,0,0
116866893,0.0,-0.0,-1.85734,-4.21261e-16,0.598901,0.0,-0.0,-0.800823,0.08,-1.0,1,0,0,0,0,0,0
116966381,0.0,-0.0,-1.85734,-4.21261e-16,0.598901,0.0,-0.0,-0.800823,0.08,-1.0,1,0,0,0,0,0,0
117071381,0.0,-0.0,-1.85734,-4.21261e-16,0.598901,0.0,-0.0,-0.800823,0.08,-1.0,1,0,0,0,0,0,0
117172470,0.0,-0.0,-1.85734,-4.21261e-16,0.598901,0.0,-0.0,-0.800823,0.08,-1.0,1,0,0,0,0,0,0
117271204,0.0,-0.0,-1.85734,-4.21261e-16,0.598901,0.0,-0.0,-0.800823,0.08,-1.0,1,0,0,0,0,0,0
117372761,0.0,-0.0,-1.85734,-4.21261e-16,0.598901,0.0,-0.0,-0.800823,0.08,-1.0,1,0,0,0,0,0,0
117474023,0.0,-0.0,-1.85734,-4.21261e-16,0.598901,0.0,-0.0,-0.800823,0.08,-1.0,1,0,0,0,0,0,0
117574715,0.0,-0.0,-1.85734,-4.21261e-16,0.598901,0.0,-0.0,-0.800823,0.08,-1.0,1,0,0,0,0,0,0
117678757,0.0,-0.0,-1.85734,-4.21261e-16,0.598901,0.0,-0.0,-0.800823,0.08,-1.0,1,0,0,0,0,0,0
117778040,0.0,-0.0,-1.85734,-1.77782e-08,0.598901,0.0,-0.0,-0.800823,0.28826,-1.0,1,0,0,0,0,0,0
117882452,0.0,-0.0,-1.85892,-0.10515,0.598266,0.0,-0.0,-0.801297,0.803407,-1.0,1,0,0,0,0,0,0
117982042,0.0,-0.0,-1.88137,-0.188459,0.589237,0.0,-0.0,-0.807961,0.962576,-1.0,1,0,0,0,0,0,0
118082094,0.0,-0.0,-1.88266,-0.00232576,0.588713,0.0,-0.0,-0.808342,0.988644,-1.0,1,0,0,0,0,0,0
118182467,0.0,-0.0,-1.88271,9.99959e-05,0.588691,0.0,-0.0,-0.808358,0.98919,-1.0,1,0,0,0,0,0,0
118286776,0.0,-0.0,-1.88272,2.11596e-06,0.588691,0.0,-0.0,-0.808358,0.988949,-1.0,1,0,0,0,0,0,0
118387063,0.0,-0.0,-1.88272,-7.48082e-09,0.588691,0.0,-0.0,-0.808358,0.989207,-1.0,1,0,0,0,0,0,0
118490023,0.0,-0.0,-1.88272,-8.61835e-10,0.588691,0.0,-0.0,-0.808358,0.988865,-1.0,1,0,0,0,0,0,0
118591979,0.0,-0.0,-1.88272,-2.2264e-11,0.588691,0.0,-0.0,-0.808358,0.988664,-1.0,1,0,0,0,0,0,0
118690014,0.0,-0.0,-1.88272,-1.43647e-13,0.588691,0.0,-0.0,-0.808358,0.988836,-1.0,1,0,0,0,0,0,0
118794020,0.0,-0.0,-1.88272,6.23658e-15,0.588691,0.0,-0.0,-0.808358,0.989202,-1.0,1,0,0,0,0,0,0
