timestamp,roll_body,pitch_body,yaw_body,yaw_sp_move_rate,q_d[0],q_d[1],q_d[2],q_d[3],thrust,landing_gear,q_d_valid,roll_reset_integral,pitch_reset_integral,yaw_reset_integral,fw_control_yaw,disable_mc_yaw_control,apply_flaps
107768317,1.37864e-07,-0.0,0.0124554,0.0,0.999981,6.89305e-08,4.29284e-10,0.00622766,0.0,-1.0,1,0,0,0,0,0,0
107867338,8.51101e-09,-0.0,0.0122473,0.0,0.999981,4.25543e-09,2.60591e-11,0.00612361,0.0,-1.0,1,0,0,0,0,0,0
107972430,0.0,-0.0,0.0123218,0.0,0.999981,0.0,0.0,0.00616086,0.0,-1.0,1,0,0,0,0,0,0
108075414,0.0,-0.0,0.0120425,0.0,0.999982,0.0,0.0,0.00602119,0.0,-1.0,1,0,0,0,0,0,0
108173057,0.0,-0.0,0.0118408,0.0,0.999982,0.0,0.0,0.00592036,0.0,-1.0,1,0,0,0,0,0,0
108277181,0.0,-0.0,0.0117176,0.0,0.999983,0.0,0.0,0.00585876,0.0,-1.0,1,0,0,0,0,0,0
108377233,0.0,-0.0,0.0112576,0.0,0.999984,0.0,0.0,0.00562878,0.0,-1.0,1,0,0,0,0,0,0
108477860,0.0,-0.0,0.0112314,0.0,0.999984,0.0,0.0,0.00561568,0.0,-1.0,1,0,0,0,0,0,0
108580422,0.0,-0.0,0.0112846,0.0,0.999984,0.0,0.0,0.00564227,0.0,-1.0,1,0,0,0,0,0,0
108684011,0.0,-0.0,0.0115928,0.0,0.999983,0.0,0.0,0.00579636,0.00570416,-1.0,1,0,0,0,0,0,0
108785427,0.0,-0.0,0.011327,1.26842e-08,0.999984,0.0,0.0,0.00566348,0.203508,-1.0,1,0,0,0,0,0,0
108885373,0.0,-0.0,0.011327,1.84406e-09,0.999984,0.0,0.0,0.00566347,0.347367,-1.0,1,0,0,0,0,0,0
108988720,0.0,-0.0,0.011327,8.04806e-11,0.999984,0.0,0.0,0.00566347,0.414673,-1.0,1,0,0,0,0,0,0
109089394,0.0,-0.0,0.011327,3.56794e-13,0.999984,0.0,0.0,0.00566347,0.462506,-1.0,1,0,0,0,0,0,0
109188693,0.0,-0.0,0.011327,-7.55925e-14,0.999984,0.0,0.0,0.00566347,0.467193,-1.0,1,0,0,0,0,0,0
109293363,0.0,-0.0,0.011327,-1.09188e-15,0.999984,0.0,0.0,0.00566347,0.481117,-1.0,1,0,0,0,0,0,0
109393366,0.0,-0.0,0.011327,-9.17239e-18,0.999984,0.0,0.0,0.00566347,0.569234,-1.0,1,0,0,0,0,0,0
109494110,0.0,-0.0,0.011327,8.01695e-19,0.999984,0.0,0.0,0.00566347,0.633727,-1.0,1,0,0,0,0,0,0
109597011,0.0,-0.0,0.011327,1.3532e-20,0.999984,0.0,0.0,0.00566347,0.711255,-1.0,1,0,0,0,0,0,0
109697601,0.0,-0.0,0.011327,-2.3735e-22,0.999984,0.0,0.0,0.00566347,0.777161,-1.0,1,0,0,0,0,0,0
109800993,0.0,-0.0,0.011327,-7.92489e-24,0.999984,0.0,0.0,0.00566347,0.830234,-1.0,1,0,0,0,0,0,0
109899212,0.0,-0.0,0.011327,-1.56197e-25,0.999984,0.0,0.0,0.00566347,0.858725,-1.0,1,0,0,0,0,0,0
110003051,0.0,-0.0,0.011327,1.18704e-27,0.999984,0.0,0.0,0.00566347,0.937889,-1.0,1,0,0,0,0,0,0
110104032,0.0,-0.0,0.011327,7.17034e-29,0.999984,0.0,0.0,0.00566347,1.0,-1.0,1,0,0,0,0,0,0
110205028,0.0,-0.0,0.0154297,0.0836903,0.99997,0.0,0.0,0.00771478,1.0,-1.0,1,0,0,0,0,0,0
110304366,0.0,-0.0,0.0248826,0.074627,0.999923,0.0,0.0,0.012441,1.0,-1.0,1,0,0,0,0,0,0
110408229,0.0,-0.0,0.0276547,0.00406027,0.999904,0.0,0.0,0.0138269,1.0,-1.0,1,0,0,0,0,0,0
110509847,0.0,-0.0,0.0276768,4.58945e-05,0.999904,0.0,0.0,0.013838,1.0,-1.0,1,0,0,0,0,0,0
110609049,0.0,-0.0,0.027678,-2.3721e-06,0.999904,0.0,0.0,0.0138385,1.0,-1.0,1,0,0,0,0,0,0
110713042,0.0,-0.0,0.027678,-4.68338e-08,0.999904,0.0,0.0,0.0138386,1.0,-1.0,1,0,0,0,0,0,0
110812429,0.0,-0.0,0.027678,3.5115e-10,0.999904,0.0,0.0,0.0138386,1.0,-1.0,1,0,0,0,0,0,0
110916218,0.0,-0.0,0.027678,2.14387e-11,0.999904,0.0,0.0,0.0138386,1.0,-1.0,1,0,0,0,0,0,0
111017013,0.0,-0.0,0.027678,5.06309e-13,0.999904,0.0,0.0,0.0138386,1.0,-1.0,1,0,0,0,0,0,0
111117012,0.0,-0.0,0.027678,1.11747e-15,0.999904,0.0,0.0,0.0138386,1.0,-1.0,1,0,0,0,0,0,0
111221054,-0.0572649,-0.0,0.027678,-1.69196e-16,0.999494,-0.0286258,-0.000396178,0.0138329,1.0,-1.0,1,0,0,0,0,0,0
111321010,-0.229069,-0.0,0.0276943,0.0014307,0.993353,-0.114273,-0.00158246,0.013756,1.0,-1.0,1,0,0,0,0,0,0
111422075,-0.346789,-0.0,0.0290985,0.0245481,0.984901,-0.172509,-0.00251004,0.0143306,1.0,-1.0,1,0,0,0,0,0,0
111525703,-0.334524,-0.0,0.0310499,0.0119002,0.985925,-0.166463,-0.00258454,0.0153077,1.0,-1.0,1,0,0,0,0,0,0
111625027,-0.308897,-0.0,0.0315389,-0.000243185,0.987974,-0.153816,-0.00242579,0.0155811,1.0,-1.0,1,0,0,0,0,0,0
111729028,-0.247931,-0.0,0.0315245,6.75525e-06,0.992203,-0.123633,-0.0019489,0.0156406,1.0,-1.0,1,0,0,0,0,0,0
111829142,-0.0409125,-0.0,0.0315244,6.3324e-07,0.999667,-0.0204523,-0.000322399,0.0157582,1.0,-1.0,1,0,0,0,0,0,0
111932200,-0.000666295,-0.0,0.0315244,5.61657e-09,0.999876,-0.000333106,-5.25092e-06,0.0157615,1.0,-1.0,1,0,0,0,0,0,0
112031679,1.33672e-05,-0.0,0.0315244,-4.49599e-10,0.999876,6.68276e-06,1.05344e-07,0.0157615,1.0,-1.0,1,0,0,0,0,0,0
112135644,0.0251545,-0.0,0.0315244,-7.76011e-12,0.999797,0.0125754,0.000198232,0.0157603,1.0,-1.0,1,0,0,0,0,0,0
112236060,0.256631,-0.0,0.0315244,1.2426e-13,0.991656,0.127948,0.00201691,0.015632,1.0,-1.0,1,0,0,0,0,0,0
112337682,0.596453,0.0179607,0.0370455,4.39371e-15,0.955705,0.293604,0.0140243,0.0150653,1.0,-1.0,1,0,0,0,0,0,0
112436038,0.606826,0.0750148,0.0550199,8.18827e-17,0.953598,0.297471,0.0439848,0.0150321,1.0,-1.0,1,0,0,0,0,0,0
112537029,0.607623,0.0672408,0.0526127,-7.41142e-18,0.953598,0.298043,0.039928,0.0150321,1.0,-1.0,1,0,0,0,0,0,0
112641050,0.574979,-0.00193135,0.0309533,-1.24044e-19,0.958839,0.283526,0.00346223,0.0151147,1.0,-1.0,1,0,0,0,0,0,0
112741370,0.467937,6.7434e-05,0.0315405,2.24877e-21,0.972633,0.231811,0.00368881,0.0153321,1.0,-1.0,1,0,0,0,0,0,0
112845778,0.279289,1.60955e-06,0.0315246,7.35753e-23,0.990143,0.139174,0.00219468,0.0156081,1.0,-1.0,1,0,0,0,0,0,0
112945041,0.0135931,2.5337e-09,0.0315244,1.17494e-24,0.999853,0.00679566,0.000107125,0.0157612,1.0,-1.0,1,0,0,0,0,0,0
113045646,0.000341389,-5.58496e-10,0.0315244,-1.1693e-26,0.999876,0.000170673,2.69013e-06,0.0157615,1.0,-1.0,1,0,0,0,0,0,0
113149420,1.76101e-06,-3.18232e-11,0.0315244,-1.97705e-27,0.999876,8.80397e-07,1.38622e-08,0.0157615,1.0,-1.0,1,0,0,0,0,0,0
113249821,-1.01254e-07,-2.02914e-13,0.0315244,-2.09403e-29,0.999876,-5.06206e-08,-7.98059e-10,0.0157615,1.0,-1.0,1,0,0,0,0,0,0
113352014,-3.37573e-09,3.41284e-15,0.0315244,-2.40943e-32,0.999876,-1.68766e-09,-2.66017e-11,0.0157615,1.0,-1.0,1,0,0,0,0,0,0
113453416,0.0,-0.0,0.0315244,2.32208e-32,0.999876,0.0,0.0,0.0157615,1.0,-1.0,1,0,0,0,0,0,0
113553835,0.0,-0.0,0.0315244,3.0443e-34,0.999876,0.0,0.0,0.0157615,1.0,-1.0,1,0,0,0,0,0,0
113656072,0.0,-0.0,0.0315244,-1.13978e-35,0.999876,0.0,0.0,0.0157615,1.0,-1.0,1,0,0,0,0,0,0
113757435,0.0,-0.0,0.0315244,-2.55432e-37,0.999876,0.0,0.0,0.0157615,1.0,-1.0,1,0,0,0,0,0,0
113860062,0.0,-0.0,0.0315244,1.16241e-40,0.999876,0.0,0.0,0.0157615,1.0,-1.0,1,0,0,0,0,0,0
113962216,0.0,-0.0,0.0315244,9.40187e-41,0.999876,0.0,0.0,0.0157615,1.0,-1.0,1,0,0,0,0,0,0
114059802,0.0,-0.0,0.0315244,4.71957e-42,0.999876,0.0,0.0,0.0157615,1.0,-1.0,1,0,0,0,0,0,0
114163206,0.0,-0.0,0.0315244,2.94273e-44,0.999876,0.0,0.0,0.0157615,1.0,-1.0,1,0,0,0,0,0,0
114264424,0.0,-0.0,0.0315244,-4.2039e-45,0.999876,0.0,0.0,0.0157615,1.0,-1.0,1,0,0,0,0,0,0
114368416,0.0,-0.0,0.0315244,0.0,0.999876,0.0,0.0,0.0157615,1.0,-1.0,1,0,0,0,0,0,0
114469066,0.0,-0.0,0.0315244,0.0,0.999876,0.0,0.0,0.0157615,1.0,-1.0,1,0,0,0,0,0,0
114569453,0.0,-0.0,0.0315244,0.0,0.999876,0.0,0.0,0.0157615,1.0,-1.0,1,0,0,0,0,0,0
114669057,0.0,-0.0,0.0315244,0.0,0.999876,0.0,0.0,0.0157615,1.0,-1.0,1,0,0,0,0,0,0
114773093,0.0,-0.0,0.0315244,0.0,0.999876,0.0,0.0,0.0157615,1.0,-1.0,1,0,0,0,0,0,0
114873681,0.0,-0.0,0.0315244,0.0,0.999876,0.0,0.0,0.0157615,1.0,-1.0,1,0,0,0,0,0,0
114974051,0.0,-0.0,0.0315244,0.0,0.999876,0.0,0.0,0.0157615,1.0,-1.0,1,0,0,0,0,0,0
115078682,0.0,-0.0,0.0315244,0.0,0.999876,0.0,0.0,0.0157615,1.0,-1.0,1,0,0,0,0,0,0
115180048,0.0,-0.0,0.0315244,0.0,0.999876,0.0,0.0,0.0157615,1.0,-1.0,1,0,0,0,0,0,0
115281376,0.0,-0.0,0.0315244,0.0,0.999876,0.0,0.0,0.0157615,1.0,-1.0,1,0,0,0,0,0,0
115585043,0.0,-0.0,0.0315244,0.0,0.999876,0.0,0.0,0.0157615,1.0,-1.0,1,0,0,0,0,0,0
115684436,0.0,-0.0,0.0315244,0.0,0.999876,0.0,0.0,0.0157615,1.0,-1.0,1,0,0,0,0,0,0
115723723,0.0,-0.0,0.0315244,0.0,0.999876,0.0,0.0,0.0157615,1.0,-1.0,1,0,0,0,0,0,0
115723723,0.0,-0.0,0.0315244,0.0,0.999876,0.0,0.0,0.0157615,1.0,-1.0,1,0,0,0,0,0,0
115723723,0.0,-0.0,0.0315244,0.0,0.999876,0.0,0.0,0.0157615,1.0,-1.0,1,0,0,0,0,0,0
115723723,0.0,-0.0,0.0315244,0.0,0.999876,0.0,0.0,0.0157615,1.0,-1.0,1,0,0,0,0,0,0
115723723,0.0,-0.0,0.0315244,0.0,0.999876,0.0,0.0,0.0157615,1.0,-1.0,1,0,0,0,0,0,0
115723723,0.0,-0.0,0.0315244,0.0,0.999876,0.0,0.0,0.0157615,1.0,-1.0,1,0,0,0,0,0,0
115723723,0.0,-0.0,0.0315244,0.0,0.999876,0.0,0.0,0.0157615,1.0,-1.0,1,0,0,0,0,0,0
115723723,0.0,-0.0,0.0315244,0.0,0.999876,0.0,0.0,0.0157615,1.0,-1.0,1,0,0,0,0,0,0
115723723,0.0,-0.0,0.0315244,0.0,0.999876,0.0,0.0,0.0157615,1.0,-1.0,1,0,0,0,0,0,0
115723723,0.0,-0.0,0.0315244,0.0,0.999876,0.0,0.0,0.0157615,1.0,-1.0,1,0,0,0,0,0,0
115723723,0.0,-0.0,0.0315244,0.0,0.999876,0.0,0.0,0.0157615,1.0,-1.0,1,0,0,0,0,0,0
115723723,0.0,-0.0,0.0315244,0.0,0.999876,0.0,0.0,0.0157615,1.0,-1.0,1,0,0,0,0,0,0
115723723,0.0,-0.0,0.0315244,0.0,0.999876,0.0,0.0,0.0157615,1.0,-1.0,1,0,0,0,0,0,0
115723723,0.0,-0.0,0.0315244,0.0,0.999876,0.0,0.0,0.0157615,1.0,-1.0,1,0,0,0,0,0,0
115723723,0.0,-0.0,0.0315244,0.0,0.999876,0.0,0.0,0.0157615,1.0,-1.0,1,0,0,0,0,0,0
115723723,0.0,-0.0,0.0315244,0.0,0.999876,0.0,0.0,0.0157615,1.0,-1.0,1,0,0,0,0,0,0
115723723,0.0,-0.0,0.0315244,0.0,0.999876,0.0,0.0,0.0157615,1.0,-1.0,1,0,0,0,0,0,0
115723723,0.0,-0.0,0.0315244,0.0,0.999876,0.0,0.0,0.0157615,1.0,-1.0,1,0,0,0,0,0,0
115723723,0.0,-0.0,0.0315244,0.0,0.999876,0.0,0.0,0.0157615,1.0,-1.0,1,0,0,0,0,0,0
115723723,0.0,-0.0,0.0315244,0.0,0.999876,0.0,0.0,0.0157615,1.0,-1.0,1,0,0,0,0,0,0
115723723,0.0,-0.0,0.0315244,0.0,0.999876,0.0,0.0,0.0157615,1.0,-1.0,1,0,0,0,0,0,0
115723723,0.0,-0.0,0.0315244,0.0,0.999876,0.0,0.0,0.0157615,1.0,-1.0,1,0,0,0,0,0,0
115723723,0.0,-0.0,0.0315244,0.0,0.999876,0.0,0.0,0.0157615,1.0,-1.0,1,0,0,0,0,0,0
115723723,0.0,-0.0,0.0315244,0.0,0.999876,0.0,0.0,0.0157615,1.0,-1.0,1,0,0,0,0,0,0
115723723,0.0,-0.0,0.0315244,0.0,0.999876,0.0,0.0,0.0157615,1.0,-1.0,1,0,0,0,0,0,0
115723723,0.0,-0.0,0.0315244,0.0,0.999876,0.0,0.0,0.0157615,1.0,-1.0,1,0,0,0,0,0,0
115723723,0.0,-0.0,0.0315244,0.0,0.999876,0.0,0.0,0.0157615,1.0,-1.0,1,0,0,0,0,0,0
115723723,0.0,-0.0,0.0315244,0.0,0.999876,0.0,0.0,0.0157615,1.0,-1.0,1,0,0,0,0,0,0
115723723,0.0,-0.0,0.0315244,0.0,0.999876,0.0,0.0,0.0157615,1.0,-1.0,1,0,0,0,0,0,0
115723723,0.0,-0.0,0.0315244,0.0,0.999876,0.0,0.0,0.0157615,1.0,-1.0,1,0,0,0,0,0,0
115723723,0.0,-0.0,0.0315244,0.0,0.999876,0.0,0.0,0.0157615,1.0,-1.0,1,0,0,0,0,0,0
115723723,0.0,-0.0,0.0315244,0.0,0.999876,0.0,0.0,0.0157615,1.0,-1.0,1,0,0,0,0,0,0
115723723,0.0,-0.0,0.0315244,0.0,0.999876,0.0,0.0,0.0157615,1.0,-1.0,1,0,0,0,0,0,0
115723723,0.0,-0.0,0.0315244,0.0,0.999876,0.0,0.0,0.0157615,1.0,-1.0,1,0,0,0,0,0,0
115723723,0.0,-0.0,0.0315244,0.0,0.999876,0.0,0.0,0.0157615,1.0,-1.0,1,0,0,0,0,0,0
115723723,0.0,-0.0,0.0315244,0.0,0.999876,0.0,0.0,0.0157615,1.0,-1.0,1,0,0,0,0,0,0
119441067,0.0,-0.0,-1.56,0.0,0.710914,0.0,-0.0,-0.703278,1.0,-1.0,1,0,0,0,0,0,0
119541443,0.0,-0.0,-1.56,0.0,0.710914,0.0,-0.0,-0.703278,1.0,-1.0,1,0,0,0,0,0,0
119645454,0.0,-0.0,-1.56,0.0,0.710914,0.0,-0.0,-0.703278,1.0,-1.0,1,0,0,0,0,0,0
119745029,0.0,-0.0,-1.56,0.0,0.710914,0.0,-0.0,-0.703278,1.0,-1.0,1,0,0,0,0,0,0
119845506,0.0,-0.0,-1.56,0.0,0.710914,0.0,-0.0,-0.703278,1.0,-1.0,1,0,0,0,0,0,0
119949431,0.0,-0.0,-1.56,0.0,0.710914,0.0,-0.0,-0.703278,1.0,-1.0,1,0,0,0,0,0,0
120049261,0.0,-0.0,-1.56,0.0,0.710914,0.0,-0.0,-0.703278,1.0,-1.0,1,0,0,0,0,0,0
120153261,0.0,-0.0,-1.56,0.0,0.710914,0.0,-0.0,-0.703278,1.0,-1.0,1,0,0,0,0,0,0
120254033,0.0,-0.0,-1.56,0.0,0.710914,0.0,-0.0,-0.703278,1.0,-1.0,1,0,0,0,0,0,0
120351225,0.0,-0.0,-1.56,0.0,0.710914,0.0,-0.0,-0.703278,1.0,-1.0,1,0,0,0,0,0,0
120455505,0.0,-0.0,-1.56,0.0,0.710914,0.0,-0.0,-0.703278,1.0,-1.0,1,0,0,0,0,0,0
120559514,0.0,-0.0,-1.56,0.0,0.710914,0.0,-0.0,-0.703278,1.0,-1.0,1,0,0,0,0,0,0
120661678,0.0,-0.0,-1.56,0.0,0.710914,0.0,-0.0,-0.703278,1.0,-1.0,1,0,0,0,0,0,0
120761159,0.0,-0.0,-1.56,0.0,0.710914,0.0,-0.0,-0.703278,1.0,-1.0,1,0,0,0,0,0,0
120861368,0.0,-0.0,-1.56,0.0,0.710914,0.0,-0.0,-0.703278,1.0,-1.0,1,0,0,0,0,0,0
120965468,0.0,-0.0,-1.56,0.0,0.710914,0.0,-0.0,-0.703278,1.0,-1.0,1,0,0,0,0,0,0
121065062,0.0,-0.0,-1.56,0.0,0.710914,0.0,-0.0,-0.703278,1.0,-1.0,1,0,0,0,0,0,0
121165579,0.0,-0.0,-1.56,0.0,0.710914,0.0,-0.0,-0.703278,1.0,-1.0,1,0,0,0,0,0,0
121269517,0.0,-0.0,-1.56,0.0,0.710914,0.0,-0.0,-0.703278,1.0,-1.0,1,0,0,0,0,0,0
121367651,0.0,-0.0,-1.56,0.0,0.710914,0.0,-0.0,-0.703278,1.0,-1.0,1,0,0,0,0,0,0
121469472,0.0,-0.0,-1.56,0.0,0.710914,0.0,-0.0,-0.703278,1.0,-1.0,1,0,0,0,0,0,0
121573681,0.0,-0.0,-1.56,0.0,0.710914,0.0,-0.0,-0.703278,1.0,-1.0,1,0,0,0,0,0,0
121673076,0.0,-0.0,-1.56,0.0,0.710914,0.0,-0.0,-0.703278,1.0,-1.0,1,0,0,0,0,0,0
121777031,0.0,-0.0,-1.56,0.0,0.710914,0.0,-0.0,-0.703278,1.0,-1.0,1,0,0,0,0,0,0
121878681,0.0,-0.0,-1.56,0.0,0.710914,0.0,-0.0,-0.703278,1.0,-1.0,1,0,0,0,0,0,0
121977070,0.0,-0.0,-1.56,0.0,0.710914,0.0,-0.0,-0.703278,1.0,-1.0,1,0,0,0,0,0,0
122081113,0.0,-0.0,-1.52395,0.897132,0.723475,0.0,-0.0,-0.69035,0.979376,-1.0,1,0,0,0,0,0,0
122181964,0.0,-0.0,-1.33978,2.24972,0.783888,0.0,-0.0,-0.620902,0.95976,-1.0,1,0,0,0,0,0,0
122285868,0.0,-0.0,-1.11193,2.08231,0.849393,0.0,-0.0,-0.527761,0.96004,-1.0,1,0,0,0,0,0,0
122385637,0.0,0.0124412,-0.976655,0.526556,0.883102,0.00291838,0.0054935,-0.469141,0.960176,-1.0,1,0,0,0,0,0,0
122485214,0.0,-0.00120387,-0.965536,-0.0162816,0.885713,-0.000279438,-0.000533142,-0.464233,0.95986,-1.0,1,0,0,0,0,0,0
122589243,0.104065,-1.51689e-05,-0.965508,-0.000316041,0.884521,0.0460618,-0.0241503,-0.463592,0.959915,-1.0,1,0,0,0,0,0,0
122687627,0.44751,-0.0279578,-0.971872,2.69014e-06,0.863559,0.189821,-0.115674,-0.452606,0.960424,-1.0,1,0,0,0,0,0,0
122791748,0.610865,0.000402014,-0.965383,1.48753e-07,0.844726,0.266439,-0.139407,-0.442735,0.96058,-1.0,1,0,0,0,0,0,0
122894055,0.610865,1.89472e-05,-0.965504,4.54439e-09,0.844726,0.266346,-0.139585,-0.442735,0.96007,-1.0,1,0,0,0,0,0,0
122993410,0.495788,9.7732e-08,-0.96551,3.97928e-12,0.858644,0.217323,-0.113903,-0.45003,0.959726,-1.0,1,0,0,0,0,0,0
123097392,0.199403,-1.81916e-08,-0.96551,-5.1039e-12,0.881321,0.0881615,-0.046207,-0.461916,0.959518,-1.0,1,0,0,0,0,0,0
123197095,0.00345249,-2.70099e-10,-0.96551,-6.64362e-14,0.885718,0.00152897,-0.000801358,-0.46422,0.960391,-1.0,1,0,0,0,0,0,0
123297462,0.000511547,7.43749e-12,-0.96551,2.52986e-15,0.885719,0.000226544,-0.000118735,-0.464221,0.960397,-1.0,1,0,0,0,0,0,0
123401430,5.26342e-06,1.92563e-13,-0.96551,5.62847e-17,0.885719,2.33096e-06,-1.22169e-06,-0.464221,0.959778,-1.0,1,0,0,0,0,0,0
123501045,-3.25666e-07,1.26183e-15,-0.96551,-4.70585e-20,0.885719,-1.44225e-07,7.55906e-08,-0.464221,0.960571,-1.0,1,0,0,0,0,0,0
123601640,-6.05397e-09,-5.36936e-17,-0.96551,-2.09901e-20,0.885719,-2.68106e-09,1.40519e-09,-0.464221,0.960553,-1.0,1,0,0,0,0,0,0
123705407,0.0,-0.0,-0.96551,-5.81149e-22,0.885719,0.0,-0.0,-0.464221,0.959783,-1.0,1,0,0,0,0,0,0
123805026,0.0,-0.0,-0.96551,-5.50919e-24,0.885719,0.0,-0.0,-0.464221,0.959858,-1.0,1,0,0,0,0,0,0
123909037,0.0,-0.0,-0.96551,1.40384e-25,0.885719,0.0,-0.0,-0.464221,0.960062,-1.0,1,0,0,0,0,0,0
124009397,0.0,-0.0,-0.96551,1.36918e-26,0.885719,0.0,-0.0,-0.464221,0.960574,-1.0,1,0,0,0,0,0,0
124109070,0.0,-0.0,-0.96551,1.23497e-28,0.885719,0.0,-0.0,-0.464221,0.96007,-1.0,1,0,0,0,0,0,0
124213038,0.0,-0.0,-0.96551,-9.61484e-30,0.885719,0.0,-0.0,-0.464221,0.960547,-1.0,1,0,0,0,0,0,0
124313409,0.0,-0.0,-0.96551,-1.67179e-31,0.885719,0.0,-0.0,-0.464221,0.960036,-1.0,1,0,0,0,0,0,0
124413049,0.0,-0.0,-0.96551,2.59399e-33,0.885719,0.0,-0.0,-0.464221,0.960059,-1.0,1,0,0,0,0,0,0
124517061,0.0,-0.0,-0.96551,9.35984e-35,0.885719,0.0,-0.0,-0.464221,0.960059,-1.0,1,0,0,0,0,0,0
124617945,0.0,-0.0,-0.96551,1.80638e-36,0.885719,0.0,-0.0,-0.464221,0.960059,-1.0,1,0,0,0,0,0,0
124715196,0.0,-0.0,-0.96551,-1.0906e-38,0.885719,0.0,-0.0,-0.464221,0.960542,-1.0,1,0,0,0,0,0,0
124819546,0.0,-0.0,-0.96551,-8.29047e-40,0.885719,0.0,-0.0,-0.464221,0.960551,-1.0,1,0,0,0,0,0,0
124923369,0.0,-0.0,-0.96551,-3.01027e-41,0.885719,0.0,-0.0,-0.464221,0.960038,-1.0,1,0,0,0,0,0,0
125025753,0.0,-0.0,-0.96551,-8.26766e-44,0.885719,0.0,-0.0,-0.464221,0.960059,-1.0,1,0,0,0,0,0,0
125125039,0.0,-0.0,-0.96551,2.94273e-44,0.885719,0.0,-0.0,-0.464221,0.960059,-1.0,1,0,0,0,0,0,0
125225686,0.0980696,0.780558,0.0,0.0,0.923691,0.0453293,0.379989,-0.0186476,0.12,1.0,1,0,0,0,0,0,0
125329759,0.0890685,0.78141,0.0,0.0,0.923724,0.0411646,0.380463,-0.0169548,0.137711,1.0,1,0,0,0,0,0,0
125429193,0.0795471,0.782221,0.0,0.0,0.923755,0.0367604,0.380914,-0.0151583,0.161543,1.0,1,0,0,0,0,0,0
125533181,0.0716233,0.782824,0.0,0.0,0.923779,0.0330962,0.38125,-0.013659,0.168357,1.0,1,0,0,0,0,0,0
125633912,0.0669197,0.783152,0.0,0.0,0.923791,0.0309215,0.381432,-0.0127674,0.16949,1.0,1,0,0,0,0,0,0
125733503,0.0631219,0.783401,0.0,0.0,0.923801,0.0291657,0.38157,-0.0120467,0.169664,1.0,1,0,0,0,0,0,0
125837546,0.0603989,0.78357,0.0,0.0,0.923808,0.027907,0.381665,-0.0115296,0.169683,1.0,1,0,0,0,0,0,0
125937169,0.0561378,0.783819,0.0,0.0,0.923817,0.0259373,0.381803,-0.0107196,0.169682,1.0,1,0,0,0,0,0,0
126033162,0.0512477,0.784083,0.0,0.0,0.923828,0.0236772,0.38195,-0.00978919,0.169677,1.0,1,0,0,0,0,0,0
126141162,0.0473969,0.784273,0.0,0.0,0.923835,0.0218976,0.382056,-0.00905584,0.169667,1.0,1,0,0,0,0,0,0
126241573,0.0444059,0.784411,0.0,0.0,0.923841,0.0205154,0.382133,-0.00848588,0.16966,1.0,1,0,0,0,0,0,0
126341320,0.0395323,0.784616,0.0,0.0,0.923849,0.0182633,0.382247,-0.00755654,0.169653,1.0,1,0,0,0,0,0,0
126445166,0.0345803,0.7848,0.0,0.0,0.923856,0.0159752,0.38235,-0.00661154,0.169652,1.0,1,0,0,0,0,0,0
126545983,0.0294473,0.784964,0.0,0.0,0.923862,0.0136036,0.382442,-0.00563134,0.169651,1.0,1,0,0,0,0,0,0
126650011,0.0244798,0.785098,0.0,0.0,0.923868,0.0113086,0.382516,-0.0046822,0.169645,1.0,1,0,0,0,0,0,0
126749317,0.0190011,0.785218,0.0,0.0,0.923872,0.00877756,0.382583,-0.00363486,0.169644,1.0,1,0,0,0,0,0,0
126847810,0.0136547,0.785305,0.0,0.0,0.923876,0.00630774,0.382631,-0.00261241,0.169645,1.0,1,0,0,0,0,0,0
126951664,0.00786783,0.785367,0.0,0.0,0.923878,0.00363448,0.382666,-0.00150538,0.169645,1.0,1,0,0,0,0,0,0
127055768,-0.000126171,0.785398,0.0,0.0,0.92388,-5.82835e-05,0.382683,2.41418e-05,0.169641,1.0,1,0,0,0,0,0,0
127157798,-0.00710421,0.785373,0.0,0.0,0.923879,-0.00328173,0.382669,0.00135929,0.169639,1.0,1,0,0,0,0,0,0
127257204,-0.0143646,0.785295,0.0,0.0,0.923875,-0.00663566,0.382626,0.00274818,0.169635,1.0,1,0,0,0,0,0,0
127357598,-0.0252702,0.785079,0.0,0.0,0.923867,-0.0116738,0.382505,0.00483324,0.169621,1.0,1,0,0,0,0,0,0
127461535,-0.0408429,0.784563,0.0,0.0,0.923847,-0.0188689,0.382218,0.00780653,0.169597,1.0,1,0,0,0,0,0,0
127561226,-0.0536049,0.726752,0.0,0.0,0.934366,-0.0250493,0.355304,0.00952531,0.160608,1.0,1,0,0,0,0,0,0
127661643,-0.0365559,0.304456,0.0,0.0,0.988271,-0.0180656,0.151615,0.00277153,0.233127,1.0,1,0,0,0,0,0,0
127765505,-0.0246674,0.100429,0.0,0.0,0.998664,-0.0123178,0.0501895,0.000619053,0.328743,1.0,1,0,0,0,0,0,0
127865223,-0.0199927,0.0164395,0.0,0.0,0.999916,-0.00999583,0.00821923,8.21649e-05,0.399863,1.0,1,0,0,0,0,0,0
127969167,-0.0208048,-0.0234689,0.0,0.0,0.999877,-0.0104015,-0.0117335,-0.000122061,0.43784,1.0,1,0,0,0,0,0,0
128069833,-0.0198245,-0.0512274,0.0,0.0,0.999623,-0.00990882,-0.0256097,-0.000253857,0.4563,1.0,1,0,0,0,0,0,0
128169245,-0.0198218,-0.0743294,0.0,0.0,0.99926,-0.00990392,-0.0371543,-0.000368246,0.468659,1.0,1,0,0,0,0,0,0
128273206,-0.0188556,-0.0959323,0.0,0.0,0.998805,-0.00941679,-0.0479456,-0.000452034,0.477723,1.0,1,0,0,0,0,0,0
128373893,-0.017353,-0.115921,0.0,0.0,0.998283,-0.00866183,-0.0579258,-0.000502606,0.48442,1.0,1,0,0,0,0,0,0
128473451,-0.0161183,-0.131923,0.0,0.0,0.997793,-0.00804154,-0.0659116,-0.000531204,0.489822,1.0,1,0,0,0,0,0,0
128577142,-0.0148595,-0.144355,0.0,0.0,0.997369,-0.00741035,-0.072113,-0.000535792,0.493611,1.0,1,0,0,0,0,0,0
128678379,-0.0135429,-0.156674,0.0,0.0,0.99691,-0.00675064,-0.0782551,-0.000529909,0.497262,1.0,1,0,0,0,0,0,0
128776402,-0.0122279,-0.159973,0.0,0.0,0.996784,-0.00609437,-0.0798998,-0.00048851,0.49881,1.0,1,0,0,0,0,0,0
128879552,-0.0103479,-0.163788,0.0,0.0,0.996635,-0.00515657,-0.0818014,-0.000423239,0.500724,1.0,1,0,0,0,0,0,0
128983574,-0.00894849,-0.166646,0.0,0.0,0.996521,-0.0044587,-0.0832256,-0.000372374,0.501705,1.0,1,0,0,0,0,0,0
129085762,-0.00813887,-0.168584,0.0,0.0,0.996441,-0.00405498,-0.0841915,-0.000342614,0.502955,1.0,1,0,0,0,0,0,0
129185183,-0.00667892,-0.166492,0.0,0.0,0.996531,-0.00332789,-0.0831496,-0.000277676,0.503194,1.0,1,0,0,0,0,0,0
129285495,-0.00514503,-0.164548,0.0,0.0,0.996614,-0.00256381,-0.0821808,-0.000211412,0.503655,1.0,1,0,0,0,0,0,0
129389786,-0.0037444,-0.160103,0.0,0.0,0.996796,-0.0018662,-0.0799659,-0.000149712,0.503446,1.0,1,0,0,0,0,0,0
129793148,0.000304176,-0.130606,0.0,0.0,0.997868,0.000151764,-0.0652567,9.92475e-06,0.501031,1.0,1,0,0,0,0,0,0
130301544,0.000685563,-0.0806662,0.0,0.0,0.999187,0.000342503,-0.0403222,1.38217e-05,0.496765,1.0,1,0,0,0,0,0,0
130405757,0.00163572,-0.0708702,0.0,0.0,0.999372,0.000817345,-0.0354277,2.89748e-05,0.495941,1.0,1,0,0,0,0,0,0
130505239,0.000794455,-0.0583171,0.0,0.0,0.999575,0.000397058,-0.0291544,1.15809e-05,0.494886,1.0,1,0,0,0,0,0,0
130606027,0.00031992,-0.049114,0.0,0.0,0.999698,0.000159912,-0.0245545,3.92774e-06,0.49451,1.0,1,0,0,0,0,0,0
130710276,0.000403489,-0.03803,0.0,0.0,0.999819,0.000201708,-0.0190138,3.83593e-06,0.493859,1.0,1,0,0,0,0,0,0
130811150,0.000767501,-0.0288009,0.0,0.0,0.999896,0.000383711,-0.0144,5.52599e-06,0.493489,1.0,1,0,0,0,0,0,0
130907397,0.000233311,-0.0169204,0.0,0.0,0.999964,0.000116651,-0.00846011,9.86919e-07,0.492908,1.0,1,0,0,0,0,0,0
131013203,0.00102756,-0.00784088,0.0,0.0,0.999992,0.000513776,-0.00392043,2.01424e-06,0.492421,1.0,1,0,0,0,0,0,0
131115499,-0.000164509,0.000879657,0.0,0.0,1.0,-8.22543e-05,0.000439828,3.61778e-08,0.491643,1.0,1,0,0,0,0,0,0
131217519,0.000259471,0.00977777,0.0,0.0,0.999988,0.000129734,0.00488887,-6.34259e-07,0.491734,1.0,1,0,0,0,0,0,0
131317156,-3.98457e-05,0.0179718,0.0,0.0,0.99996,-1.99221e-05,0.0089858,1.79023e-07,0.49188,1.0,1,0,0,0,0,0,0
131417170,-0.00145773,0.0262596,0.0,0.0,0.999914,-0.000728804,0.0131294,9.56959e-06,0.491208,1.0,1,0,0,0,0,0,0
131517494,-0.00194387,0.0329381,0.0,0.0,0.999864,-0.000971803,0.0164683,1.60061e-05,0.491503,1.0,1,0,0,0,0,0,0
131621931,-0.00156794,0.0380154,0.0,0.0,0.999819,-0.00078383,0.0190065,1.49006e-05,0.491772,1.0,1,0,0,0,0,0,0
131721161,-0.00253526,0.0433202,0.0,0.0,0.999765,-0.00126733,0.0216584,2.74549e-05,0.491921,1.0,1,0,0,0,0,0,0
131825192,-0.00244534,0.0488963,0.0,0.0,0.9997,-0.00122231,0.0244457,2.98891e-05,0.491792,1.0,1,0,0,0,0,0,0
131925754,-0.00392546,0.0522797,0.0,0.0,0.999656,-0.00196206,0.0261368,5.12995e-05,0.492142,1.0,1,0,0,0,0,0,0
132025164,-0.00369863,0.0558812,0.0,0.0,0.999608,-0.00184859,0.0279369,5.16642e-05,0.492197,1.0,1,0,0,0,0,0,0
132129207,-0.00368311,0.0591919,0.0,0.0,0.99956,-0.00184075,0.0295916,5.44946e-05,0.49227,1.0,1,0,0,0,0,0,0
132229784,-0.00468136,0.0614263,0.0,0.0,0.999526,-0.00233957,0.0307082,7.18783e-05,0.49197,1.0,1,0,0,0,0,0,0
132333791,-0.00454284,0.0619371,0.0,0.0,0.999518,-0.00227033,0.0309635,7.03313e-05,0.492034,1.0,1,0,0,0,0,0,0
132434180,-0.00509474,0.0632676,0.0,0.0,0.999496,-0.00254609,0.0316284,8.05695e-05,0.491248,1.0,1,0,0,0,0,0,0
132534259,-0.00562332,0.0632745,0.0,0.0,0.999496,-0.00281025,0.0316318,8.89382e-05,0.491878,1.0,1,0,0,0,0,0,0
132635400,-0.00643877,0.0605596,0.0,0.0,0.999536,-0.0032179,0.030275,9.74673e-05,0.491611,1.0,1,0,0,0,0,0,0
132737244,-0.00609527,0.0599593,0.0,0.0,0.999546,-0.00304626,0.029975,9.13532e-05,0.491621,1.0,1,0,0,0,0,0,0
132841175,-0.00709556,0.0584653,0.0,0.0,0.999566,-0.00354626,0.0292283,0.000103696,0.491467,1.0,1,0,0,0,0,0,0
132941314,-0.00688781,0.0568828,0.0,0.0,0.99959,-0.00344251,0.0284374,9.79362e-05,0.491186,1.0,1,0,0,0,0,0,0
133039885,-0.00649514,0.0543403,0.0,0.0,0.999626,-0.00324637,0.0271666,8.82259e-05,0.491371,1.0,1,0,0,0,0,0,0
133143986,-0.00669049,0.0521404,0.0,0.0,0.999655,-0.0033441,0.0260671,8.72011e-05,0.491126,1.0,1,0,0,0,0,0,0
133245199,-0.00595628,0.0481672,0.0,0.0,0.999706,-0.00297727,0.0240812,7.17172e-05,0.490926,1.0,1,0,0,0,0,0,0
133345509,-0.0058737,0.0464426,0.0,0.0,0.999726,-0.00293605,0.0232191,6.81912e-05,0.490873,1.0,1,0,0,0,0,0,0
133449504,-0.00592112,0.0427566,0.0,0.0,0.999767,-0.00295988,0.0213766,6.32868e-05,0.491036,1.0,1,0,0,0,0,0,0
133549510,-0.0042774,0.0399113,0.0,0.0,0.999799,-0.00213827,0.0199543,4.26763e-05,0.491035,1.0,1,0,0,0,0,0,0
133653781,-0.00450526,0.0358197,0.0,0.0,0.999837,-0.00225227,0.0179089,4.03421e-05,0.491077,1.0,1,0,0,0,0,0,0
133753150,-0.00497275,0.0312774,0.0,0.0,0.999875,-0.00248607,0.015638,3.8882e-05,0.490941,1.0,1,0,0,0,0,0,0
133853538,-0.00346979,0.0277895,0.0,0.0,0.999902,-0.00173473,0.0138943,2.41051e-05,0.490625,1.0,1,0,0,0,0,0,0
133957823,-0.00282905,0.0233646,0.0,0.0,0.999931,-0.00141443,0.011682,1.65245e-05,0.490581,1.0,1,0,0,0,0,0,0
134046137,-0.002788,0.0200027,0.0,0.0,0.999949,-0.00139393,0.0100012,1.39416e-05,0.490254,1.0,1,0,0,0,0,0,0
134046137,-0.002788,0.0200027,0.0,0.0,0.999949,-0.00139393,0.0100012,1.39416e-05,0.490254,1.0,1,0,0,0,0,0,0
134046137,-0.002788,0.0200027,0.0,0.0,0.999949,-0.00139393,0.0100012,1.39416e-05,0.490254,1.0,1,0,0,0,0,0,0
134046137,-0.002788,0.0200027,0.0,0.0,0.999949,-0.00139393,0.0100012,1.39416e-05,0.490254,1.0,1,0,0,0,0,0,0
134046137,-0.002788,0.0200027,0.0,0.0,0.999949,-0.00139393,0.0100012,1.39416e-05,0.490254,1.0,1,0,0,0,0,0,0
134046137,-0.002788,0.0200027,0.0,0.0,0.999949,-0.00139393,0.0100012,1.39416e-05,0.490254,1.0,1,0,0,0,0,0,0
134046137,-0.002788,0.0200027,0.0,0.0,0.999949,-0.00139393,0.0100012,1.39416e-05,0.490254,1.0,1,0,0,0,0,0,0
134046137,-0.002788,0.0200027,0.0,0.0,0.999949,-0.00139393,0.0100012,1.39416e-05,0.490254,1.0,1,0,0,0,0,0,0
134046137,-0.002788,0.0200027,0.0,0.0,0.999949,-0.00139393,0.0100012,1.39416e-05,0.490254,1.0,1,0,0,0,0,0,0
134046137,-0.002788,0.0200027,0.0,0.0,0.999949,-0.00139393,0.0100012,1.39416e-05,0.490254,1.0,1,0,0,0,0,0,0
134046137,-0.002788,0.0200027,0.0,0.0,0.999949,-0.00139393,0.0100012,1.39416e-05,0.490254,1.0,1,0,0,0,0,0,0
134046137,-0.002788,0.0200027,0.0,0.0,0.999949,-0.00139393,0.0100012,1.39416e-05,0.490254,1.0,1,0,0,0,0,0,0
134046137,-0.002788,0.0200027,0.0,0.0,0.999949,-0.00139393,0.0100012,1.39416e-05,0.490254,1.0,1,0,0,0,0,0,0
134046137,-0.002788,0.0200027,0.0,0.0,0.999949,-0.00139393,0.0100012,1.39416e-05,0.490254,1.0,1,0,0,0,0,0,0
134046137,-0.002788,0.0200027,0.0,0.0,0.999949,-0.00139393,0.0100012,1.39416e-05,0.490254,1.0,1,0,0,0,0,0,0
134046137,-0.002788,0.0200027,0.0,0.0,0.999949,-0.00139393,0.0100012,1.39416e-05,0.490254,1.0,1,0,0,0,0,0,0
134046137,-0.002788,0.0200027,0.0,0.0,0.999949,-0.00139393,0.0100012,1.39416e-05,0.490254,1.0,1,0,0,0,0,0,0
134046137,-0.002788,0.0200027,0.0,0.0,0.999949,-0.00139393,0.0100012,1.39416e-05,0.490254,1.0,1,0,0,0,0,0,0
134046137,-0.002788,0.0200027,0.0,0.0,0.999949,-0.00139393,0.0100012,1.39416e-05,0.490254,1.0,1,0,0,0,0,0,0
134046137,-0.002788,0.0200027,0.0,0.0,0.999949,-0.00139393,0.0100012,1.39416e-05,0.490254,1.0,1,0,0,0,0,0,0
134046137,-0.002788,0.0200027,0.0,0.0,0.999949,-0.00139393,0.0100012,1.39416e-05,0.490254,1.0,1,0,0,0,0,0,0
134046137,-0.002788,0.0200027,0.0,0.0,0.999949,-0.00139393,0.0100012,1.39416e-05,0.490254,1.0,1,0,0,0,0,0,0
134046137,-0.002788,0.0200027,0.0,0.0,0.999949,-0.00139393,0.0100012,1.39416e-05,0.490254,1.0,1,0,0,0,0,0,0
134046137,-0.002788,0.0200027,0.0,0.0,0.999949,-0.00139393,0.0100012,1.39416e-05,0.490254,1.0,1,0,0,0,0,0,0
134046137,-0.002788,0.0200027,0.0,0.0,0.999949,-0.00139393,0.0100012,1.39416e-05,0.490254,1.0,1,0,0,0,0,0,0
134046137,-0.002788,0.0200027,0.0,0.0,0.999949,-0.00139393,0.0100012,1.39416e-05,0.490254,1.0,1,0,0,0,0,0,0
134046137,-0.002788,0.0200027,0.0,0.0,0.999949,-0.00139393,0.0100012,1.39416e-05,0.490254,1.0,1,0,0,0,0,0,0
134046137,-0.002788,0.0200027,0.0,0.0,0.999949,-0.00139393,0.0100012,1.39416e-05,0.490254,1.0,1,0,0,0,0,0,0
134046137,-0.002788,0.0200027,0.0,0.0,0.999949,-0.00139393,0.0100012,1.39416e-05,0.490254,1.0,1,0,0,0,0,0,0
134046137,-0.002788,0.0200027,0.0,0.0,0.999949,-0.00139393,0.0100012,1.39416e-05,0.490254,1.0,1,0,0,0,0,0,0
134046137,-0.002788,0.0200027,0.0,0.0,0.999949,-0.00139393,0.0100012,1.39416e-05,0.490254,1.0,1,0,0,0,0,0,0
137206497,0.0423219,0.00665105,0.0,0.0,0.999771,0.0211593,0.00332477,-7.03659e-05,0.293004,1.0,1,0,0,0,0,0,0
137310720,0.0,-0.0,0.0,0.0,1.0,0.0,-0.0,0.0,1.0,1.0,1,0,0,0,0,0,0
137407713,0.0,-0.0,0.0,0.0,1.0,0.0,-0.0,0.0,1.0,1.0,1,0,0,0,0,0,0
137512156,0.0,-0.0,0.0,0.0,1.0,0.0,-0.0,0.0,1.0,1.0,1,0,0,0,0,0,0
137613820,0.0,-0.0,0.0,0.0,1.0,0.0,-0.0,0.0,1.0,1.0,1,0,0,0,0,0,0
137713170,0.0,-0.0,0.0,0.0,1.0,0.0,-0.0,0.0,1.0,1.0,1,0,0,0,0,0,0
137817294,0.0,-0.0,0.0,0.0,1.0,0.0,-0.0,0.0,1.0,1.0,1,0,0,0,0,0,0
137917826,0.0,-0.0,0.0,0.0,1.0,0.0,-0.0,0.0,1.0,1.0,1,0,0,0,0,0,0
138021182,0.0,-0.0,0.0,0.0,1.0,0.0,-0.0,0.0,1.0,1.0,1,0,0,0,0,0,0
138121181,0.0,-0.0,0.0,0.0,1.0,0.0,-0.0,0.0,1.0,1.0,1,0,0,0,0,0,0
138221192,0.0,-0.0,0.0,0.0,1.0,0.0,-0.0,0.0,1.0,1.0,1,0,0,0,0,0,0
138325309,0.0,-0.0,0.0,0.0,1.0,0.0,-0.0,0.0,1.0,1.0,1,0,0,0,0,0,0
138425986,0.0,-0.0,0.0,0.0,1.0,0.0,-0.0,0.0,1.0,1.0,1,0,0,0,0,0,0
138525380,0.0,-0.0,0.0,0.0,1.0,0.0,-0.0,0.0,1.0,1.0,1,0,0,0,0,0,0
138629178,0.0,-0.0,0.0,0.0,1.0,0.0,-0.0,0.0,1.0,1.0,1,0,0,0,0,0,0
138729773,0.0,-0.0,0.0,0.0,1.0,0.0,-0.0,0.0,1.0,1.0,1,0,0,0,0,0,0
138829154,0.0,-0.0,0.0,0.0,1.0,0.0,-0.0,0.0,1.0,1.0,1,0,0,0,0,0,0
138934202,0.0,-0.0,0.0,0.0,1.0,0.0,-0.0,0.0,1.0,1.0,1,0,0,0,0,0,0
139033592,0.0,-0.0,0.0,0.0,1.0,0.0,-0.0,0.0,1.0,1.0,1,0,0,0,0,0,0
139137533,0.0,-0.0,0.0,0.0,1.0,0.0,-0.0,0.0,1.0,1.0,1,0,0,0,0,0,0
139237350,-0.301327,0.0793781,0.0,0.0,0.987893,-0.149976,0.0392291,0.00595554,0.62662,1.0,1,0,0,0,0,0,0
139338237,-0.312604,0.075496,0.0,0.0,0.987106,-0.155555,0.037279,0.00587469,0.600071,1.0,1,0,0,0,0,0,0
139442172,-0.297256,0.064975,0.0,0.0,0.988453,-0.148003,0.0321237,0.00480995,0.569612,1.0,1,0,0,0,0,0,0
139541199,-0.268489,0.0509701,0.0,0.0,0.990681,-0.133798,0.025253,0.0034106,0.545596,1.0,1,0,0,0,0,0,0
139643983,-0.236253,0.0382906,0.0,0.0,0.992849,-0.11783,0.0190107,0.00225617,0.52883,1.0,1,0,0,0,0,0,0
139745237,-0.208658,0.0288111,0.0,0.0,0.994459,-0.104129,0.0143267,0.00150014,0.518754,1.0,1,0,0,0,0,0,0
139846583,-0.179577,0.0181374,0.0,0.0,0.995931,-0.089664,0.00903202,0.000813156,0.510922,1.0,1,0,0,0,0,0,0
139949193,-0.146948,0.0088455,0.0,0.0,0.997292,-0.0734071,0.0044108,0.000324663,0.504597,1.0,1,0,0,0,0,0,0
140049501,-0.120022,0.00159863,0.0,0.0,0.9982,-0.0599751,0.000797876,4.7939e-05,0.499757,1.0,1,0,0,0,0,0,0
140149514,-0.0946195,-0.00536777,0.0,0.0,0.998877,-0.047292,-0.00268088,-0.000126927,0.496083,1.0,1,0,0,0,0,0,0
140253506,-0.0679703,-0.0105642,0.0,0.0,0.999409,-0.0339781,-0.00527902,-0.000179477,0.493102,1.0,1,0,0,0,0,0,0
140353236,-0.0450311,-0.0146596,0.0,0.0,0.99972,-0.0225131,-0.00732787,-0.000165019,0.490959,1.0,1,0,0,0,0,0,0
140457156,-0.0221314,-0.0181873,0.0,0.0,0.999897,-0.011065,-0.00909299,-0.000100624,0.489917,1.0,1,0,0,0,0,0,0
140557571,-0.00316455,-0.0211566,0.0,0.0,0.999943,-0.00158219,-0.0105781,-1.67375e-05,0.488882,1.0,1,0,0,0,0,0,0
140657170,0.013773,-0.0232092,0.0,0.0,0.999909,0.00688599,-0.0116041,7.99129e-05,0.488318,1.0,1,0,0,0,0,0,0
140761164,0.0307811,-0.0249023,0.0,0.0,0.999804,0.0153887,-0.0124494,0.000191617,0.487852,1.0,1,0,0,0,0,0,0
140861656,0.0452303,-0.0259189,0.0,0.0,0.99966,0.0226113,-0.0129558,0.000293046,0.488212,1.0,1,0,0,0,0,0,0
140961177,0.0550784,-0.0256603,0.0,0.0,0.999539,0.0275335,-0.0128249,0.000353277,0.488461,1.0,1,0,0,0,0,0,0
141065196,0.0649642,-0.0255741,0.0,0.0,0.999391,0.0324737,-0.0127799,0.000415265,0.48842,1.0,1,0,0,0,0,0,0
141165582,0.0736368,-0.0253852,0.0,0.0,0.999242,0.0368071,-0.0126836,0.000467202,0.48859,1.0,1,0,0,0,0,0,0
141265169,0.0794421,-0.0241677,0.0,0.0,0.999138,0.0397077,-0.012074,0.000479845,0.489168,1.0,1,0,0,0,0,0,0
141368772,0.0839544,-0.0226456,0.0,0.0,0.999055,0.0419622,-0.0113126,0.000475149,0.489406,1.0,1,0,0,0,0,0,0
141470199,0.0904839,-0.0223567,0.0,0.0,0.998914,0.0452237,-0.0111667,0.000505548,0.489478,1.0,1,0,0,0,0,0,0
141574188,0.0923071,-0.0210427,0.0,0.0,0.99888,0.0461346,-0.01051,0.000485417,0.489366,1.0,1,0,0,0,0,0,0
141671547,0.0901442,-0.0193841,0.0,0.0,0.998937,0.0450547,-0.00968204,0.000436686,0.489277,1.0,1,0,0,0,0,0,0
141776014,0.0898939,-0.0173914,0.0,0.0,0.998952,0.0449301,-0.0086868,0.000390709,0.489408,1.0,1,0,0,0,0,0,0
141877559,0.0889944,-0.0157923,0.0,0.0,0.998979,0.0444811,-0.00788823,0.000351236,0.489516,1.0,1,0,0,0,0,0,0
141977212,0.0866561,-0.0139261,0.0,0.0,0.999037,0.0433134,-0.00695646,0.000301599,0.489597,1.0,1,0,0,0,0,0,0
142078600,0.0843356,-0.0121244,0.0,0.0,0.999093,0.0421545,-0.00605679,0.000255553,0.489349,1.0,1,0,0,0,0,0,0
142181548,0.0798833,-0.00910528,0.0,0.0,0.999192,0.0399306,-0.00454899,0.000181791,0.489418,1.0,1,0,0,0,0,0,0
142281197,0.0749638,-0.00759454,0.0,0.0,0.99929,0.0374729,-0.00379459,0.000142295,0.489141,1.0,1,0,0,0,0,0,0
142325860,0.0738327,-0.00597843,0.0,0.0,0.999314,0.0369078,-0.00298718,0.000110326,0.489148,1.0,1,0,0,0,0,0,0
142325860,0.0738327,-0.00597843,0.0,0.0,0.999314,0.0369078,-0.00298718,0.000110326,0.489148,1.0,1,0,0,0,0,0,0
142325860,0.0738327,-0.00597843,0.0,0.0,0.999314,0.0369078,-0.00298718,0.000110326,0.489148,1.0,1,0,0,0,0,0,0
142325860,0.0738327,-0.00597843,0.0,0.0,0.999314,0.0369078,-0.00298718,0.000110326,0.489148,1.0,1,0,0,0,0,0,0
142325860,0.0738327,-0.00597843,0.0,0.0,0.999314,0.0369078,-0.00298718,0.000110326,0.489148,1.0,1,0,0,0,0,0,0
142325860,0.0738327,-0.00597843,0.0,0.0,0.999314,0.0369078,-0.00298718,0.000110326,0.489148,1.0,1,0,0,0,0,0,0
142325860,0.0738327,-0.00597843,0.0,0.0,0.999314,0.0369078,-0.00298718,0.000110326,0.489148,1.0,1,0,0,0,0,0,0
142325860,0.0738327,-0.00597843,0.0,0.0,0.999314,0.0369078,-0.00298718,0.000110326,0.489148,1.0,1,0,0,0,0,0,0
142325860,0.0738327,-0.00597843,0.0,0.0,0.999314,0.0369078,-0.00298718,0.000110326,0.489148,1.0,1,0,0,0,0,0,0
142325860,0.0738327,-0.00597843,0.0,0.0,0.999314,0.0369078,-0.00298718,0.000110326,0.489148,1.0,1,0,0,0,0,0,0
142325860,0.0738327,-0.00597843,0.0,0.0,0.999314,0.0369078,-0.00298718,0.000110326,0.489148,1.0,1,0,0,0,0,0,0
142325860,0.0738327,-0.00597843,0.0,0.0,0.999314,0.0369078,-0.00298718,0.000110326,0.489148,1.0,1,0,0,0,0,0,0
142325860,0.0738327,-0.00597843,0.0,0.0,0.999314,0.0369078,-0.00298718,0.000110326,0.489148,1.0,1,0,0,0,0,0,0
142325860,0.0738327,-0.00597843,0.0,0.0,0.999314,0.0369078,-0.00298718,0.000110326,0.489148,1.0,1,0,0,0,0,0,0
142325860,0.0738327,-0.00597843,0.0,0.0,0.999314,0.0369078,-0.00298718,0.000110326,0.489148,1.0,1,0,0,0,0,0,0
142325860,0.0738327,-0.00597843,0.0,0.0,0.999314,0.0369078,-0.00298718,0.000110326,0.489148,1.0,1,0,0,0,0,0,0
142325860,0.0738327,-0.00597843,0.0,0.0,0.999314,0.0369078,-0.00298718,0.000110326,0.489148,1.0,1,0,0,0,0,0,0
142325860,0.0738327,-0.00597843,0.0,0.0,0.999314,0.0369078,-0.00298718,0.000110326,0.489148,1.0,1,0,0,0,0,0,0
142325860,0.0738327,-0.00597843,0.0,0.0,0.999314,0.0369078,-0.00298718,0.000110326,0.489148,1.0,1,0,0,0,0,0,0
142325860,0.0738327,-0.00597843,0.0,0.0,0.999314,0.0369078,-0.00298718,0.000110326,0.489148,1.0,1,0,0,0,0,0,0
142325860,0.0738327,-0.00597843,0.0,0.0,0.999314,0.0369078,-0.00298718,0.000110326,0.489148,1.0,1,0,0,0,0,0,0
142325860,0.0738327,-0.00597843,0.0,0.0,0.999314,0.0369078,-0.00298718,0.000110326,0.489148,1.0,1,0,0,0,0,0,0
142325860,0.0738327,-0.00597843,0.0,0.0,0.999314,0.0369078,-0.00298718,0.000110326,0.489148,1.0,1,0,0,0,0,0,0
142325860,0.0738327,-0.00597843,0.0,0.0,0.999314,0.0369078,-0.00298718,0.000110326,0.489148,1.0,1,0,0,0,0,0,0
142325860,0.0738327,-0.00597843,0.0,0.0,0.999314,0.0369078,-0.00298718,0.000110326,0.489148,1.0,1,0,0,0,0,0,0
142325860,0.0738327,-0.00597843,0.0,0.0,0.999314,0.0369078,-0.00298718,0.000110326,0.489148,1.0,1,0,0,0,0,0,0
142325860,0.0738327,-0.00597843,0.0,0.0,0.999314,0.0369078,-0.00298718,0.000110326,0.489148,1.0,1,0,0,0,0,0,0
145125229,0.0,-0.0,0.0,0.0,1.0,0.0,-0.0,0.0,1.0,1.0,1,0,0,0,0,0,0
145225829,0.0,-0.0,0.0,0.0,1.0,0.0,-0.0,0.0,1.0,1.0,1,0,0,0,0,0,0
145329152,0.0,-0.0,0.0,0.0,1.0,0.0,-0.0,0.0,1.0,1.0,1,0,0,0,0,0,0
145429853,0.0,-0.0,0.0,0.0,1.0,0.0,-0.0,0.0,1.0,1.0,1,0,0,0,0,0,0
145529286,0.0,-0.0,0.0,0.0,1.0,0.0,-0.0,0.0,1.0,1.0,1,0,0,0,0,0,0
145633330,0.0,-0.0,0.0,0.0,1.0,0.0,-0.0,0.0,1.0,1.0,1,0,0,0,0,0,0
145734127,0.0,-0.0,0.0,0.0,1.0,0.0,-0.0,0.0,1.0,1.0,1,0,0,0,0,0,0
145833150,0.0,-0.0,0.0,0.0,1.0,0.0,-0.0,0.0,1.0,1.0,1,0,0,0,0,0,0
145935511,0.0,-0.0,0.0,0.0,1.0,0.0,-0.0,0.0,1.0,1.0,1,0,0,0,0,0,0
146039558,0.0,-0.0,0.0,0.0,1.0,0.0,-0.0,0.0,1.0,1.0,1,0,0,0,0,0,0
146141180,0.0,-0.0,0.0,0.0,1.0,0.0,-0.0,0.0,1.0,1.0,1,0,0,0,0,0,0
146241513,0.0,-0.0,0.0,0.0,1.0,0.0,-0.0,0.0,1.0,1.0,1,0,0,0,0,0,0
146341137,0.0,-0.0,0.0,0.0,1.0,0.0,-0.0,0.0,1.0,1.0,1,0,0,0,0,0,0
146445148,0.0,-0.0,0.0,0.0,1.0,0.0,-0.0,0.0,1.0,1.0,1,0,0,0,0,0,0
146545800,0.0,-0.0,0.0,0.0,1.0,0.0,-0.0,0.0,1.0,1.0,1,0,0,0,0,0,0
146645432,0.0,-0.0,0.0,0.0,1.0,0.0,-0.0,0.0,1.0,1.0,1,0,0,0,0,0,0
146749153,0.0,-0.0,0.0,0.0,1.0,0.0,-0.0,0.0,1.0,1.0,1,0,0,0,0,0,0
146849542,0.42966,0.07574,0.0,0.0,0.976312,0.213029,0.0369906,-0.00807125,1.0,1.0,1,0,0,0,0,0,0
146953766,0.605662,0.114324,0.0,0.0,0.952937,0.297737,0.0545313,-0.0170378,1.0,1.0,1,0,0,0,0,0,0
147053202,0.731235,0.149718,0.0,0.0,0.931288,0.356525,0.069846,-0.0267391,1.0,1.0,1,0,0,0,0,0,0
147153582,0.771744,0.163765,0.0,0.0,0.923367,0.375106,0.075777,-0.0307834,0.938031,1.0,1,0,0,0,0,0,0
147257819,0.771528,0.165027,0.0,0.0,0.923359,0.374987,0.076363,-0.0310119,0.866814,1.0,1,0,0,0,0,0,0
147357157,0.771207,0.166891,0.0,0.0,0.923348,0.37481,0.0772284,-0.0313489,0.806245,1.0,1,0,0,0,0,0,0
147457490,0.737247,0.157312,0.0,0.0,0.92994,0.359218,0.0732966,-0.028313,0.746422,1.0,1,0,0,0,0,0,0
147561505,0.665114,0.137728,0.0,0.0,0.94297,0.325687,0.0650395,-0.0224636,0.687351,1.0,1,0,0,0,0,0,0
147661230,0.579335,0.116145,0.0,0.0,0.956723,0.285152,0.055622,-0.0165782,0.641163,1.0,1,0,0,0,0,0,0
147765173,0.48529,0.0945665,0.0,0.0,0.969621,0.240002,0.045881,-0.0113566,0.60532,1.0,1,0,0,0,0,0,0
147866667,0.404523,0.0788297,0.0,0.0,0.978854,0.200729,0.0386014,-0.00791582,0.581591,1.0,1,0,0,0,0,0,0
147963692,0.297324,0.0577987,0.0,0.0,0.988557,0.148053,0.0285766,-0.00427983,0.554792,1.0,1,0,0,0,0,0,0
148067728,0.203748,0.0406243,0.0,0.0,0.99461,0.101677,0.0202054,-0.00206556,0.536912,1.0,1,0,0,0,0,0,0
148169579,0.12089,0.026671,0.0,0.0,0.998085,0.0604028,0.0133107,-0.000805549,0.525775,1.0,1,0,0,0,0,0,0
148269197,0.0360533,0.0112398,0.0,0.0,0.999822,0.0180254,0.00561894,-0.000101302,0.517798,1.0,1,0,0,0,0,0,0
148373133,0.0,-0.0,-0.0134489,-2.19531e-31,0.999977,0.0,-0.0,-0.00672439,1.0,1.0,1,0,0,0,0,0,0
148473384,0.0,-0.0,-0.0134489,-1.88709e-33,0.999977,0.0,-0.0,-0.00672439,1.0,1.0,1,0,0,0,0,0,0
148573044,0.0,-0.0,-0.0134489,1.5897e-34,0.999977,0.0,-0.0,-0.00672439,1.0,1.0,1,0,0,0,0,0,0
148677061,0.0,-0.0,-0.0134489,2.70803e-36,0.999977,0.0,-0.0,-0.00672439,1.0,1.0,1,0,0,0,0,0,0
148777416,0.0,-0.0,-0.0134489,-4.57868e-38,0.999977,0.0,-0.0,-0.00672439,1.0,1.0,1,0,0,0,0,0,0
148881662,0.0,-0.0,-0.0134489,-1.56413e-39,0.999977,0.0,-0.0,-0.00672439,1.0,1.0,1,0,0,0,0,0,0
148981028,0.0,-0.0,-0.0134489,-2.73379e-41,0.999977,0.0,-0.0,-0.00672439,1.0,1.0,1,0,0,0,0,0,0
149081596,0.0,-0.0,-0.0134489,2.62183e-42,0.999977,0.0,-0.0,-0.00672439,1.0,1.0,1,0,0,0,0,0,0
149185039,0.0,-0.0,-0.0134489,3.92364e-44,0.999977,0.0,-0.0,-0.00672439,1.0,1.0,1,0,0,0,0,0,0
149285702,0.0,-0.0,-0.0134489,0.0,0.999977,0.0,-0.0,-0.00672439,1.0,1.0,1,0,0,0,0,0,0
149385062,0.0,-0.0,-0.0134489,0.0,0.999977,0.0,-0.0,-0.00672439,1.0,1.0,1,0,0,0,0,0,0
149489676,0.0,-0.0,-0.0134489,0.0,0.999977,0.0,-0.0,-0.00672439,1.0,1.0,1,0,0,0,0,0,0
149589034,0.0,-0.0,-0.0134489,0.0,0.999977,0.0,-0.0,-0.00672439,1.0,1.0,1,0,0,0,0,0,0
149693145,0.0,-0.0,-0.0134489,0.0,0.999977,0.0,-0.0,-0.00672439,1.0,1.0,1,0,0,0,0,0,0
149794030,0.0,-0.0,-0.0134489,0.0,0.999977,0.0,-0.0,-0.00672439,1.0,1.0,1,0,0,0,0,0,0
149893471,0.0,-0.0,-0.0135923,-0.0115372,0.999977,0.0,-0.0,-0.00679612,1.0,1.0,1,0,0,0,0,0,0
149998026,0.0,-0.0,-0.0524214,-0.783125,0.999656,0.0,-0.0,-0.0262077,1.0,1.0,1,0,0,0,0,0,0
150095709,0.0,-0.0,-0.171657,-1.50161,0.996319,0.0,-0.0,-0.0857231,1.0,1.0,1,0,0,0,0,0,0
150199648,0.0,-0.0,-0.342516,-1.80846,0.985371,0.0,-0.0,-0.170422,1.0,1.0,1,0,0,0,0,0,0
150301375,0.0,-0.0,-0.534296,-2.00638,0.964528,0.0,-0.0,-0.263982,1.0,1.0,1,0,0,0,0,0,0
150401108,0.0,-0.0,-0.740752,-2.10951,0.932191,0.0,-0.0,-0.361966,1.0,1.0,1,0,0,0,0,0,0
150501379,0.0,-0.0,-0.940543,-1.61767,0.891445,0.0,-0.0,-0.453128,1.0,1.0,1,0,0,0,0,0,0
150605424,0.0,-0.0,-1.04819,-0.457399,0.865777,0.0,-0.0,-0.50043,1.0,1.0,1,0,0,0,0,0,0
150705235,0.0,-0.0,-1.03938,0.375335,0.867974,0.0,-0.0,-0.49661,1.0,1.0,1,0,0,0,0,0,0
150809048,0.0,-0.0,-0.97062,0.95179,0.88453,0.0,-0.0,-0.466482,1.0,1.0,1,0,0,0,0,0,0
150909642,0.0,-0.0,-0.847015,1.51832,0.911653,0.0,-0.0,-0.410961,1.0,1.0,1,0,0,0,0,0,0
151009042,0.0,-0.0,-0.666051,2.0571,0.945058,0.0,-0.0,-0.326904,1.0,1.0,1,0,0,0,0,0,0
151113111,0.0,-0.0,-0.439604,2.34434,0.975941,0.0,-0.0,-0.218036,1.0,1.0,1,0,0,0,0,0,0
151213651,0.0298379,-0.0,-0.189788,2.56618,0.99539,0.0148513,-0.00141354,-0.0947411,1.0,1.0,1,0,0,0,0,0,0
151317393,0.0870971,-0.0,0.0793448,2.548,0.998266,0.0435005,0.00172668,0.0396244,1.0,1.0,1,0,0,0,0,0,0
151417029,0.122336,-0.0,0.177825,1.24175,0.994187,0.0608883,0.00542804,0.0886294,1.0,1.0,1,0,0,0,0,0,0
151517819,0.107515,-0.0,0.226043,-0.0379097,0.992185,0.053389,0.00605993,0.112618,1.0,1.0,1,0,0,0,0,0,0
151621059,-0.00526764,-0.0,0.221256,-0.0985807,0.993883,-0.00261772,-0.00029078,0.110402,1.0,1.0,1,0,0,0,0,0,0
151721103,-2.76799e-06,-0.0,0.202127,-0.237065,0.994897,-1.37693e-06,-1.39633e-07,0.100891,1.0,1.0,1,0,0,0,0,0,0
151825064,6.01152e-06,-0.0,0.169989,-0.427814,0.99639,2.99491e-06,2.55166e-07,0.0848922,1.0,1.0,1,0,0,0,0,0,0
151925899,0.0362747,-0.0,0.106178,-0.732629,0.998427,0.0181108,0.000962388,0.0530552,1.0,1.0,1,0,0,0,0,0,0
152025221,0.0789763,-0.0,0.0325587,-0.677907,0.999088,0.0394726,0.000642646,0.0162659,1.0,1.0,1,0,0,0,0,0,0
152129798,0.0410815,-0.0430978,-0.00640949,-0.110087,0.999553,0.0204654,-0.0216084,-0.00276075,1.0,1.0,1,0,0,0,0,0,0
152227867,0.000244043,0.00271245,-0.005162,-0.00173463,0.999996,0.000125521,0.00135591,-0.00258116,1.0,1.0,1,0,0,0,0,0,0
152331940,-2.3334e-05,-2.6134e-05,-0.00520007,3.89778e-05,0.999997,-1.1701e-05,-1.30366e-05,-0.00260003,1.0,1.0,1,0,0,0,0,0,0
152433369,-3.85555e-07,-1.31547e-06,-0.00520048,1.12478e-06,0.999997,-1.94487e-07,-6.57232e-07,-0.00260024,1.0,1.0,1,0,0,0,0,0,0
152533048,7.33757e-09,-3.74487e-08,-0.00520047,1.25876e-08,0.999997,3.62009e-09,-1.87338e-08,-0.00260023,1.0,1.0,1,0,0,0,0,0,0
152637054,2.33118e-10,-3.12686e-13,-0.00520047,-2.47193e-10,0.999997,1.16558e-10,-4.59423e-13,-0.00260023,1.0,1.0,1,0,0,0,0,0,0
152737042,0.0,-0.0,-0.00520047,-2.74818e-11,0.999997,0.0,-0.0,-0.00260023,1.0,1.0,1,0,0,0,0,0,0
152837829,-0.783593,0.0600195,0.0,0.0,0.923808,-0.381677,0.0277316,0.0114575,0.129795,1.0,1,0,0,0,0,0,0
152941533,-0.783573,0.0603364,0.0,0.0,0.923808,-0.381667,0.0278781,0.0115177,0.158671,1.0,1,0,0,0,0,0,0
153041233,-0.783681,0.0585422,0.0,0.0,0.923812,-0.381726,0.0270487,0.0111767,0.168141,1.0,1,0,0,0,0,0,0
153141575,-0.783608,0.0597618,0.0,0.0,0.923809,-0.381686,0.0276125,0.0114085,0.169584,1.0,1,0,0,0,0,0,0
153245804,-0.783606,0.0597917,0.0,0.0,0.923809,-0.381685,0.0276263,0.0114142,0.169693,1.0,1,0,0,0,0,0,0
153345176,-0.783629,0.0594224,0.0,0.0,0.92381,-0.381697,0.0274556,0.011344,0.169695,1.0,1,0,0,0,0,0,0
153449200,-0.783644,0.0591585,0.0,0.0,0.92381,-0.381706,0.0273336,0.0112939,0.169695,1.0,1,0,0,0,0,0,0
153549531,-0.783694,0.0583073,0.0,0.0,0.923813,-0.381734,0.0269401,0.0111321,0.169695,1.0,1,0,0,0,0,0,0
153649155,-0.783722,0.0578299,0.0,0.0,0.923814,-0.38175,0.0267195,0.0110413,0.169695,1.0,1,0,0,0,0,0,0
153753179,-0.783666,0.0587877,0.0,0.0,0.923811,-0.381718,0.0271622,0.0112234,0.169697,1.0,1,0,0,0,0,0,0
153853535,-0.783632,0.0593574,0.0,0.0,0.92381,-0.381699,0.0274255,0.0113317,0.169696,1.0,1,0,0,0,0,0,0
153953544,-0.783578,0.060261,0.0,0.0,0.923808,-0.381669,0.0278432,0.0115034,0.169697,1.0,1,0,0,0,0,0,0
154057169,-0.783596,0.0599582,0.0,0.0,0.923809,-0.381679,0.0277033,0.0114458,0.169696,1.0,1,0,0,0,0,0,0
154157362,-0.783555,0.0606395,0.0,0.0,0.923807,-0.381656,0.0280182,0.0115753,0.169698,1.0,1,0,0,0,0,0,0
154261266,-0.783497,0.0615919,0.0,0.0,0.923805,-0.381624,0.0284585,0.0117562,0.169699,1.0,1,0,0,0,0,0,0
154360909,-0.783522,0.0611783,0.0,0.0,0.923806,-0.381638,0.0282672,0.0116776,0.169697,1.0,1,0,0,0,0,0,0
154463672,-0.783687,0.0584393,0.0,0.0,0.923812,-0.38173,0.0270012,0.0111572,0.169692,1.0,1,0,0,0,0,0,0
154565805,-0.783576,0.060292,0.0,0.0,0.923808,-0.381668,0.0278575,0.0115092,0.169696,1.0,1,0,0,0,0,0,0
154665502,-0.783521,0.0612044,0.0,0.0,0.923806,-0.381637,0.0282793,0.0116826,0.169697,1.0,1,0,0,0,0,0,0
154765386,-0.783641,0.0592164,0.0,0.0,0.92381,-0.381704,0.0273603,0.0113049,0.169693,1.0,1,0,0,0,0,0,0
154869179,-0.70635,0.0514703,0.0,0.0,0.937969,-0.345764,0.0241441,0.00890025,0.157544,1.0,1,0,0,0,0,0,0
154969557,-0.57986,0.0410369,0.0,0.0,0.958062,-0.285825,0.0196607,0.0058655,0.141969,1.0,1,0,0,0,0,0,0
155069372,-0.43944,0.0257531,0.0,0.0,0.975878,-0.217938,0.0125666,0.00280645,0.130169,1.0,1,0,0,0,0,0,0
155117197,-0.313863,0.0183513,0.0,0.0,0.98767,-0.156282,0.00906276,0.00143402,0.145324,1.0,1,0,0,0,0,0,0
155117197,-0.313863,0.0183513,0.0,0.0,0.98767,-0.156282,0.00906276,0.00143402,0.145324,1.0,1,0,0,0,0,0,0
155117197,-0.313863,0.0183513,0.0,0.0,0.98767,-0.156282,0.00906276,0.00143402,0.145324,1.0,1,0,0,0,0,0,0
155117197,-0.313863,0.0183513,0.0,0.0,0.98767,-0.156282,0.00906276,0.00143402,0.145324,1.0,1,0,0,0,0,0,0
155117197,-0.313863,0.0183513,0.0,0.0,0.98767,-0.156282,0.00906276,0.00143402,0.145324,1.0,1,0,0,0,0,0,0
155117197,-0.313863,0.0183513,0.0,0.0,0.98767,-0.156282,0.00906276,0.00143402,0.145324,1.0,1,0,0,0,0,0,0
155117197,-0.313863,0.0183513,0.0,0.0,0.98767,-0.156282,0.00906276,0.00143402,0.145324,1.0,1,0,0,0,0,0,0
155117197,-0.313863,0.0183513,0.0,0.0,0.98767,-0.156282,0.00906276,0.00143402,0.145324,1.0,1,0,0,0,0,0,0
155117197,-0.313863,0.0183513,0.0,0.0,0.98767,-0.156282,0.00906276,0.00143402,0.145324,1.0,1,0,0,0,0,0,0
155117197,-0.313863,0.0183513,0.0,0.0,0.98767,-0.156282,0.00906276,0.00143402,0.145324,1.0,1,0,0,0,0,0,0
155117197,-0.313863,0.0183513,0.0,0.0,0.98767,-0.156282,0.00906276,0.00143402,0.145324,1.0,1,0,0,0,0,0,0
155117197,-0.313863,0.0183513,0.0,0.0,0.98767,-0.156282,0.00906276,0.00143402,0.145324,1.0,1,0,0,0,0,0,0
155117197,-0.313863,0.0183513,0.0,0.0,0.98767,-0.156282,0.00906276,0.00143402,0.145324,1.0,1,0,0,0,0,0,0
155117197,-0.313863,0.0183513,0.0,0.0,0.98767,-0.156282,0.00906276,0.00143402,0.145324,1.0,1,0,0,0,0,0,0
156593870,0.0,-0.0,0.0,0.0,1.0,0.0,-0.0,0.0,1.0,1.0,1,0,0,0,0,0,0
156697568,0.0,-0.0,0.0,0.0,1.0,0.0,-0.0,0.0,1.0,1.0,1,0,0,0,0,0,0
156797346,0.0,-0.0,0.0,0.0,1.0,0.0,-0.0,0.0,1.0,1.0,1,0,0,0,0,0,0
156897560,0.0,-0.0,0.0,0.0,1.0,0.0,-0.0,0.0,1.0,1.0,1,0,0,0,0,0,0
157001563,0.0,-0.0,0.0,0.0,1.0,0.0,-0.0,0.0,1.0,1.0,1,0,0,0,0,0,0
157101152,0.0,-0.0,0.0,0.0,1.0,0.0,-0.0,0.0,1.0,1.0,1,0,0,0,0,0,0
157201172,0.0,-0.0,0.0,0.0,1.0,0.0,-0.0,0.0,1.0,1.0,1,0,0,0,0,0,0
157305148,0.0,-0.0,0.0,0.0,1.0,0.0,-0.0,0.0,1.0,1.0,1,0,0,0,0,0,0
157405826,0.0,-0.0,0.0,0.0,1.0,0.0,-0.0,0.0,1.0,1.0,1,0,0,0,0,0,0
157509547,0.0,-0.0,0.0,0.0,1.0,0.0,-0.0,0.0,1.0,1.0,1,0,0,0,0,0,0
157609165,0.0,-0.0,0.0,0.0,1.0,0.0,-0.0,0.0,1.0,1.0,1,0,0,0,0,0,0
157709863,0.0,-0.0,0.0,0.0,1.0,0.0,-0.0,0.0,1.0,1.0,1,0,0,0,0,0,0
157813196,0.0,-0.0,0.0,0.0,1.0,0.0,-0.0,0.0,1.0,1.0,1,0,0,0,0,0,0
157913567,0.0,-0.0,0.0,0.0,1.0,0.0,-0.0,0.0,1.0,1.0,1,0,0,0,0,0,0
158013151,0.0,-0.0,0.0,0.0,1.0,0.0,-0.0,0.0,1.0,1.0,1,0,0,0,0,0,0
158117191,0.491497,-0.103337,0.0,0.0,0.968661,0.242958,-0.0500938,0.0125644,0.958408,1.0,1,0,0,0,0,0,0
158217984,0.528118,-0.11398,0.0,0.0,0.963771,0.260577,-0.0549848,0.0148664,0.913924,1.0,1,0,0,0,0,0,0
158322016,0.550701,-0.122271,0.0,0.0,0.960532,0.271376,-0.0587956,0.0166114,0.808471,1.0,1,0,0,0,0,0,0
158421288,0.5624,-0.126859,0.0,0.0,0.958791,0.276951,-0.0608975,0.0175905,0.728453,1.0,1,0,0,0,0,0,0
158519738,0.0,-0.0,0.0267524,0.0,0.999911,0.0,0.0,0.0133758,1.0,1.0,1,0,0,0,0,0,0
158623551,0.0,-0.0,0.0267524,0.0,0.999911,0.0,0.0,0.0133758,1.0,1.0,1,0,0,0,0,0,0
158725424,0.0,-0.0,0.0267524,0.0,0.999911,0.0,0.0,0.0133758,1.0,1.0,1,0,0,0,0,0,0
158823974,0.0,-0.0,0.0267524,0.0,0.999911,0.0,0.0,0.0133758,1.0,1.0,1,0,0,0,0,0,0
158929366,0.0,-0.0,0.0267524,0.0,0.999911,0.0,0.0,0.0133758,1.0,1.0,1,0,0,0,0,0,0
159029061,0.0,-0.0,0.0267524,0.0,0.999911,0.0,0.0,0.0133758,1.0,1.0,1,0,0,0,0,0,0
159133036,0.0,-0.0,0.0267524,0.0,0.999911,0.0,0.0,0.0133758,1.0,1.0,1,0,0,0,0,0,0
159233417,0.0,-0.0,0.0267524,0.0,0.999911,0.0,0.0,0.0133758,1.0,1.0,1,0,0,0,0,0,0
159321376,0.0,-0.0,0.0267524,0.0,0.999911,0.0,0.0,0.0133758,1.0,1.0,1,0,0,0,0,0,0
159321376,0.0,-0.0,0.0267524,0.0,0.999911,0.0,0.0,0.0133758,1.0,1.0,1,0,0,0,0,0,0
159321376,0.0,-0.0,0.0267524,0.0,0.999911,0.0,0.0,0.0133758,1.0,1.0,1,0,0,0,0,0,0
159321376,0.0,-0.0,0.0267524,0.0,0.999911,0.0,0.0,0.0133758,1.0,1.0,1,0,0,0,0,0,0
159321376,0.0,-0.0,0.0267524,0.0,0.999911,0.0,0.0,0.0133758,1.0,1.0,1,0,0,0,0,0,0
159321376,0.0,-0.0,0.0267524,0.0,0.999911,0.0,0.0,0.0133758,1.0,1.0,1,0,0,0,0,0,0
159321376,0.0,-0.0,0.0267524,0.0,0.999911,0.0,0.0,0.0133758,1.0,1.0,1,0,0,0,0,0,0
159321376,0.0,-0.0,0.0267524,0.0,0.999911,0.0,0.0,0.0133758,1.0,1.0,1,0,0,0,0,0,0
159321376,0.0,-0.0,0.0267524,0.0,0.999911,0.0,0.0,0.0133758,1.0,1.0,1,0,0,0,0,0,0
159321376,0.0,-0.0,0.0267524,0.0,0.999911,0.0,0.0,0.0133758,1.0,1.0,1,0,0,0,0,0,0
159321376,0.0,-0.0,0.0267524,0.0,0.999911,0.0,0.0,0.0133758,1.0,1.0,1,0,0,0,0,0,0
159321376,0.0,-0.0,0.0267524,0.0,0.999911,0.0,0.0,0.0133758,1.0,1.0,1,0,0,0,0,0,0
159321376,0.0,-0.0,0.0267524,0.0,0.999911,0.0,0.0,0.0133758,1.0,1.0,1,0,0,0,0,0,0
159321376,0.0,-0.0,0.0267524,0.0,0.999911,0.0,0.0,0.0133758,1.0,1.0,1,0,0,0,0,0,0
159321376,0.0,-0.0,0.0267524,0.0,0.999911,0.0,0.0,0.0133758,1.0,1.0,1,0,0,0,0,0,0
159321376,0.0,-0.0,0.0267524,0.0,0.999911,0.0,0.0,0.0133758,1.0,1.0,1,0,0,0,0,0,0
159321376,0.0,-0.0,0.0267524,0.0,0.999911,0.0,0.0,0.0133758,1.0,1.0,1,0,0,0,0,0,0
159321376,0.0,-0.0,0.0267524,0.0,0.999911,0.0,0.0,0.0133758,1.0,1.0,1,0,0,0,0,0,0
159321376,0.0,-0.0,0.0267524,0.0,0.999911,0.0,0.0,0.0133758,1.0,1.0,1,0,0,0,0,0,0
159321376,0.0,-0.0,0.0267524,0.0,0.999911,0.0,0.0,0.0133758,1.0,1.0,1,0,0,0,0,0,0
159321376,0.0,-0.0,0.0267524,0.0,0.999911,0.0,0.0,0.0133758,1.0,1.0,1,0,0,0,0,0,0
159321376,0.0,-0.0,0.0267524,0.0,0.999911,0.0,0.0,0.0133758,1.0,1.0,1,0,0,0,0,0,0
159321376,0.0,-0.0,0.0267524,0.0,0.999911,0.0,0.0,0.0133758,1.0,1.0,1,0,0,0,0,0,0
159321376,0.0,-0.0,0.0267524,0.0,0.999911,0.0,0.0,0.0133758,1.0,1.0,1,0,0,0,0,0,0
161769075,0.0,-0.0,-0.586728,0.0,0.957277,0.0,-0.0,-0.289174,1.0,1.0,1,0,0,0,0,0,0
161873088,0.0,-0.0,-0.586728,0.0,0.957277,0.0,-0.0,-0.289174,1.0,1.0,1,0,0,0,0,0,0
161973786,0.0,-0.0,-0.586728,0.0,0.957277,0.0,-0.0,-0.289174,1.0,1.0,1,0,0,0,0,0,0
162073745,0.0,-0.0,-0.586728,0.0,0.957277,0.0,-0.0,-0.289174,1.0,1.0,1,0,0,0,0,0,0
162173077,0.0,-0.0,-0.586728,0.0,0.957277,0.0,-0.0,-0.289174,1.0,1.0,1,0,0,0,0,0,0
162278203,0.0,-0.0,-0.586728,0.0,0.957277,0.0,-0.0,-0.289174,1.0,1.0,1,0,0,0,0,0,0
162381045,0.0,-0.0,-0.586728,0.0,0.957277,0.0,-0.0,-0.289174,1.0,1.0,1,0,0,0,0,0,0
162481950,0.0,-0.0,-0.586728,0.0,0.957277,0.0,-0.0,-0.289174,1.0,1.0,1,0,0,0,0,0,0
162581175,0.0,-0.0,-0.586728,0.0,0.957277,0.0,-0.0,-0.289174,1.0,1.0,1,0,0,0,0,0,0
162685491,0.0,-0.0,-0.586728,0.0,0.957277,0.0,-0.0,-0.289174,1.0,1.0,1,0,0,0,0,0,0
162784061,0.0,-0.0,-0.586728,0.0,0.957277,0.0,-0.0,-0.289174,1.0,1.0,1,0,0,0,0,0,0
162887877,0.0,-0.0,-0.586728,0.0,0.957277,0.0,-0.0,-0.289174,1.0,1.0,1,0,0,0,0,0,0
162989738,0.0,-0.0,-0.586728,0.0,0.957277,0.0,-0.0,-0.289174,1.0,1.0,1,0,0,0,0,0,0
163089018,0.0,-0.0,-0.586728,0.0,0.957277,0.0,-0.0,-0.289174,1.0,1.0,1,0,0,0,0,0,0
163193060,0.0,-0.0,-0.586728,0.0,0.957277,0.0,-0.0,-0.289174,1.0,1.0,1,0,0,0,0,0,0
163293057,0.0,-0.0,-0.586728,0.0,0.957277,0.0,-0.0,-0.289174,1.0,1.0,1,0,0,0,0,0,0
163393736,0.0,-0.0,-0.586728,0.0,0.957277,0.0,-0.0,-0.289174,1.0,1.0,1,0,0,0,0,0,0
163497055,0.0,-0.0,-0.586728,0.0,0.957277,0.0,-0.0,-0.289174,1.0,1.0,1,0,0,0,0,0,0
163597397,0.0,-0.0,-0.586728,0.0,0.957277,0.0,-0.0,-0.289174,1.0,1.0,1,0,0,0,0,0,0
163697283,0.0,-0.0,-0.586728,0.0,0.957277,0.0,-0.0,-0.289174,1.0,1.0,1,0,0,0,0,0,0
163801703,0.0,-0.0,-0.586728,0.0,0.957277,0.0,-0.0,-0.289174,1.0,1.0,1,0,0,0,0,0,0
163846023,0.0,-0.0,-0.586728,0.0,0.957277,0.0,-0.0,-0.289174,1.0,1.0,1,0,0,0,0,0,0
163846023,0.0,-0.0,-0.586728,0.0,0.957277,0.0,-0.0,-0.289174,1.0,1.0,1,0,0,0,0,0,0
163846023,0.0,-0.0,-0.586728,0.0,0.957277,0.0,-0.0,-0.289174,1.0,1.0,1,0,0,0,0,0,0
163846023,0.0,-0.0,-0.586728,0.0,0.957277,0.0,-0.0,-0.289174,1.0,1.0,1,0,0,0,0,0,0
163846023,0.0,-0.0,-0.586728,0.0,0.957277,0.0,-0.0,-0.289174,1.0,1.0,1,0,0,0,0,0,0
163846023,0.0,-0.0,-0.586728,0.0,0.957277,0.0,-0.0,-0.289174,1.0,1.0,1,0,0,0,0,0,0
163846023,0.0,-0.0,-0.586728,0.0,0.957277,0.0,-0.0,-0.289174,1.0,1.0,1,0,0,0,0,0,0
163846023,0.0,-0.0,-0.586728,0.0,0.957277,0.0,-0.0,-0.289174,1.0,1.0,1,0,0,0,0,0,0
163846023,0.0,-0.0,-0.586728,0.0,0.957277,0.0,-0.0,-0.289174,1.0,1.0,1,0,0,0,0,0,0
163846023,0.0,-0.0,-0.586728,0.0,0.957277,0.0,-0.0,-0.289174,1.0,1.0,1,0,0,0,0,0,0
163846023,0.0,-0.0,-0.586728,0.0,0.957277,0.0,-0.0,-0.289174,1.0,1.0,1,0,0,0,0,0,0
163846023,0.0,-0.0,-0.586728,0.0,0.957277,0.0,-0.0,-0.289174,1.0,1.0,1,0,0,0,0,0,0
163846023,0.0,-0.0,-0.586728,0.0,0.957277,0.0,-0.0,-0.289174,1.0,1.0,1,0,0,0,0,0,0
163846023,0.0,-0.0,-0.586728,0.0,0.957277,0.0,-0.0,-0.289174,1.0,1.0,1,0,0,0,0,0,0
163846023,0.0,-0.0,-0.586728,0.0,0.957277,0.0,-0.0,-0.289174,1.0,1.0,1,0,0,0,0,0,0
163846023,0.0,-0.0,-0.586728,0.0,0.957277,0.0,-0.0,-0.289174,1.0,1.0,1,0,0,0,0,0,0
163846023,0.0,-0.0,-0.586728,0.0,0.957277,0.0,-0.0,-0.289174,1.0,1.0,1,0,0,0,0,0,0
163846023,0.0,-0.0,-0.586728,0.0,0.957277,0.0,-0.0,-0.289174,1.0,1.0,1,0,0,0,0,0,0
163846023,0.0,-0.0,-0.586728,0.0,0.957277,0.0,-0.0,-0.289174,1.0,1.0,1,0,0,0,0,0,0
163846023,0.0,-0.0,-0.586728,0.0,0.957277,0.0,-0.0,-0.289174,1.0,1.0,1,0,0,0,0,0,0
163846023,0.0,-0.0,-0.586728,0.0,0.957277,0.0,-0.0,-0.289174,1.0,1.0,1,0,0,0,0,0,0
163846023,0.0,-0.0,-0.586728,0.0,0.957277,0.0,-0.0,-0.289174,1.0,1.0,1,0,0,0,0,0,0
163846023,0.0,-0.0,-0.586728,0.0,0.957277,0.0,-0.0,-0.289174,1.0,1.0,1,0,0,0,0,0,0
163846023,0.0,-0.0,-0.586728,0.0,0.957277,0.0,-0.0,-0.289174,1.0,1.0,1,0,0,0,0,0,0
163846023,0.0,-0.0,-0.586728,0.0,0.957277,0.0,-0.0,-0.289174,1.0,1.0,1,0,0,0,0,0,0
163846023,0.0,-0.0,-0.586728,0.0,0.957277,0.0,-0.0,-0.289174,1.0,1.0,1,0,0,0,0,0,0
163846023,0.0,-0.0,-0.586728,0.0,0.957277,0.0,-0.0,-0.289174,1.0,1.0,1,0,0,0,0,0,0
166643306,0.0,-0.0,-1.20155,0.0,0.824899,0.0,-0.0,-0.56528,1.0,1.0,1,0,0,0,0,0,0
166745961,0.0,-0.0,-1.20155,0.0,0.824899,0.0,-0.0,-0.56528,1.0,1.0,1,0,0,0,0,0,0
166847127,0.0,-0.0,-1.20155,0.0,0.824899,0.0,-0.0,-0.56528,1.0,1.0,1,0,0,0,0,0,0
166944239,0.0,-0.0,-1.20155,0.0,0.824899,0.0,-0.0,-0.56528,1.0,1.0,1,0,0,0,0,0,0
167047907,0.0,-0.0,-1.20155,0.0,0.824899,0.0,-0.0,-0.56528,1.0,1.0,1,0,0,0,0,0,0
167149700,0.0,-0.0,-1.20155,0.0,0.824899,0.0,-0.0,-0.56528,1.0,1.0,1,0,0,0,0,0,0
167249425,0.0,-0.0,-1.20155,0.0,0.824899,0.0,-0.0,-0.56528,1.0,1.0,1,0,0,0,0,0,0
167353394,0.0,-0.0,-1.20155,0.0,0.824899,0.0,-0.0,-0.56528,1.0,1.0,1,0,0,0,0,0,0
167454043,0.0,-0.0,-1.20155,0.0,0.824899,0.0,-0.0,-0.56528,1.0,1.0,1,0,0,0,0,0,0
167557027,0.0,-0.0,-1.20155,0.0,0.824899,0.0,-0.0,-0.56528,1.0,1.0,1,0,0,0,0,0,0
167657069,0.0,-0.0,-1.20155,0.0,0.824899,0.0,-0.0,-0.56528,1.0,1.0,1,0,0,0,0,0,0
167757038,0.0,-0.0,-1.20155,0.0,0.824899,0.0,-0.0,-0.56528,1.0,1.0,1,0,0,0,0,0,0
167861056,0.0,-0.0,-1.20155,0.0,0.824899,0.0,-0.0,-0.56528,1.0,1.0,1,0,0,0,0,0,0
167961026,0.0,-0.0,-1.20155,0.0,0.824899,0.0,-0.0,-0.56528,1.0,1.0,1,0,0,0,0,0,0
168065072,0.0,-0.0,-1.20155,0.0,0.824899,0.0,-0.0,-0.56528,1.0,1.0,1,0,0,0,0,0,0
168165913,0.0,-0.0,-1.20155,0.0,0.824899,0.0,-0.0,-0.56528,1.0,1.0,1,0,0,0,0,0,0
168265044,0.0,-0.0,-1.20155,0.0,0.824899,0.0,-0.0,-0.56528,1.0,1.0,1,0,0,0,0,0,0
168367938,0.0,-0.0,-1.20155,0.0,0.824899,0.0,-0.0,-0.56528,1.0,1.0,1,0,0,0,0,0,0
168470143,0.0,-0.0,-1.20155,0.0,0.824899,0.0,-0.0,-0.56528,1.0,1.0,1,0,0,0,0,0,0
168570066,0.0,-0.0,-1.20155,0.0,0.824899,0.0,-0.0,-0.56528,1.0,1.0,1,0,0,0,0,0,0
168673420,0.0,-0.0,-1.20155,0.0,0.824899,0.0,-0.0,-0.56528,1.0,1.0,1,0,0,0,0,0,0
168773154,0.0,-0.0,-1.20155,0.0,0.824899,0.0,-0.0,-0.56528,1.0,1.0,1,0,0,0,0,0,0
168877025,0.0,-0.0,-1.20155,0.0,0.824899,0.0,-0.0,-0.56528,1.0,1.0,1,0,0,0,0,0,0
168979377,0.0,-0.0,-1.20155,0.0,0.824899,0.0,-0.0,-0.56528,1.0,1.0,1,0,0,0,0,0,0
169075931,0.0,-0.0,-1.20155,0.0,0.824899,0.0,-0.0,-0.56528,1.0,1.0,1,0,0,0,0,0,0
169179997,0.0,-0.0,-1.20155,0.0,0.824899,0.0,-0.0,-0.56528,1.0,1.0,1,0,0,0,0,0,0
169282512,0.0,-0.0,-1.20155,0.0,0.824899,0.0,-0.0,-0.56528,1.0,1.0,1,0,0,0,0,0,0
169381403,0.0,-0.0,-1.20155,0.0,0.824899,0.0,-0.0,-0.56528,1.0,1.0,1,0,0,0,0,0,0
169485481,0.0,-0.0,-1.20155,0.0,0.824899,0.0,-0.0,-0.56528,1.0,1.0,1,0,0,0,0,0,0
169585030,0.0,-0.0,-1.20155,0.0,0.824899,0.0,-0.0,-0.56528,1.0,1.0,1,0,0,0,0,0,0
169689051,0.0,-0.0,-1.20155,0.0,0.824899,0.0,-0.0,-0.56528,1.0,1.0,1,0,0,0,0,0,0
169789649,0.0,-0.0,-1.20155,0.0,0.824899,0.0,-0.0,-0.56528,1.0,1.0,1,0,0,0,0,0,0
169889049,0.0,-0.0,-1.20155,0.0,0.824899,0.0,-0.0,-0.56528,1.0,1.0,1,0,0,0,0,0,0
169993030,0.0,-0.0,-1.20155,0.0,0.824899,0.0,-0.0,-0.56528,1.0,1.0,1,0,0,0,0,0,0
170037376,0.0,-0.0,-1.20155,0.0,0.824899,0.0,-0.0,-0.56528,1.0,1.0,1,0,0,0,0,0,0
170037376,0.0,-0.0,-1.20155,0.0,0.824899,0.0,-0.0,-0.56528,1.0,1.0,1,0,0,0,0,0,0
170037376,0.0,-0.0,-1.20155,0.0,0.824899,0.0,-0.0,-0.56528,1.0,1.0,1,0,0,0,0,0,0
170037376,0.0,-0.0,-1.20155,0.0,0.824899,0.0,-0.0,-0.56528,1.0,1.0,1,0,0,0,0,0,0
170037376,0.0,-0.0,-1.20155,0.0,0.824899,0.0,-0.0,-0.56528,1.0,1.0,1,0,0,0,0,0,0
170037376,0.0,-0.0,-1.20155,0.0,0.824899,0.0,-0.0,-0.56528,1.0,1.0,1,0,0,0,0,0,0
170037376,0.0,-0.0,-1.20155,0.0,0.824899,0.0,-0.0,-0.56528,1.0,1.0,1,0,0,0,0,0,0
170037376,0.0,-0.0,-1.20155,0.0,0.824899,0.0,-0.0,-0.56528,1.0,1.0,1,0,0,0,0,0,0
170037376,0.0,-0.0,-1.20155,0.0,0.824899,0.0,-0.0,-0.56528,1.0,1.0,1,0,0,0,0,0,0
170037376,0.0,-0.0,-1.20155,0.0,0.824899,0.0,-0.0,-0.56528,1.0,1.0,1,0,0,0,0,0,0
170037376,0.0,-0.0,-1.20155,0.0,0.824899,0.0,-0.0,-0.56528,1.0,1.0,1,0,0,0,0,0,0
170037376,0.0,-0.0,-1.20155,0.0,0.824899,0.0,-0.0,-0.56528,1.0,1.0,1,0,0,0,0,0,0
170037376,0.0,-0.0,-1.20155,0.0,0.824899,0.0,-0.0,-0.56528,1.0,1.0,1,0,0,0,0,0,0
170037376,0.0,-0.0,-1.20155,0.0,0.824899,0.0,-0.0,-0.56528,1.0,1.0,1,0,0,0,0,0,0
170037376,0.0,-0.0,-1.20155,0.0,0.824899,0.0,-0.0,-0.56528,1.0,1.0,1,0,0,0,0,0,0
170037376,0.0,-0.0,-1.20155,0.0,0.824899,0.0,-0.0,-0.56528,1.0,1.0,1,0,0,0,0,0,0
170037376,0.0,-0.0,-1.20155,0.0,0.824899,0.0,-0.0,-0.56528,1.0,1.0,1,0,0,0,0,0,0
170037376,0.0,-0.0,-1.20155,0.0,0.824899,0.0,-0.0,-0.56528,1.0,1.0,1,0,0,0,0,0,0
170037376,0.0,-0.0,-1.20155,0.0,0.824899,0.0,-0.0,-0.56528,1.0,1.0,1,0,0,0,0,0,0
170037376,0.0,-0.0,-1.20155,0.0,0.824899,0.0,-0.0,-0.56528,1.0,1.0,1,0,0,0,0,0,0
170037376,0.0,-0.0,-1.20155,0.0,0.824899,0.0,-0.0,-0.56528,1.0,1.0,1,0,0,0,0,0,0
170037376,0.0,-0.0,-1.20155,0.0,0.824899,0.0,-0.0,-0.56528,1.0,1.0,1,0,0,0,0,0,0
170037376,0.0,-0.0,-1.20155,0.0,0.824899,0.0,-0.0,-0.56528,1.0,1.0,1,0,0,0,0,0,0
170037376,0.0,-0.0,-1.20155,0.0,0.824899,0.0,-0.0,-0.56528,1.0,1.0,1,0,0,0,0,0,0
170037376,0.0,-0.0,-1.20155,0.0,0.824899,0.0,-0.0,-0.56528,1.0,1.0,1,0,0,0,0,0,0
173241263,0.0,-0.0,-1.48025,0.0,0.738384,0.0,-0.0,-0.67438,1.0,1.0,1,0,0,0,0,0,0
173340226,0.0,-0.0,-1.48025,0.0,0.738384,0.0,-0.0,-0.67438,1.0,1.0,1,0,0,0,0,0,0
173444157,0.0,-0.0,-1.48025,0.0,0.738384,0.0,-0.0,-0.67438,1.0,1.0,1,0,0,0,0,0,0
173545705,0.0,-0.0,-1.48025,0.0,0.738384,0.0,-0.0,-0.67438,1.0,1.0,1,0,0,0,0,0,0
173645238,0.0,-0.0,-1.48025,0.0,0.738384,0.0,-0.0,-0.67438,1.0,1.0,1,0,0,0,0,0,0
173749413,0.0,-0.0,-1.48025,0.0,0.738384,0.0,-0.0,-0.67438,1.0,1.0,1,0,0,0,0,0,0
173849746,0.0,-0.0,-1.48025,0.0,0.738384,0.0,-0.0,-0.67438,1.0,1.0,1,0,0,0,0,0,0
173949131,0.0,-0.0,-1.48025,0.0,0.738384,0.0,-0.0,-0.67438,1.0,1.0,1,0,0,0,0,0,0
