timestamp,roll,pitch,yaw,thrust
107731468,0.0121888,0.00133193,5.38837e-07,0.0
107762317,0.0129756,0.00130938,5.56428e-07,0.0
107792481,0.0140138,0.000893389,4.16584e-07,0.0
107824536,0.0137503,-0.000657958,-3.04006e-07,0.0
107856542,0.014579,0.000100615,5.35521e-08,0.0
107887500,0.0140483,-0.000611721,-2.82687e-07,0.0
107920521,0.0134674,-0.000316623,-1.37351e-07,0.0
107951530,0.0141285,-0.000798784,-3.64889e-07,0.0
107980507,0.0131918,-0.00156587,-6.82545e-07,0.0
108011488,0.0129446,-0.00134877,-5.84143e-07,0.0
108044480,0.0126687,-0.00280627,-1.18159e-06,0.0
108074475,0.0131201,-0.00355909,-1.54983e-06,0.0
108108489,0.0132725,-0.00518216,-2.27676e-06,0.0
108140481,0.0135325,-0.0052617,-2.35549e-06,0.0
108172508,0.0146517,-0.00382119,-1.85054e-06,0.0
108199481,0.015219,-0.00336158,-1.68347e-06,0.0
108235483,0.015285,-0.00369937,-1.87115e-06,0.0
108264487,0.0158636,-0.00488854,-2.57425e-06,0.0
108297502,0.0142483,-0.00457509,-2.16223e-06,0.0
108327471,0.0151885,-0.00487328,-2.45606e-06,0.0
108360495,0.0146809,-0.00355931,-1.7311e-06,0.0
108392490,0.0154313,-0.00408038,-2.08904e-06,0.0
108423519,0.0153448,-0.00392652,-1.99638e-06,0.0
108455524,0.0166035,-0.00488304,-2.68658e-06,0.0
108484575,0.0165786,-0.00555137,-3.04575e-06,0.0
108515480,0.0156909,-0.00577186,-3.00253e-06,0.0
108547481,0.017212,-0.00606068,-3.45861e-06,0.0
108579472,0.0177458,-0.00582702,-3.42547e-06,0.0
108612492,0.0169689,-0.0055451,-3.1246e-06,0.0
108644480,0.0169388,-0.0050964,-2.8593e-06,0.0
108675705,0.0165212,-0.00453533,-2.48596e-06,0.00570416
108703479,0.0155733,-0.00491055,-2.53629e-06,0.0314435
108735470,0.016159,-0.00484774,-2.59285e-06,0.0791559
108768484,0.015981,-0.00548748,-2.90624e-06,0.170882
108802496,0.0156362,-0.00486871,-0.000400319,0.23446
108832504,0.0160187,-0.00623829,-0.000241194,0.268233
108864488,0.0151424,-0.00662679,6.19189e-05,0.300525
108896642,0.0137612,-0.00649112,-0.000267089,0.347367
108928522,0.0138856,-0.00520541,-0.000397137,0.367902
108958730,0.0130454,-0.00411027,-0.00016898,0.399408
108991480,0.0138701,-0.00574572,7.5227e-05,0.414673
109020471,0.0136562,-0.00477114,0.000135401,0.426439
109052479,0.0131661,-0.00473844,-6.18093e-05,0.434309
109084519,0.0133339,-0.00469316,-1.83642e-05,0.446971
109114861,0.012165,-0.00575975,-0.000153011,0.469638
109147502,0.0134706,-0.00592162,-1.60579e-05,0.469231
109180517,0.0128424,-0.00704618,0.000269998,0.467193
109207551,0.0127921,-0.00570359,0.000446408,0.467314
109240519,0.012721,-0.00616665,0.000935934,0.467455
109270581,0.0121777,-0.0064018,0.00161221,0.469707
109304479,0.0118041,-0.00653901,0.00155424,0.499361
109335479,0.0108822,-0.00602311,0.00174549,0.515277
109368528,0.00915937,-0.00578911,0.00178755,0.547138
109399480,0.00449402,-0.00315925,0.00203952,0.569234
109430376,0.00618184,-0.00120963,0.00170085,0.591323
109463472,0.00090585,-0.00238227,0.0015775,0.620753
109492716,-0.000159844,-0.000857575,0.00187848,0.633727
109524483,0.0022278,-0.00119835,0.00243487,0.666136
109551537,-0.00122033,7.73147e-05,0.00265993,0.681051
109586440,-0.00124412,0.000709008,0.00227375,0.695717
109620500,-0.00354544,0.00470547,0.0019257,0.729811
109652471,-0.00298131,0.00201979,0.00182025,0.749312
109684520,-0.00136815,0.00451607,0.00183169,0.777161
109715531,-0.0023341,0.00431745,0.00127967,0.789346
109746761,0.00119519,0.00490183,0.000974255,0.813996
109776481,0.000520302,0.0052334,0.00135581,0.824621
109808537,0.00179412,0.00398459,0.0013405,0.830234
109839482,0.00399593,0.00331518,0.000373433,0.842704
109872512,0.00132919,0.00189002,-9.72155e-05,0.85278
109903524,0.00556776,0.000664982,-0.000920325,0.858725
109936517,0.00210038,0.00174376,-0.000692293,0.866152
109967475,0.00508428,0.00045129,-0.00140237,0.910187
109999469,0.00643354,0.00197193,-0.00104865,0.937889
110027481,0.00349756,0.000750338,-0.00115072,0.965503
110060487,0.00530045,0.00130676,-0.00109734,1.0
110092509,0.00416929,-0.00015431,-0.00143056,1.0
110124501,-0.00199125,0.00267538,-0.00180312,1.0
110156483,0.00429249,-0.00212777,0.0193128,0.9998
110187547,-0.000436039,0.000674372,0.036742,0.999954
110215482,0.00693089,-0.00370527,0.0570616,1.0
110248507,0.00335404,-0.00150378,0.0678289,1.0
110280479,7.29087e-05,-0.00299243,0.0742039,0.999999
110312480,0.0025831,0.000424437,0.0685526,1.0
110344520,0.000493286,0.00067793,0.0526435,1.0
110377533,-0.000827548,0.00145102,0.0345443,1.0
110407526,0.00189444,0.00604884,0.0294042,1.0
110440518,-0.00513414,0.00257255,0.023515,1.0
110470632,0.00234785,0.00801264,0.019976,1.0
110503536,0.00302408,0.00957154,0.016514,1.0
110531487,0.00512419,0.00742246,0.0133582,1.0
110563604,0.00917228,0.00964437,0.0097452,1.0
110596652,0.00275083,0.00394875,0.00733247,1.0
110626678,0.00823994,0.00697914,0.00534211,1.0
110660482,0.00544376,0.00640065,0.00333494,1.0
110692504,0.00790344,0.00762215,0.0011999,1.0
110720483,0.00841226,0.00975352,-0.000836623,1.0
110755485,0.00536957,0.00732501,-0.00224256,1.0
110782623,0.00503747,0.00922859,-0.00384873,1.0
110816608,0.00274336,0.004599,-0.00472008,1.0
110848502,-0.000434138,0.0050698,-0.0055766,1.0
110880548,0.0014518,0.000277604,-0.00620164,1.0
110912485,-0.000508149,-0.000244742,-0.00657767,1.0
110944520,0.00180912,-0.00346781,-0.00713057,1.0
110972474,0.00127771,-0.00391748,-0.00746722,1.0
111003607,0.000121881,-0.003468,-0.00770398,1.0
111035523,0.002999,-0.0081172,-0.00716063,1.0
111067472,0.000340606,-0.00661045,-0.00662654,1.0
111100518,0.00216776,-0.00990984,-0.00633694,1.0
111132482,0.000365724,-0.0097908,-0.00570673,1.0
111164500,-0.0159861,-0.00416653,-0.0055704,1.0
111196535,-0.0805845,-0.0062705,-0.00541466,1.0
111227482,-0.358291,0.000859186,-0.00456586,1.0
111255481,-0.554038,-0.00420561,-0.0038371,1.0
111288482,-1.042,0.000369126,-0.00319907,1.0
111320481,-1.23104,0.000797938,-0.00203632,1.0
111352503,-1.34412,-0.002212,0.00097358,1.0
111384483,-1.47545,0.000307454,0.0072764,1.0
111412510,-1.34806,-0.0082688,0.0105787,1.0
111448503,-1.00764,-0.00636347,0.0151674,1.0
111479543,-0.754428,-0.00849906,0.0153246,1.0
111510698,-0.489532,-0.00794192,0.012891,1.0
111540521,-0.280051,-0.00528263,0.0114818,1.0
111572532,-0.121078,-0.00463869,0.0107473,1.0
111603471,0.0127793,0.00120125,0.00830738,1.0
111636551,0.0548326,0.00440951,0.00763931,1.0
111666558,0.137449,0.00349847,0.00680771,1.0
111700506,0.223289,0.00293293,0.00619699,1.0
111728471,0.297199,0.00326145,0.00546208,1.0
111760515,0.559791,0.00414804,0.00477357,1.0
111792482,0.773561,0.00198853,0.00465201,1.0
111822636,1.50901,0.00495628,0.00415413,1.0
111856518,1.55055,0.0052583,0.00407396,1.0
111888527,1.29106,0.00280088,0.00264069,1.0
111919479,1.00044,0.0036648,0.00205849,1.0
111952506,0.727253,-9.92795e-05,0.00180957,1.0
111983531,0.568418,0.00287958,0.000720279,1.0
112012519,0.397822,0.000120939,0.000355994,1.0
112044483,0.304687,0.00517906,-0.000578033,1.0
112076486,0.204177,0.00406527,-0.000836427,1.0
112107531,0.120681,0.000580453,-0.000934955,1.0
112140480,0.278854,0.0088562,-0.000555115,1.0
112171532,0.456303,0.00591482,-0.000355496,1.0
112203523,1.23016,0.0129511,-0.000439147,1.0
112235483,1.46889,0.00293272,-4.31502e-06,1.0
112267475,1.69406,0.00968543,-0.000844679,1.0
112296479,2.36081,0.00184525,-0.000580253,1.0
112327471,2.40568,0.0344808,-0.00200909,1.0
112360509,2.30314,0.116836,-0.0069928,1.0
112392642,1.87666,0.3309,-0.0239829,1.0
112424483,1.44046,0.372396,-0.0330303,1.0
112455482,1.05281,0.413885,-0.0446597,1.0
112484485,0.788111,0.350717,-0.0458796,1.0
112515474,0.548755,0.238498,-0.0408953,1.0
112550368,0.376886,0.016738,-0.0202491,1.0
112579697,0.268902,-0.14046,-0.00180732,1.0
112612661,0.160328,-0.276383,0.017687,1.0
112644481,-0.0980665,-0.343686,0.0297934,1.0
112676490,-0.318331,-0.283859,0.0286188,1.0
112708517,-0.698053,-0.23297,0.0253922,1.0
112735468,-0.704602,-0.177973,0.0258831,1.0
112768587,-0.625388,-0.135976,0.0262124,1.0
112800511,-0.783103,-0.0876857,0.025828,1.0
112832482,-0.985071,-0.0703279,0.0242591,1.0
112862578,-1.93998,-0.0528993,0.0220893,1.0
112896484,-2.10725,-0.0418948,0.020091,1.0
112928468,-2.38946,-0.0336196,0.0184303,1.0
112959481,-2.08691,-0.025842,0.0173268,1.0
112988485,-1.68966,-0.0195474,0.0165668,1.0
113018567,-1.27849,-0.00981941,0.0153578,1.0
113052484,-0.928497,-0.00793184,0.0136693,1.0
113084486,-0.672392,-0.0017896,0.012524,1.0
113115501,-0.464232,-0.00168648,0.0113417,1.0
113148496,-0.313793,-0.00136806,0.00976505,1.0
113180535,-0.201201,-0.00090226,0.0085631,1.0
113211469,-0.116918,-0.00597282,0.00719995,1.0
113240615,-0.0724776,-1.20457e-07,0.00679692,1.0
113272519,-0.0314421,-0.00662135,0.00583555,1.0
113304480,-0.0206265,0.00480357,0.00443343,1.0
113335484,-0.00278096,0.0025999,0.00354345,1.0
113367479,0.00231763,-0.000827584,0.003133,1.0
113400474,0.00425338,0.00367445,0.00127823,1.0
113431468,0.0127986,-0.00609234,0.000645928,1.0
113464523,0.00834188,0.000760696,0.000245489,1.0
113492485,0.0085988,-0.000548206,-0.00090012,1.0
113524507,0.00696748,0.000895845,-0.00163736,1.0
113556495,0.00891521,-0.00339805,-0.00183251,1.0
113588481,0.0117407,-0.00574442,-0.00204906,1.0
113616481,0.00628104,-0.0016452,-0.00225624,1.0
113652480,0.00473449,-0.000871082,-0.00175654,1.0
113684563,-0.000909245,0.00235621,-0.00157449,1.0
113715468,-0.00265538,0.00447079,-0.00173449,1.0
113746844,-0.00408699,0.00419212,-0.00139936,1.0
113779481,-0.00694494,0.00618359,-0.00172982,1.0
113808489,-0.00830431,0.00191466,-0.0014155,1.0
113841524,-0.00855644,0.00220172,-0.000885741,1.0
113872506,-0.00842341,0.00302133,-0.000177171,1.0
113902653,-0.0087267,0.000791892,-0.000151438,1.0
113936535,-0.00721461,0.000730783,0.000208609,1.0
113967511,-0.00787008,-0.00108969,-0.000210287,1.0
113999543,-0.00688418,-0.00310941,0.00060411,1.0
114027468,-0.00503588,-0.000623232,0.00107307,1.0
114059048,-0.00690135,-0.00513555,0.00142813,1.0
114092484,-0.00449024,-0.00118959,0.00123749,1.0
114124640,-0.00428105,-6.77686e-05,0.00145927,1.0
114156480,-0.00400618,-0.000458618,0.00212362,1.0
114188532,-0.0018053,0.00560714,0.00204941,1.0
114220517,-0.0048444,-0.00169268,0.00213974,1.0
114248504,-0.00497626,0.00100281,0.00255294,1.0
114280707,-0.00487481,-4.27351e-05,0.00277859,1.0
114312481,-0.00414742,-0.000765048,0.00339418,1.0
114344481,-0.00499395,0.00162353,0.0027836,1.0
114376509,-0.00384458,0.000276863,0.00222241,1.0
114408483,-0.00487422,0.00227822,0.00133157,1.0
114440486,-0.0040426,0.00214333,0.000484392,1.0
114472524,-0.00505749,0.00147604,0.000173884,1.0
114500599,-0.00455041,0.000631664,0.000490093,1.0
114532562,-0.00488883,-0.00105802,0.000744695,1.0
114563488,-0.00645533,-0.000326011,0.000540009,1.0
114596478,-0.00642165,-0.000921357,0.000174259,1.0
114628584,-0.00614845,-0.00330019,0.000508442,1.0
114660483,-0.00756574,-0.00504833,0.000786162,1.0
114692482,-0.00671928,-0.00252031,0.000359143,1.0
114723472,-0.00645524,-0.00405381,0.000354677,1.0
114752483,-0.00447884,-0.00137326,-6.73544e-05,1.0
114786592,-0.00572826,-0.00281512,-0.000207127,1.0
114816483,-0.00301119,-0.000232431,8.75242e-05,1.0
114847549,-0.00452669,0.00183563,-0.000474606,1.0
114880637,-0.00307241,0.00095272,-0.000895835,1.0
114912539,-0.00327653,0.00178314,-0.000917816,1.0
114942789,-0.00491395,0.00237474,-0.0009538,1.0
114976654,-0.00469933,0.00215521,-0.00162498,1.0
115004475,-0.00770116,0.00369226,-0.00146856,1.0
115035471,-0.00717772,0.00199732,-0.000150192,1.0
115067524,-0.00787379,0.00293178,-0.000181625,1.0
115099551,-0.00303486,-0.000888683,-0.000408472,1.0
115132502,-0.0027276,-0.00111793,-5.61464e-05,1.0
115164633,-0.00345497,-0.00130313,0.000471829,1.0
115196485,-0.00174893,-0.00266177,0.000685883,1.0
115228511,-0.00240256,-0.000719561,0.000911158,1.0
115254487,-0.00115053,-0.000705672,0.00109624,1.0
115287525,-3.771e-05,-0.000201993,0.00112585,1.0
115320536,-0.00246583,-0.00107357,0.001221,1.0
115351512,-0.00028077,-0.00268419,0.000382188,1.0
115508650,-0.000116474,-0.00619114,0.00122472,1.0
115543512,-0.00169543,-0.00347447,0.00113681,1.0
115572474,0.00363835,-0.00822633,0.000953787,1.0
115604486,0.00478092,-0.0086894,0.000802042,1.0
115635475,0.00650329,-0.00678878,0.000860322,1.0
115668485,0.00680497,-0.0099115,0.000406602,1.0
115700486,0.00607311,-0.00835099,0.000434307,1.0
115722831,0.00467885,-0.0109009,0.000311612,1.0
119428511,3.83972,-3.83972,0.142965,1.0
119456483,3.83972,-3.83972,-1.21497,1.0
119487548,-3.83972,3.83972,-0.29073,1.0
119518955,-3.83972,3.83972,-1.55141,1.0
119551473,-3.83972,3.83972,-2.42225,1.0
119584503,-3.83972,3.83972,-2.92173,1.0
119616484,-3.83972,3.83972,-3.29605,1.0
119648513,-3.83972,3.83972,-3.49066,1.0
119680573,-3.83972,3.83972,-3.49066,1.0
119708485,-3.83972,3.83972,-3.49066,1.0
119740566,-3.81769,3.83972,-3.49066,1.0
119772484,-3.02736,3.83972,-3.49066,1.0
119804484,-2.35658,3.83972,-3.49066,1.0
119836502,-1.76772,3.83972,-3.36705,1.0
119868492,-1.30507,3.83972,-3.18426,1.0
119900482,-0.943217,3.41091,-2.9925,1.0
119932507,-0.69583,2.89276,-2.77552,1.0
119960486,-0.568525,2.43923,-2.56997,1.0
119992514,-0.500203,1.97384,-2.33199,1.0
120024486,-0.493288,1.50981,-2.07069,1.0
120056481,-0.515603,1.12672,-1.81627,1.0
120087495,-0.572941,0.796815,-1.55396,1.0
120120486,-0.621645,0.522813,-1.30417,1.0
120152642,-0.676975,0.32064,-1.06492,1.0
120184561,-0.708495,0.153018,-0.842147,1.0
120212475,-0.720439,0.0650509,-0.662023,1.0
120246604,-0.721612,-0.0255648,-0.449591,1.0
120276488,-0.705314,-0.0628946,-0.304909,1.0
120308483,-0.666761,-0.0761576,-0.144692,1.0
120340507,-0.623947,-0.081082,-0.00926135,1.0
120372564,-0.561813,-0.0529061,0.112831,1.0
120402600,-0.507753,-0.0146353,0.23185,1.0
120436515,-0.448105,0.047589,0.330936,1.0
120464472,-0.401313,0.0996661,0.406062,1.0
120496621,-0.348916,0.167427,0.481144,1.0
120528496,-0.296244,0.24104,0.543632,1.0
120558941,-0.270734,0.296998,0.594381,1.0
120592511,-0.2436,0.36426,0.633793,1.0
120624512,-0.233286,0.426193,0.662134,1.0
120656480,-0.232122,0.487528,0.68021,1.0
120688508,-0.233018,0.551943,0.687499,1.0
120715053,-0.251898,0.599451,0.685747,1.0
120749618,-0.263302,0.646595,0.676842,1.0
120780472,-0.266956,0.663841,0.663105,1.0
120812480,-0.274458,0.677271,0.64444,1.0
120844556,-0.271852,0.67052,0.622096,1.0
120876482,-0.272128,0.658616,0.598597,1.0
120908483,-0.270598,0.647636,0.570906,1.0
120940508,-0.269325,0.62167,0.54385,1.0
120968497,-0.269049,0.617498,0.519611,1.0
121000520,-0.265562,0.599972,0.49119,1.0
121032576,-0.26375,0.593993,0.464711,1.0
121064489,-0.261505,0.5811,0.435005,1.0
121096517,-0.260962,0.56456,0.407914,1.0
121128487,-0.257246,0.564514,0.381462,1.0
121160486,-0.257936,0.548527,0.356187,1.0
121192592,-0.252155,0.542693,0.331941,1.0
121220483,-0.250087,0.529583,0.312378,1.0
121252584,-0.244863,0.519387,0.290293,1.0
121287048,-0.239964,0.50758,0.268094,1.0
121316481,-0.236487,0.500027,0.25339,1.0
121347555,-0.236117,0.490568,0.235976,1.0
121380481,-0.231992,0.483256,0.220687,1.0
121412484,-0.229217,0.47459,0.206343,1.0
121442738,-0.2259,0.467992,0.193282,1.0
121473481,-0.221538,0.460287,0.18342,1.0
121504504,-0.219172,0.455084,0.173724,1.0
121536484,-0.21577,0.447794,0.165312,1.0
121568488,-0.212223,0.443351,0.158269,1.0
121598732,-0.20909,0.439865,0.152315,1.0
121632559,-0.202873,0.435387,0.147033,1.0
121664536,-0.205389,0.429646,0.142919,1.0
121696501,-0.201489,0.421949,0.138506,1.0
121724484,-0.202391,0.41766,0.135821,1.0
121754592,-0.20092,0.410841,0.13335,1.0
121788481,-0.198897,0.404905,0.131104,1.0
121820480,-0.199546,0.396752,0.129006,1.0
121852598,-0.197003,0.390935,0.126984,1.0
121884497,-0.198395,0.385364,0.125113,1.0
121916468,-0.194952,0.38117,0.123949,1.0
121948521,-0.191948,0.376359,0.12334,1.0
121976472,-0.191356,0.37227,0.122775,1.0
122008518,-0.186164,0.369205,0.146344,1.0
122040556,-0.182281,0.367343,0.241887,1.0
122072483,-0.156381,0.373157,0.633892,0.979376
122104507,-0.150857,0.379615,0.938361,0.962614
122136498,-0.132276,0.394861,1.42446,0.956836
122167523,-0.132641,0.39851,1.68603,0.958645
122200506,-0.135362,0.398655,1.87213,0.95976
122228468,-0.142103,0.397549,1.98158,0.960179
122260607,-0.14588,0.398101,2.10702,0.960071
122292483,-0.157287,0.392823,2.06538,0.960254
122324487,-0.164407,0.38769,2.00712,0.960338
122356519,-0.171734,0.384434,1.88021,0.959921
122388490,-0.215546,0.447304,1.4589,0.960176
122420502,-0.211484,0.43347,1.21775,0.96057
122451529,-0.176327,0.328024,0.980213,0.960375
122478623,-0.158881,0.317479,0.886583,0.95986
122512561,-0.143168,0.321546,0.78427,0.959516
122544479,-0.0330986,0.342669,0.677242,0.959751
122576486,0.192106,0.38001,0.574231,0.960057
122608504,1.02639,0.45996,0.471344,0.959803
122640585,1.51899,0.402264,0.382755,0.960196
122672499,1.91825,0.346429,0.290487,0.960568
122704528,2.49946,0.406492,0.202176,0.960094
122732480,2.51302,0.461221,0.134527,0.960204
122764518,2.22285,0.436166,0.0690625,0.960513
122796471,1.78984,0.3801,0.0185156,0.96058
122828498,1.33616,0.324539,-0.0267726,0.960552
122860516,0.931906,0.294317,-0.0675943,0.960347
122893496,0.636501,0.265326,-0.0983625,0.96007
122924492,0.39606,0.247581,-0.123061,0.960211
122956502,0.120392,0.23931,-0.141081,0.960404
122984481,-0.241463,0.247162,-0.15071,0.959892
123016561,-0.662235,0.262524,-0.156414,0.959726
123050708,-1.65604,0.301943,-0.150868,0.959887
123080491,-2.00468,0.318272,-0.145484,0.959606
123112518,-2.34845,0.328527,-0.135352,0.95954
123144489,-2.26331,0.320953,-0.125566,0.959566
123176480,-2.36886,0.319391,-0.111365,0.960254
123206574,-2.149,0.302363,-0.0990725,0.960391
123236516,-1.81699,0.285616,-0.0882965,0.960143
123268577,-1.40471,0.266445,-0.0758217,0.960513
123300488,-1.08798,0.248562,-0.0642199,0.960397
123332480,-0.812964,0.238237,-0.0516109,0.959523
123362593,-0.624633,0.225757,-0.0390543,0.959487
123396561,-0.455842,0.222162,-0.0269748,0.959778
123428484,-0.362448,0.214377,-0.0159651,0.96026
123460523,-0.273558,0.211353,-0.00511406,0.960596
123488489,-0.234265,0.208964,0.00393073,0.960571
123518721,-0.190264,0.206798,0.0131825,0.960545
123552483,-0.165668,0.207411,0.021393,0.960551
123584487,-0.147794,0.204255,0.0294757,0.960553
123616509,-0.128695,0.206237,0.0367987,0.960553
123648483,-0.121509,0.205436,0.0435265,0.960069
123680472,-0.110749,0.205856,0.0487009,0.960006
123712515,-0.108947,0.20566,0.0543561,0.959783
123740555,-0.109376,0.201746,0.0584809,0.960001
123772537,-0.104654,0.204493,0.0619448,0.960092
123804483,-0.105799,0.20021,0.0657321,0.959858
123836479,-0.10475,0.202831,0.0679257,0.959776
123868521,-0.105886,0.197981,0.0710442,0.960091
123900479,-0.106239,0.194386,0.0722421,0.960083
123932482,-0.102623,0.199146,0.0737113,0.960062
123964556,-0.101912,0.194165,0.074918,0.96054
123992522,-0.0959865,0.202182,0.0750525,0.960605
124024533,-0.0953466,0.191755,0.0749421,0.96055
124056483,-0.0924896,0.199942,0.0743286,0.960547
124088486,-0.0932368,0.192767,0.0741046,0.960551
124119468,-0.0905391,0.198264,0.0731959,0.96007
124152507,-0.0904777,0.202791,0.0727643,0.960006
124184549,-0.0915529,0.193406,0.071839,0.960265
124216609,-0.0897888,0.195252,0.0711767,0.960547
124246678,-0.0927952,0.180512,0.0687344,0.96037
124276519,-0.0890038,0.179975,0.0666593,0.960067
124308543,-0.0923923,0.168281,0.0649069,0.960001
124340482,-0.0931676,0.162617,0.0630934,0.960062
124372524,-0.092417,0.161063,0.060981,0.960065
124403053,-0.0935027,0.154158,0.0588997,0.960059
124436558,-0.092011,0.155179,0.0564983,0.960059
124468520,-0.0899604,0.152367,0.0545019,0.960059
124496485,-0.0901092,0.153267,0.0527334,0.960059
124528508,-0.0846535,0.154013,0.0510096,0.960059
124558635,-0.0875542,0.152723,0.0494256,0.960059
124593526,-0.0805167,0.152191,0.0480491,0.960059
124624507,-0.0809486,0.149634,0.0464784,0.960059
124656515,-0.0826289,0.149252,0.0448921,0.960059
124688541,-0.0783368,0.145377,0.04308,0.960059
124720515,-0.0868957,0.144947,0.0415127,0.960542
124748484,-0.0868317,0.145602,0.0405291,0.960605
124780549,-0.0867517,0.142503,0.0389587,0.960574
124812584,-0.0889611,0.147845,0.0378666,0.960547
124845518,-0.0861783,0.145563,0.036564,0.960551
124876516,-0.0873972,0.145102,0.0357375,0.96007
124908488,-0.0842343,0.143116,0.0345975,0.960006
124940539,-0.0823687,0.138588,0.0338776,0.960061
124972508,-0.0830118,0.142416,0.0328252,0.960064
125000541,-0.0805472,0.135856,0.0325417,0.960061
125032556,-0.081192,0.137732,0.0320318,0.960059
125064545,-0.0779705,0.135645,0.0316099,0.960059
125096475,-0.0761926,0.131723,0.0313033,0.960059
125128518,-0.0739185,0.130453,0.0310229,0.960059
125160487,-0.0725298,0.126702,0.0304445,0.960059
125192472,-0.0421317,0.136837,0.785398,0.0
125224538,-2.99257,3.83972,0.785398,0.12
125252485,-2.96753,3.83972,0.785398,0.12
125286582,-2.8282,3.7738,0.785398,0.125039
125316486,-2.63098,3.40047,0.785398,0.132581
125348475,-2.31457,2.818,0.785398,0.142998
125380570,-1.987,2.22525,0.785398,0.151831
125412473,-1.65903,1.65348,0.785398,0.158687
125443051,-1.37439,1.21381,0.785398,0.162953
125476522,-1.10567,0.83345,0.785398,0.165855
125504478,-0.911717,0.614826,0.785398,0.167277
125536521,-0.715163,0.400329,0.785398,0.168357
125568486,-0.567747,0.266154,0.785398,0.168916
125598669,-0.427583,0.162174,0.785398,0.169286
125632588,-0.326522,0.102797,0.785398,0.16947
125664485,-0.255577,0.0759126,0.785398,0.169563
125696488,-0.182329,0.0320977,0.785398,0.169637
125728525,-0.15635,0.0401744,0.785398,0.169653
125754602,-0.119273,0.028679,0.785398,0.169675
125788518,-0.110026,0.0462349,0.785398,0.169677
125820485,-0.0877465,0.0467017,0.785398,0.169686
125852482,-0.0748384,0.0549013,0.785398,0.169688
125884711,-0.0777405,0.068516,0.785398,0.169684
125916546,-0.0725387,0.0649225,0.785398,0.169687
125948480,-0.0820276,0.0782127,0.785398,0.16968
125980517,-0.0805477,0.0738989,0.785398,0.169682
126008481,-0.0880443,0.0915464,0.785398,0.169673
126042037,-0.0857223,0.0834035,0.785398,0.169677
126072554,-0.0893087,0.0911358,0.785398,0.169673
126104483,-0.0916148,0.0952644,0.785398,0.169671
126136516,-0.0952944,0.097154,0.785398,0.169668
126168502,-0.106429,0.117695,0.785398,0.169655
126200529,-0.0984354,0.114796,0.785398,0.16966
126232519,-0.098701,0.119685,0.785398,0.169657
126260486,-0.100567,0.118812,0.785398,0.169657
126292511,-0.106664,0.120521,0.766778,0.169654
126326674,-0.107437,0.122489,0.690934,0.169652
126356496,-0.106532,0.119183,0.632638,0.169654
126389472,-0.109675,0.12058,0.565493,0.169652
126420484,-0.111484,0.121097,0.505085,0.169651
126452468,-0.11011,0.121383,0.444914,0.169652
126482734,-0.111853,0.119268,0.387227,0.169652
126512552,-0.107876,0.120455,0.339397,0.169653
126544514,-0.109571,0.118839,0.288162,0.169653
126577533,-0.112851,0.12313,0.240808,0.16965
126608505,-0.111898,0.123221,0.196824,0.16965
126639354,-0.117409,0.12642,0.157271,0.169646
126672610,-0.119066,0.124722,0.121429,0.169646
126704484,-0.120519,0.126765,0.0887866,0.169644
126736533,-0.121225,0.127598,0.0592919,0.169643
126764483,-0.117779,0.126557,0.0377184,0.169646
126794693,-0.118517,0.126567,0.015405,0.169645
126828547,-0.123213,0.125018,-0.00263826,0.169644
126860523,-0.121404,0.125883,-0.0196444,0.169644
126892645,-0.120028,0.123348,-0.0330485,0.169646
126924483,-0.125006,0.125512,-0.043749,0.169643
126956480,-0.121067,0.124382,-0.0511821,0.169645
126988501,-0.123331,0.119571,-0.0574942,0.169646
127016479,-0.12358,0.121594,-0.0611548,0.169645
127048540,-0.130959,0.114411,-0.0640031,0.169645
127080601,-0.138048,0.117075,-0.064722,0.16964
127112524,-0.141745,0.111719,-0.0640483,0.16964
127144506,-0.140696,0.117023,-0.0632601,0.169638
127177484,-0.13184,0.116341,-0.0605758,0.169644
127208483,-0.14042,0.113757,-0.0570146,0.16964
127240513,-0.143678,0.117424,-0.053501,0.169636
127268560,-0.154425,0.1117,-0.0501248,0.169633
127300571,-0.16064,0.114997,-0.0451394,0.169627
127332481,-0.17213,0.112091,-0.0394523,0.169621
127366243,-0.171646,0.113933,-0.0339185,0.16962
127396535,-0.182123,0.111281,-0.0287058,0.169614
127428525,-0.192186,0.111438,-0.0237889,0.169607
127460489,-0.201745,0.113733,-0.0177138,0.169598
127492517,-0.192986,0.111511,-0.0126129,0.169606
127520496,-0.206224,0.103266,-0.00864466,0.169128
127552521,-0.205954,-0.187372,-0.00769603,0.162169
127584484,-0.194884,-0.65977,-0.0122843,0.164856
127616481,-0.108184,-1.74564,-0.0256733,0.193207
127648519,-0.0500366,-2.29969,-0.0315284,0.219703
127680486,-0.00892818,-2.57779,-0.0345428,0.24732
127712600,0.0184552,-2.5597,-0.033833,0.277644
127744504,0.0254621,-2.3483,-0.0312055,0.307449
127772486,0.0244843,-2.23245,-0.0294319,0.332042
127804518,0.015936,-1.92511,-0.0259662,0.358945
127836468,0.0136797,-1.66367,-0.021206,0.380886
127868487,0.00301305,-1.35573,-0.0174008,0.399863
127901488,-0.0125992,-1.07823,-0.0125806,0.414303
127932600,-0.0288065,-0.877553,-0.00834812,0.426349
127964502,-0.0338127,-0.689721,-0.00363272,0.435706
127994692,-0.0400267,-0.56155,0.000527033,0.443262
128024481,-0.0439372,-0.440641,0.00352857,0.448728
128056515,-0.0488669,-0.374685,0.00678588,0.453585
128088479,-0.0435876,-0.303699,0.00919083,0.458815
128120482,-0.0479644,-0.267507,0.0119673,0.462967
128150693,-0.0428746,-0.221479,0.0146747,0.466485
128184484,-0.0457165,-0.174823,0.0162334,0.46989
128216485,-0.0477064,-0.164885,0.0176203,0.472922
128248502,-0.0386606,-0.11507,0.018963,0.475646
128276481,-0.0435562,-0.121815,0.0201702,0.477723
128306623,-0.0440158,-0.113069,0.0208907,0.480064
128340481,-0.0425466,-0.120027,0.0221628,0.482121
128372525,-0.0406858,-0.101904,0.0230447,0.484046
128404530,-0.0422182,-0.115724,0.0236296,0.485977
128436484,-0.0426215,-0.104858,0.024132,0.487731
128468472,-0.0393214,-0.097207,0.0236832,0.489308
128500531,-0.0417068,-0.096124,0.0223968,0.490686
128528527,-0.0414101,-0.0917147,0.0218468,0.49201
128561486,-0.0326491,-0.0935284,0.0212673,0.492992
128592489,-0.036282,-0.0719305,0.020332,0.494243
128624478,-0.0273384,-0.0653886,0.0193819,0.495213
128656520,-0.0300507,-0.0642543,0.0184028,0.496272
128688481,-0.0337069,-0.0506171,0.0171311,0.497123
128720468,-0.0336089,-0.0510474,0.0164111,0.497886
128752535,-0.0363603,-0.0375636,0.0155838,0.498638
128780524,-0.0324899,-0.0225585,0.014357,0.49881
128812502,-0.0329465,-0.0122683,0.0135942,0.499563
128845486,-0.0325711,-0.00581823,0.0121842,0.500247
128878687,-0.0324497,0.00266706,0.0106345,0.501027
128908519,-0.0335133,0.0141419,0.00987411,0.501381
128940479,-0.0363429,0.0107448,0.00892672,0.501897
128972483,-0.0369534,0.0278226,0.00805755,0.501755
129004538,-0.0348952,0.039901,0.00717556,0.502017
129034787,-0.0364116,0.0479873,0.00732596,0.502189
129064515,-0.0348199,0.0429975,0.0076248,0.502803
129096468,-0.0346389,0.0391872,0.0068931,0.503173
129128483,-0.0350189,0.0558167,0.0073657,0.503117
129160529,-0.0295892,0.0587852,0.00679094,0.503298
129191393,-0.0286759,0.0645284,0.00614962,0.503395
129224468,-0.026361,0.0666732,0.00595051,0.503722
129256531,-0.0271631,0.062748,0.00574885,0.503677
129284482,-0.0256187,0.0789589,0.00555677,0.503422
129316518,-0.0239055,0.0838991,0.00593718,0.503432
129346938,-0.026798,0.0870439,0.00576948,0.503152
129380514,-0.0252799,0.0933923,0.00548057,0.503172
129412599,-0.0221504,0.0966415,0.0056057,0.503295
129444507,-0.0203182,0.0973533,0.00545564,0.503219
129476471,-0.0175013,0.100937,0.00568654,0.503026
129792480,-0.0261804,0.121956,0.00347073,0.50125
129826506,-0.0262297,0.106811,0.00359208,0.5013
129856505,-0.0246574,0.13093,0.00320519,0.500802
130297482,-0.0296408,0.142024,0.0046252,0.496909
130328593,-0.0269769,0.146565,0.00534732,0.496693
130360512,-0.0224376,0.141288,0.00495667,0.496286
130392481,-0.0232837,0.149492,0.0049501,0.495995
130424487,-0.0217851,0.140735,0.00456412,0.495855
130456510,-0.0287325,0.14807,0.00445722,0.495335
130488483,-0.0266089,0.148193,0.00485932,0.495022
130516557,-0.0279423,0.154342,0.00508073,0.494902
130548624,-0.0336233,0.159992,0.00455216,0.49471
130580543,-0.0324542,0.153051,0.00368995,0.494572
130612519,-0.0316251,0.148286,0.00440131,0.494402
130644493,-0.0270899,0.139589,0.00426192,0.494272
130677485,-0.0281696,0.142386,0.0039639,0.494058
130708515,-0.0275198,0.137153,0.00372354,0.49378
130740486,-0.0222402,0.140206,0.00405764,0.49363
130768510,-0.0229112,0.137765,0.00340013,0.493647
130802867,-0.0202238,0.138768,0.00330271,0.493394
130832523,-0.0189164,0.128691,0.00333141,0.493328
130864536,-0.0218038,0.126659,0.0032025,0.493112
130896483,-0.0191607,0.134462,0.00285928,0.493065
130928483,-0.0211936,0.126826,0.00247046,0.492896
130959028,-0.019102,0.125893,0.00239265,0.492713
130992471,-0.0165912,0.123526,0.00210191,0.492584
131020578,-0.0157505,0.11538,0.00219111,0.492418
131052479,-0.01897,0.124161,0.00197628,0.492062
131084468,-0.0253033,0.115791,0.00188776,0.491907
131114815,-0.026532,0.115649,0.00194686,0.491728
131148468,-0.0261832,0.117428,0.00189449,0.491613
131180511,-0.0251721,0.12281,0.00176628,0.491621
131212581,-0.0259461,0.118733,0.00192028,0.491778
131244481,-0.0213458,0.116139,0.00214823,0.491598
131271490,-0.023656,0.118387,0.00225948,0.491565
131304480,-0.0244061,0.113836,0.00195087,0.491783
131336468,-0.0205797,0.110932,0.00226012,0.491878
131363557,-0.0248139,0.107408,0.00320537,0.491711
131400557,-0.0237426,0.11057,0.00206215,0.491317
131430683,-0.0176239,0.112268,0.00159975,0.491343
131464561,-0.014515,0.111559,0.00204145,0.49146
131496485,-0.0231937,0.108161,0.00240304,0.491527
131524502,-0.0219196,0.106857,0.00244207,0.491508
131556484,-0.0228279,0.0987789,0.0030856,0.491644
131586786,-0.0172165,0.0928518,0.00385633,0.491746
131620645,-0.0235384,0.0851384,0.00398975,0.491717
131652483,-0.023405,0.0855173,0.00431396,0.491836
131684486,-0.0244496,0.0811967,0.00438556,0.492022
131716506,-0.0238744,0.0821997,0.00444768,0.491967
131748480,-0.0282293,0.0812584,0.00398028,0.491834
131780492,-0.0266355,0.0814053,0.00365424,0.491943
131812516,-0.0192841,0.0833164,0.0034438,0.491911
131846674,-0.0256086,0.0761845,0.00337333,0.491882
131876501,-0.028184,0.0751423,0.003842,0.491913
131908507,-0.03049,0.0684963,0.00381995,0.49188
131940482,-0.0299134,0.0624932,0.00385845,0.492185
131972486,-0.0217328,0.0652964,0.00353635,0.492129
132003489,-0.0236646,0.0593016,0.00344769,0.492105
132032484,-0.0174096,0.0673877,0.00327293,0.492206
132064518,-0.0190221,0.0681188,0.00333703,0.49218
132096481,-0.0223637,0.0657103,0.00325549,0.492264
132128497,-0.0144629,0.0570792,0.0032682,0.492309
132158887,-0.0180785,0.0514774,0.00301316,0.492193
132192467,-0.0161899,0.0497676,0.00281151,0.492013
132224468,-0.0189402,0.0469516,0.00266342,0.491961
132252484,-0.0196014,0.045296,0.00216314,0.491925
132284545,-0.0198373,0.0420453,0.00264871,0.492012
132315413,-0.0229215,0.0416736,0.00229669,0.492141
132348558,-0.0220428,0.0362575,0.00255946,0.491948
132380472,-0.0187579,0.0337044,0.00242773,0.491545
132412503,-0.0188547,0.0369553,0.0024514,0.49143
132444482,-0.015714,0.0316251,0.00181811,0.491336
132476486,-0.0201954,0.0274626,0.00199591,0.491471
132508578,-0.0156504,0.0221529,0.00168552,0.491801
132540482,-0.0175103,0.0225873,0.00191047,0.491848
132572482,-0.0225227,0.0193712,0.00183928,0.491764
132604574,-0.0171709,0.0157062,0.00129461,0.491734
132637513,-0.0215454,0.00922898,0.000959025,0.491611
132668488,-0.0165148,0.00412753,0.00117664,0.491551
132700610,-0.0168991,0.00619892,0.00125632,0.491637
132726630,-0.0165582,0.00408098,0.00155173,0.491657
132760574,-0.0181417,0.00522589,0.0015504,0.491618
132792533,-0.0186641,0.00582686,0.00103963,0.491578
132824515,-0.0165217,0.0076563,0.00107336,0.491493
132856500,-0.0217586,0.00842583,0.00131851,0.491364
132888472,-0.01808,-0.00290179,0.00101348,0.491275
132920556,-0.0215211,0.00399599,0.000954324,0.491235
132952518,-0.0146292,-0.00218903,0.00133988,0.491201
132980518,-0.0144401,0.00509824,0.00167318,0.491365
133012718,-0.0167632,0.00433861,0.00236958,0.491412
133044495,-0.00966123,-0.00140866,0.00288804,0.491371
133076484,-0.0168003,0.0079662,0.00292672,0.491164
133108504,-0.0141568,0.00612738,0.00280891,0.491213
133140563,-0.0105694,-4.77884e-05,0.00314225,0.491182
133172498,-0.00850718,0.00264444,0.00310192,0.491011
133204520,-0.0046101,0.00636551,0.00316552,0.491074
133232484,-0.00739449,-0.00828294,0.00332636,0.49111
133264522,-0.00838312,-0.0146073,0.00362177,0.490972
133298946,-0.00800937,-0.00698593,0.00317882,0.490981
133328562,-0.00984521,-0.0103142,0.00301595,0.490885
133360521,-0.00855732,-0.00453006,0.00290096,0.490838
133392481,-0.00817949,-0.0131289,0.0030329,0.490784
133424482,-0.00855775,-0.0145826,0.00261447,0.490745
133454632,-0.0112014,-0.0106649,0.0024326,0.490979
133484523,-0.010246,-0.00882703,0.00241895,0.490945
133516603,-0.00632113,-0.00360357,0.00239287,0.491014
133548486,-0.000925192,-0.0095255,0.00290104,0.491026
133580489,-0.00235811,-0.0125147,0.00340286,0.491074
133610689,-0.00577372,-0.0142035,0.00388109,0.490977
133644486,-0.00652122,-0.0237813,0.00362391,0.49097
133676486,-0.00816998,-0.0271848,0.00352753,0.491211
133708520,-0.0111879,-0.0272138,0.00360939,0.491135
133736489,-0.0108481,-0.0267062,0.00352576,0.490965
133766733,-0.0097597,-0.0207233,0.00306318,0.490967
133800481,-0.00803405,-0.0236472,0.00283726,0.49092
133832482,-0.00697705,-0.0206927,0.00167539,0.490814
133864510,-0.0080433,-0.0238434,0.00118268,0.490587
133896485,-0.00570033,-0.0197851,0.000912341,0.490597
133928478,-0.00874352,-0.0256325,0.000172827,0.490576
133960520,-0.0074368,-0.0239362,-0.000179068,0.490581
133988484,-0.00603892,-0.0250548,-0.000211936,0.490604
134020516,-0.00749105,-0.0321345,-0.000435278,0.490341
134044533,-0.00603472,-0.0255955,-0.00102627,0.490253
137140515,-3.83972,-2.12332,0.097778,0.490254
137172488,-3.83972,-1.99496,0.151781,0.12
137204479,-3.83972,-1.80613,0.15918,0.12
137236517,-3.83972,-1.59733,0.206417,1.0
137268490,-3.83972,-1.35953,0.253453,1.0
137302898,-3.83972,-1.08357,0.293227,1.0
137332531,-3.83972,-0.879493,0.317558,1.0
137364487,-3.83972,-0.68505,0.329946,1.0
137396562,-3.83972,-0.50424,0.334566,1.0
137428503,-3.83972,-0.369296,0.328031,1.0
137459033,-3.06081,-0.246954,0.317068,1.0
137488508,-2.50108,-0.176191,0.30237,1.0
137520518,-1.87627,-0.105116,0.283705,1.0
137552480,-1.35221,-0.0506839,0.262939,1.0
137584540,-0.977939,-0.0176886,0.241624,1.0
137615072,-0.629958,0.0121167,0.220485,1.0
137648492,-0.465177,0.0188142,0.198956,1.0
137680520,-0.302151,0.0251883,0.178461,1.0
137712472,-0.220945,0.0254422,0.158052,1.0
137740510,-0.171531,0.0230599,0.140565,1.0
137772606,-0.140078,0.0202268,0.121903,1.0
137804481,-0.139207,0.0105818,0.103468,1.0
137836523,-0.123423,0.00893048,0.0867894,1.0
137868502,-0.148222,-0.00461151,0.0708593,1.0
137900479,-0.118926,-0.00259859,0.055971,1.0
137932575,-0.141173,-0.0115723,0.043118,1.0
137964484,-0.131878,-0.0140043,0.0293887,1.0
137992985,-0.136741,-0.0170678,0.0188651,1.0
138025601,-0.143423,-0.0220468,0.00915908,1.0
138056467,-0.135,-0.0180367,-0.000880339,1.0
138088567,-0.153381,-0.0275218,-0.00789165,1.0
138120490,-0.135226,-0.0181019,-0.0148217,1.0
138153523,-0.135387,-0.0157805,-0.021094,1.0
138184509,-0.126016,-0.0163972,-0.025736,1.0
138216480,-0.128006,-0.0150431,-0.029604,1.0
138245521,-0.123745,-0.0169812,-0.0319547,1.0
138276484,-0.126786,-0.0153158,-0.0341185,1.0
138308482,-0.126011,-0.0157455,-0.0358313,1.0
138340518,-0.116898,-0.0147999,-0.0363572,1.0
138372480,-0.125241,-0.0162035,-0.0365326,1.0
138404486,-0.120413,-0.01811,-0.0355846,1.0
138436513,-0.129376,-0.0144754,-0.0339977,1.0
138468515,-0.125579,-0.0178891,-0.0323806,1.0
138499068,-0.136428,-0.00807675,-0.0302195,1.0
138528483,-0.131843,-0.0121904,-0.0286849,1.0
138560484,-0.139895,-0.00376809,-0.0265844,1.0
138592509,-0.133357,-0.00745659,-0.0242755,1.0
138624482,-0.12591,-0.0139261,-0.0222684,1.0
138654799,-0.125847,-0.0133741,-0.0202083,1.0
138688622,-0.115172,-0.0200071,-0.0173918,1.0
138720468,-0.117152,-0.0160933,-0.0151008,1.0
138748537,-0.106887,-0.0248209,-0.01326,1.0
138780499,-0.113201,-0.0158335,-0.010959,1.0
138811046,-0.10816,-0.0195671,-0.008614,1.0
138844583,-0.112369,-0.0127363,-0.00723847,1.0
138876516,-0.110014,-0.0138986,-0.00467898,1.0
138908530,-0.101657,-0.0225939,-0.00271578,1.0
138940581,-0.106014,-0.0176573,-0.0013077,1.0
138972472,-0.0961947,-0.0233368,0.00027873,1.0
139000533,-0.0985495,-0.0195329,0.00171844,1.0
139032516,-0.0916893,-0.0245165,0.00333084,1.0
139064483,-0.0924456,-0.0217514,0.00452875,1.0
139096556,-0.0939785,-0.0181198,0.00631789,1.0
139128518,-0.0905479,-0.0223412,0.00706744,1.0
139160488,-0.0946453,-0.0168897,0.00854391,1.0
139192520,-0.090515,-0.0169281,0.00915202,1.0
139224486,-1.97077,0.471631,0.0385399,0.632872
139252506,-1.80229,0.419226,0.0399467,0.622582
139284515,-1.62189,0.362219,0.0400875,0.613189
139316486,-1.30803,0.270082,0.0380379,0.606009
139348506,-0.989642,0.175686,0.0342623,0.597604
139380540,-0.774017,0.115248,0.0297984,0.587348
139412472,-0.541008,0.0526136,0.0256115,0.577899
139444507,-0.393634,0.0130331,0.0212854,0.569612
139476499,-0.241056,-0.0267015,0.0157043,0.560214
139504562,-0.113896,-0.0580473,0.0114905,0.553492
139536479,-0.0549026,-0.0774632,0.00670612,0.546986
139568486,0.0483707,-0.101011,0.00247803,0.541199
139600510,0.0892236,-0.103001,-0.00143598,0.535188
139632536,0.132067,-0.110692,-0.00442951,0.531379
139664481,0.139948,-0.111672,-0.00790191,0.52718
139695526,0.158635,-0.115299,-0.0103168,0.523922
139728482,0.2111,-0.121721,-0.0136056,0.520732
139756530,0.208653,-0.116828,-0.0144776,0.518601
139788486,0.259231,-0.127352,-0.0165825,0.515044
139820494,0.248152,-0.120332,-0.0177683,0.512686
139850721,0.288499,-0.128377,-0.0189226,0.510289
139884540,0.251684,-0.113313,-0.0187771,0.508642
139916537,0.240984,-0.106195,-0.0187941,0.506679
139948516,0.259133,-0.109994,-0.0189882,0.504873
139980549,0.222616,-0.100434,-0.0185851,0.503189
140006764,0.234853,-0.096434,-0.0181857,0.501661
140040491,0.194759,-0.0861185,-0.0175408,0.500334
140072516,0.193515,-0.0832087,-0.0165061,0.498861
140105468,0.183549,-0.0754068,-0.0153905,0.497711
140136536,0.178942,-0.0740322,-0.0143572,0.496442
140168532,0.189379,-0.075825,-0.0135932,0.495525
140200503,0.174578,-0.0695193,-0.0118697,0.494572
140232480,0.190321,-0.069633,-0.0107181,0.493642
140260519,0.180569,-0.0642491,-0.00925481,0.492982
140292486,0.179872,-0.0660543,-0.00789631,0.492187
140324601,0.172276,-0.0569371,-0.00662389,0.491557
140356561,0.180537,-0.0559954,-0.00574142,0.490959
140388485,0.164561,-0.0544138,-0.00418831,0.490469
140420487,0.170251,-0.0504117,-0.00286526,0.490294
140452605,0.172203,-0.0470306,-0.001827,0.490029
140484486,0.164539,-0.0433337,-0.000981786,0.489605
140512510,0.165309,-0.0417152,0.000220043,0.489315
140544468,0.145225,-0.0376282,0.00154003,0.489065
140578966,0.144548,-0.0331484,0.00257314,0.488749
140608513,0.130246,-0.031489,0.00346778,0.48865
140640537,0.126164,-0.0276485,0.00410192,0.488355
140672559,0.117645,-0.0323797,0.00483584,0.48822
140704513,0.115748,-0.0260446,0.00557231,0.488063
140734718,0.115074,-0.0264295,0.00601837,0.487914
140764562,0.110518,-0.0222162,0.00639435,0.487852
140796479,0.103292,-0.0251171,0.0072925,0.487954
140828550,0.104014,-0.0237209,0.00729986,0.488097
140860609,0.0977252,-0.0164954,0.00698637,0.488211
140892487,0.0873006,-0.0163478,0.00725637,0.488341
140924490,0.0720459,-0.00694034,0.00743374,0.488575
140956516,0.0669054,-0.0056474,0.00744352,0.48841
140988487,0.0615837,-0.00728203,0.00674805,0.488559
141016510,0.0603482,-0.00375097,0.00692138,0.488573
141046904,0.0579059,-0.00327507,0.0066324,0.488472
141080632,0.0516149,0.000896526,0.00584539,0.488385
141113582,0.0562303,-0.00221847,0.00508587,0.488432
141144468,0.0489914,-0.00123231,0.00454184,0.488558
141176560,0.0461314,-0.00180266,0.00435324,0.488698
141208512,0.0346815,0.00195679,0.00417751,0.488768
141240468,0.0341762,0.00495872,0.00361116,0.488964
141268590,0.0229602,0.00524592,0.00379018,0.489168
141300479,0.0184278,0.00858429,0.00379537,0.489232
141332481,0.0133718,0.00612673,0.00292641,0.48926
141365477,0.00778004,0.00913403,0.00277162,0.48941
141396478,0.00958674,0.00894601,0.00194149,0.489503
141428517,0.00547023,0.00619859,0.0013329,0.48949
141460509,0.00329463,0.0124709,0.000924717,0.489484
141492481,-0.00396028,0.00930508,0.000405321,0.489407
141520567,-0.00761126,0.0117606,5.73462e-05,0.489379
141552479,-0.00745304,0.00775354,-0.000526172,0.489338
141584468,-0.0101069,0.00608765,-0.0010099,0.489314
141616523,-0.0141397,0.00454464,-0.00107552,0.489594
141648517,-0.0175685,0.00570546,-0.00161231,0.489465
141680488,-0.0122084,0.00372125,-0.00121287,0.489323
141712588,-0.0231912,0.00732634,-0.00198185,0.489267
141744468,-0.0264085,0.010001,-0.00223191,0.489259
141775326,-0.0326849,0.0106024,-0.00246549,0.489514
141804497,-0.0411952,0.0110354,-0.00257238,0.48966
141836484,-0.0425277,0.0143076,-0.00261647,0.489642
141868565,-0.0536227,0.0125303,-0.00285315,0.4895
141900482,-0.0530577,0.0141447,-0.0034562,0.489514
141931023,-0.0572623,0.00992796,-0.00368758,0.489436
141964563,-0.0555732,0.0105333,-0.00313717,0.489588
141996512,-0.0580076,0.0129528,-0.00398686,0.489598
142024524,-0.057079,0.00650869,-0.00417104,0.489468
142056498,-0.0589357,0.0148244,-0.0045951,0.489418
142086756,-0.0582228,0.00719597,-0.00421002,0.489379
142120523,-0.0604751,0.0205703,-0.00467484,0.489404
142152523,-0.0588456,0.0190714,-0.00443403,0.489484
142184560,-0.0681814,0.0187339,-0.00468248,0.489418
142216511,-0.0645319,0.0154872,-0.00452069,0.48928
142248482,-0.0725265,0.0145836,-0.00402313,0.489079
142276583,-0.0727399,0.0176283,-0.00343434,0.489143
142308522,-0.0803515,0.0194599,-0.00321774,0.489141
142324517,-0.0789006,0.0208952,-0.00325961,0.489115
145056474,3.83972,0.580204,-0.081307,0.489148
145088503,3.83972,0.756325,-0.0527612,1.0
145120507,3.83972,0.729042,-0.0363788,1.0
145152584,3.83972,0.66799,-0.025927,1.0
145184502,3.83972,0.557132,-0.0166743,1.0
145216507,3.34746,0.449762,-0.00915511,1.0
145248486,2.60322,0.346277,-0.00412033,1.0
145280567,1.93052,0.247021,0.000908963,1.0
145310923,1.39664,0.182088,0.00439638,1.0
145345478,0.928496,0.121134,0.00817731,1.0
145376472,0.629646,0.0876503,0.0106281,1.0
145408505,0.37851,0.0606532,0.0118341,1.0
145436550,0.234903,0.0421008,0.013432,1.0
145466888,0.0946173,0.0247649,0.0142731,1.0
145500559,0.00660636,0.012058,0.0151016,1.0
145532487,-0.0354077,0.00645707,0.0158986,1.0
145564513,-0.0941196,-0.00168655,0.0156217,1.0
145596500,-0.10379,-0.00447544,0.0152979,1.0
145628480,-0.13063,-0.00750288,0.0141858,1.0
145660569,-0.130839,-0.00986945,0.0133271,1.0
145692487,-0.130371,-0.010523,0.0118888,1.0
145720600,-0.156966,-0.0198383,0.0110127,1.0
145752519,-0.149715,-0.0205655,0.0100765,1.0
145784489,-0.1609,-0.0242384,0.00877432,1.0
145816515,-0.153102,-0.0213419,0.0073862,1.0
145848486,-0.146467,-0.0195997,0.00514798,1.0
145880520,-0.14393,-0.0192804,0.0037067,1.0
145912521,-0.133211,-0.0161781,0.00256486,1.0
145944527,-0.12936,-0.0156277,0.00135904,1.0
145972533,-0.115998,-0.0128862,0.000650657,1.0
146004483,-0.118408,-0.0121851,0.000121217,1.0
146038870,-0.111345,-0.0121253,-0.000837785,1.0
146068562,-0.107075,-0.0115782,-0.00191037,1.0
146101536,-0.107276,-0.0109253,-0.00324607,1.0
146132476,-0.102514,-0.010168,-0.00393404,1.0
146164515,-0.107298,-0.010911,-0.00420747,1.0
146194930,-0.101162,-0.00872859,-0.00465638,1.0
146224507,-0.10226,-0.00934116,-0.00552126,1.0
146256496,-0.100934,-0.00893746,-0.00632452,1.0
146288516,-0.0999708,-0.00887503,-0.00696232,1.0
146320507,-0.102022,-0.00937703,-0.00718902,1.0
146351000,-0.100894,-0.00902735,-0.00681181,1.0
146384505,-0.10066,-0.0092842,-0.00699357,1.0
146416514,-0.099672,-0.00911774,-0.00760017,1.0
146448481,-0.0975271,-0.00864127,-0.00799359,1.0
146476509,-0.0975578,-0.0108798,-0.00815655,1.0
146506766,-0.0973007,-0.00899223,-0.00805894,1.0
146540495,-0.0974247,-0.00771896,-0.00805068,1.0
146572537,-0.0965833,-0.00844386,-0.00767165,1.0
146604493,-0.098513,-0.00830367,-0.00688941,1.0
146636468,-0.0980871,-0.00874982,-0.0061777,1.0
146668534,-0.0976247,-0.00695898,-0.00577042,1.0
146700479,-0.0976753,-0.00681119,-0.00505282,1.0
146728502,-0.096591,-0.00802324,-0.00457207,1.0
146760485,3.83972,0.845406,-0.1679,0.999824
146792480,3.83972,0.841472,-0.175141,0.973658
146822789,1.61648,0.23735,-0.034717,1.0
146856479,1.64093,0.242327,-0.0430907,1.0
146888557,1.53663,0.220881,-0.0528987,1.0
146920538,1.54194,0.238281,-0.0642366,1.0
146952482,1.58868,0.256171,-0.0789336,1.0
146980507,1.55372,0.264551,-0.0911605,1.0
147012608,1.49936,0.26648,-0.107087,1.0
147044468,1.37767,0.252838,-0.12387,1.0
147076505,1.4632,0.284101,-0.148172,0.991406
147108582,1.09621,0.214454,-0.142657,0.972711
147140473,0.827589,0.168645,-0.135231,0.950212
147172517,0.61291,0.132916,-0.12763,0.928905
147204514,0.397798,0.0947455,-0.120258,0.905693
147234789,0.290901,0.0746394,-0.111043,0.883629
147264499,0.167957,0.0481575,-0.103929,0.864053
147296471,0.103583,0.037796,-0.0948877,0.842359
147328609,0.04622,0.0277954,-0.0863641,0.822289
147360487,-0.00571601,0.0193984,-0.0779097,0.806245
147391030,-0.0268175,0.0137349,-0.0695023,0.792822
147424561,-0.170375,-0.0211144,-0.0503551,0.769142
147456468,-0.252626,-0.0370573,-0.0330233,0.747649
147484523,-0.347351,-0.0586717,-0.0177702,0.731683
147516503,-0.412444,-0.0730735,-0.000148684,0.714051
147546997,-0.520721,-0.100904,0.018517,0.695957
147580581,-0.579947,-0.11204,0.0325967,0.681622
147613472,-0.651143,-0.131108,0.0486563,0.667088
147644483,-0.741429,-0.1518,0.0641099,0.650969
147673486,-0.831052,-0.172292,0.077735,0.636093
147708543,-0.867051,-0.18166,0.0889187,0.624081
147736507,-0.870151,-0.185151,0.0965524,0.615764
147768485,-0.902578,-0.194321,0.103946,0.60532
147800484,-0.916729,-0.195436,0.109704,0.596147
147832561,-0.932106,-0.200587,0.113978,0.587319
147864558,-0.974351,-0.203053,0.116766,0.577648
147896472,-0.950259,-0.194834,0.11544,0.571257
147928525,-0.955545,-0.196365,0.114842,0.564162
147960481,-0.958363,-0.197656,0.113701,0.557464
147988507,-0.935111,-0.191955,0.110137,0.552784
148020541,-0.973168,-0.195814,0.107013,0.545712
148052499,-0.934761,-0.187315,0.100692,0.541262
148084504,-0.94046,-0.18453,0.0945555,0.53622
148116482,-0.934202,-0.180347,0.0878797,0.532051
148148481,-0.930129,-0.180318,0.0815759,0.528123
148180501,-0.895528,-0.170506,0.0738031,0.525432
148212480,-0.902783,-0.170131,0.0666685,0.5223
148240558,-0.909531,-0.171938,0.0603741,0.519831
148272483,-0.889996,-0.168292,0.0522513,0.517798
148304504,-0.872391,-0.163701,0.0442913,0.515925
148336505,-0.763592,-0.173946,0.000352129,1.0
148367187,-0.59898,-0.135287,-0.00714517,1.0
148400479,-0.457665,-0.102004,-0.0123667,1.0
148430879,-0.340273,-0.0743949,-0.0174335,1.0
148464481,-0.25191,-0.049554,-0.0209415,1.0
148492511,-0.195058,-0.0397215,-0.0237806,1.0
148524483,-0.145636,-0.0233749,-0.0259911,1.0
148556471,-0.111323,-0.0190381,-0.027477,1.0
148586960,-0.0863337,-0.00951554,-0.0280801,1.0
148620534,-0.0730994,-0.00593153,-0.029633,1.0
148652579,-0.0641068,-0.00543569,-0.0295439,1.0
148684519,-0.0541894,0.00148011,-0.0300525,1.0
148716482,-0.0550636,-0.00185522,-0.0299409,1.0
148744511,-0.0469705,0.00503459,-0.028879,1.0
148776485,-0.0518184,-0.00121448,-0.0278907,1.0
148808550,-0.0486955,-0.000885551,-0.0269215,1.0
148840515,-0.0520973,-0.00351297,-0.0258845,1.0
148872559,-0.0528153,-0.00510638,-0.0243508,1.0
148904486,-0.05244,-0.00552426,-0.0228924,1.0
148936517,-0.0543539,-0.0064191,-0.0208314,1.0
148968500,-0.0493204,-0.00613813,-0.0186958,1.0
148996508,-0.0557371,-0.00779732,-0.0165663,1.0
149028482,-0.050768,-0.00826326,-0.0146439,1.0
149060562,-0.0537691,-0.0103032,-0.012981,1.0
149092532,-0.0549971,-0.0104354,-0.0113192,1.0
149124481,-0.0533148,-0.0119237,-0.00950936,1.0
149156484,-0.0566323,-0.0110688,-0.00734735,1.0
149188507,-0.0545464,-0.00991789,-0.00567929,1.0
149220468,-0.0594056,-0.00933545,-0.00453525,1.0
149248571,-0.0587023,-0.00780114,-0.00338887,1.0
149280481,-0.0596262,-0.00910824,-0.00238535,1.0
149314910,-0.0581448,-0.00619839,-0.00105698,1.0
149345496,-0.0549278,-0.00658711,-0.000180846,1.0
149377536,-0.0541467,-0.00608142,0.000511419,1.0
149408498,-0.0512939,-0.00497581,0.00142248,1.0
149440515,-0.050776,-0.00728964,0.00190888,1.0
149472523,-0.0489474,-0.00521117,0.00231861,1.0
149500515,-0.0491657,-0.00779743,0.00240189,1.0
149532480,-0.0493392,-0.00845974,0.00282091,1.0
149564538,-0.0485571,-0.010049,0.00371805,1.0
149596503,-0.0483564,-0.010943,0.00380542,1.0
149627213,-0.0491226,-0.00934771,0.00331068,1.0
149660485,-0.0499989,-0.010266,0.00316704,1.0
149692584,-0.0487574,-0.0100644,0.00313,1.0
149724483,-0.0490542,-0.0106598,0.00324506,1.0
149752569,-0.0489595,-0.00904054,0.00301303,1.0
149782845,-0.0491006,-0.012211,0.00245481,1.0
149816485,-0.048046,-0.00914193,0.00186193,1.0
149848544,-0.0447207,-0.010538,0.00185993,1.0
149880481,-0.0452025,-0.00856593,0.00145441,1.0
149912513,-0.042874,-0.00793346,-0.0475297,1.0
149944501,-0.0410587,-0.0122841,-0.161324,1.0
149972485,-0.0416224,-0.00768037,-0.323642,1.0
150004566,-0.0383063,-0.00704656,-0.594823,1.0
150036486,-0.0332639,-0.00253827,-0.75542,1.0
150068487,-0.0307164,0.00482352,-0.915339,1.0
150100531,-0.0267203,0.00848846,-1.13338,1.0
150132521,-0.0231328,0.0138483,-1.27955,1.0
150164486,-0.0179468,0.0178701,-1.43618,1.0
150196507,-0.0118863,0.024019,-1.56185,1.0
150228481,-0.0100134,0.0306928,-1.6966,1.0
150256568,-0.00558305,0.034982,-1.79227,1.0
150288487,-0.00329385,0.0417015,-1.9094,1.0
150320489,0.00116629,0.046683,-2.03805,1.0
150352554,0.00319755,0.0528231,-2.1226,1.0
150384483,0.00793108,0.0578825,-2.20699,1.0
150416468,0.0123133,0.0627772,-2.26772,1.0
150448508,0.0153227,0.067168,-2.29632,1.0
150480562,0.0178569,0.071954,-2.19668,1.0
150509124,0.0222779,0.0754514,-2.06979,1.0
150542487,0.0230472,0.079239,-1.89045,1.0
150572518,0.0155666,0.0655283,-1.53285,1.0
150604508,0.0104968,0.0549406,-1.24343,1.0
150636482,-0.00184077,0.0380145,-0.825553,1.0
150667019,-0.0144016,0.0274449,-0.621371,1.0
150700509,-0.0268504,0.0179448,-0.402345,1.0
150732479,-0.037269,0.011266,-0.0838919,1.0
150760504,-0.0442717,0.00669728,0.146807,1.0
150792473,-0.0506848,0.00329322,0.410093,1.0
150823022,-0.0540572,0.00539837,0.746598,1.0
150856511,-0.0617044,0.00445193,1.0047,1.0
150888556,-0.0647198,0.00639367,1.30395,1.0
150920481,-0.0689248,0.00887515,1.58063,1.0
150952511,-0.071348,0.0122007,1.90209,1.0
150984480,-0.0727598,0.0158626,2.26478,1.0
151012516,-0.0750919,0.0165604,2.49324,1.0
151044479,-0.0752864,0.0201636,2.72641,1.0
151076487,-0.0777576,0.0235205,3.02973,1.0
151108598,-0.0781411,0.0283732,3.29805,1.0
151140534,-0.0810762,0.0306404,3.49066,1.0
151172485,-0.0155183,0.0914542,3.49066,1.0
151204518,0.0539495,0.176969,3.49066,1.0
151236469,0.166046,0.338851,3.49066,1.0
151264606,0.146332,0.380881,3.49066,1.0
151296538,0.100149,0.418937,3.49066,1.0
151328476,0.0436833,0.461031,3.49066,1.0
151360510,0.0411499,0.53822,3.49066,1.0
151392494,-0.000760172,0.557943,3.49066,1.0
151424483,-0.0473848,0.550613,3.49066,1.0
151456518,-0.111905,0.511298,3.49066,1.0
151488482,-0.154992,0.465699,3.47789,1.0
151516520,-0.194525,0.403883,3.22862,1.0
151550887,-0.352787,0.198393,2.99349,1.0
151580482,-0.520691,0.0186941,2.84319,1.0
151612506,-0.731537,-0.190372,2.61811,1.0
151645484,-0.656971,-0.111816,2.38003,1.0
151677490,-0.552642,-0.0118884,2.11785,1.0
151706916,-0.463161,0.0476191,1.86447,1.0
151740541,-0.372249,0.0762347,1.60679,1.0
151768510,-0.294219,0.0860811,1.37069,1.0
151800487,-0.213875,0.0915409,1.06894,1.0
151832486,-0.12421,0.0842936,0.764333,1.0
151863103,-0.0255909,0.101302,0.401333,1.0
151896478,0.104754,0.121072,0.116378,1.0
151928468,0.306836,0.137743,-0.157908,1.0
151960573,0.375932,0.110147,-0.406373,1.0
151988486,0.438074,0.0839872,-0.60891,1.0
152018957,0.483181,0.0584296,-0.81518,1.0
152052481,0.512388,0.00945284,-0.916672,1.0
152084475,0.424004,-0.0703318,-1.00439,1.0
152117479,0.0807359,-0.152114,-0.970331,1.0
152148483,-0.13456,-0.0877944,-1.01964,1.0
152180524,-0.186272,0.172433,-1.08881,1.0
152212513,-0.127431,0.244914,-1.17077,1.0
152244580,-0.0740158,0.226775,-1.22987,1.0
152272519,-0.0481626,0.196202,-1.27226,1.0
152304483,0.000230926,0.172122,-1.30699,1.0
152336479,0.0358097,0.16098,-1.32955,1.0
152368647,0.0722649,0.148873,-1.34053,1.0
152400496,0.104006,0.140764,-1.33757,1.0
152432483,0.12066,0.14347,-1.32096,1.0
152464601,0.140201,0.143182,-1.29054,1.0
152496488,0.15214,0.149169,-1.2468,1.0
152528497,0.14641,0.13568,-1.19465,1.0
152560520,0.135446,0.112128,-1.13671,1.0
152591199,0.102041,0.0792825,-1.07522,1.0
152624481,0.0800843,0.0482538,-1.01122,1.0
152656508,0.0517119,0.0210505,-0.945773,1.0
152686514,0.0364603,-0.00237327,-0.888955,1.0
152720543,0.0204816,-0.0217826,-0.816019,1.0
152747311,0.00673743,-0.0389837,-0.760384,1.0
152780483,-3.83972,0.569901,-0.707188,0.120236
152812505,-3.83972,1.11732,-0.521389,0.123529
152844481,-3.83972,0.977297,-0.470972,0.130878
152876631,-3.68219,0.763346,-0.43002,0.141305
152908603,-3.07304,0.594058,-0.392775,0.150031
152940483,-2.38755,0.40327,-0.356908,0.157931
152972579,-1.80367,0.257874,-0.321974,0.163038
153000481,-1.39252,0.167944,-0.295962,0.165755
153032471,-1.0164,0.0775925,-0.268853,0.167619
153063348,-0.702663,0.0244925,-0.241002,0.168713
153096536,-0.465837,-0.00995636,-0.215827,0.16927
153128598,-0.313711,-0.0303575,-0.195403,0.169506
153160515,-0.177443,-0.0413063,-0.176822,0.169639
153188487,-0.129457,-0.0529831,-0.16383,0.169666
153224485,-0.0680634,-0.0637363,-0.150691,0.169688
153252483,-0.0385982,-0.0648924,-0.142059,0.169694
153284518,-0.0292937,-0.070354,-0.135144,0.169694
153318966,0.0068945,-0.0713287,-0.12983,0.169695
153348497,0.00468475,-0.0714928,-0.127073,0.169695
153380545,0.0133083,-0.0714426,-0.125709,0.169695
153412649,0.011381,-0.0632951,-0.123792,0.169697
153444481,-0.0008069,-0.0691603,-0.12694,0.169696
153475034,-0.00264287,-0.071543,-0.130898,0.169695
153504518,-0.0126301,-0.0721317,-0.134923,0.169695
153536482,-0.0143227,-0.0702496,-0.139667,0.169695
153568600,-0.0202092,-0.0697052,-0.142507,0.169695
153600481,-0.0216196,-0.066674,-0.147068,0.169696
153631103,-0.0222518,-0.0674253,-0.152189,0.169696
153664514,-0.0245313,-0.0724908,-0.160016,0.169694
153693483,-0.024488,-0.0722959,-0.165317,0.169694
153728488,-0.0238225,-0.0693215,-0.171411,0.169695
153756485,-0.0228139,-0.063072,-0.174183,0.169697
153786896,-0.0213746,-0.0590851,-0.177326,0.169698
153820575,-0.0211609,-0.0608962,-0.183534,0.169697
153852485,-0.0237511,-0.0673205,-0.191186,0.169695
153884483,-0.0234658,-0.0720665,-0.19771,0.169694
153916521,-0.0245995,-0.0685223,-0.202145,0.169695
153948484,-0.0243571,-0.0621478,-0.202383,0.169697
153980485,-0.0248745,-0.0627131,-0.207408,0.169697
154008554,-0.0244958,-0.0623706,-0.209896,0.169697
154040584,-0.0242915,-0.0646041,-0.215479,0.169696
154072576,-0.0249776,-0.0670354,-0.218303,0.169695
154104481,-0.025102,-0.0626031,-0.221788,0.169697
154136486,-0.0247133,-0.0622198,-0.224651,0.169697
154168533,-0.0249114,-0.0553627,-0.224574,0.169698
154200479,-0.0244699,-0.0593767,-0.230262,0.169697
154228521,-0.0213379,-0.0548735,-0.229178,0.169699
154260481,-0.0218688,-0.0467964,-0.228221,0.1697
154293491,-0.0211153,-0.052258,-0.22965,0.169699
154324508,-0.0207603,-0.0520037,-0.229674,0.169699
154356486,-0.0237405,-0.0594952,-0.234009,0.169697
154388484,-0.0227486,-0.0671252,-0.236442,0.169696
154420516,-0.027506,-0.0658976,-0.237982,0.169695
154452479,-0.0266454,-0.0742412,-0.243013,0.169693
154484515,-0.0249764,-0.0699295,-0.240675,0.169695
154515159,-0.0228493,-0.0619286,-0.238096,0.169697
154544483,-0.0221089,-0.0702761,-0.240503,0.169695
154576577,-0.023205,-0.0655423,-0.238469,0.169696
154608490,-0.0209564,-0.0689207,-0.239177,0.169695
154640481,-0.024164,-0.0726733,-0.24059,0.169694
154670961,-0.0214824,-0.0616983,-0.236091,0.169697
154704479,-0.0216256,-0.0730282,-0.238544,0.169694
154736482,-0.0256762,-0.068436,-0.238397,0.169695
154764562,-0.0231616,-0.072985,-0.23784,0.169694
154796541,-0.0225172,-0.0648857,-0.234606,0.169696
154827328,0.165996,-0.0962798,-0.24063,0.164899
154860485,0.368222,-0.129731,-0.24806,0.15961
154892709,0.556903,-0.152834,-0.250448,0.154367
154924517,0.741322,-0.187717,-0.258501,0.149012
154956481,0.886476,-0.201251,-0.26012,0.144173
154988483,1.03554,-0.227389,-0.263684,0.139333
155016538,1.09177,-0.238218,-0.264958,0.136217
155048479,1.16734,-0.271634,-0.271898,0.132648
155080501,1.2638,-0.278966,-0.270627,0.129115
155112628,1.47986,-0.299966,-0.26943,0.135945
155116516,1.55709,-0.305927,-0.268573,0.140726
156584487,3.83972,-3.42558,-0.286935,0.145324
156612480,3.83972,-2.76893,-0.221031,0.12
156646894,3.83972,-1.83669,-0.249005,1.0
156676519,3.31826,-1.17999,-0.232187,1.0
156709481,1.05375,-0.624864,-0.206364,1.0
156740482,-0.251561,-0.269947,-0.18895,1.0
156772505,-0.743487,-0.103026,-0.18106,1.0
156803125,-0.874098,-0.0223903,-0.17853,1.0
156836485,-0.807921,0.0101763,-0.178453,1.0
156864489,-0.639597,-0.000951292,-0.179864,1.0
156896500,-0.462863,-0.0133586,-0.181619,1.0
156928656,-0.237672,-0.0467818,-0.183639,1.0
156959595,-0.0904679,-0.0700302,-0.18539,1.0
156992486,0.074493,-0.101506,-0.187372,1.0
157024501,0.188392,-0.124694,-0.189234,1.0
157056482,0.281132,-0.143288,-0.190814,1.0
157088485,0.349713,-0.159148,-0.191981,1.0
157115006,0.382793,-0.163458,-0.192583,1.0
157148600,0.424055,-0.174413,-0.194002,1.0
157180501,0.429129,-0.173187,-0.194562,1.0
157212479,0.441834,-0.176798,-0.195089,1.0
157244486,0.438544,-0.175006,-0.194658,1.0
157271207,0.447951,-0.175899,-0.194419,1.0
157308479,0.440519,-0.173564,-0.193199,1.0
157336502,0.446662,-0.172801,-0.192679,1.0
157367096,0.446163,-0.173027,-0.191808,1.0
157400484,0.440257,-0.168887,-0.190908,1.0
157432591,0.435584,-0.164683,-0.189273,1.0
157464483,0.427294,-0.160902,-0.187409,1.0
157497480,0.42339,-0.157037,-0.185454,1.0
157528523,0.415069,-0.154933,-0.182835,1.0
157556599,0.413231,-0.151372,-0.180219,1.0
157592521,0.403189,-0.147225,-0.177136,1.0
157620497,0.398711,-0.14467,-0.175298,1.0
157652468,0.396219,-0.142669,-0.172218,1.0
157687069,0.392051,-0.140761,-0.168603,1.0
157716481,0.388772,-0.141321,-0.166195,1.0
157749474,0.382194,-0.14002,-0.163144,1.0
157780520,0.380306,-0.138642,-0.160307,1.0
157812483,0.376418,-0.139331,-0.157483,1.0
157843188,0.37598,-0.135867,-0.155047,1.0
157874471,0.372129,-0.135124,-0.153102,1.0
157904485,0.370978,-0.134592,-0.149967,1.0
157936519,0.368329,-0.133367,-0.147145,1.0
157968488,0.361459,-0.133222,-0.14387,1.0
157999123,0.359897,-0.130484,-0.141111,1.0
158032553,0.355998,-0.1288,-0.138609,1.0
158064560,3.22928,-0.808666,-0.0664164,0.960418
158096481,2.92028,-0.735535,-0.0588186,0.967553
158124478,2.68418,-0.683463,-0.0523958,0.959296
158155039,2.26761,-0.586798,-0.0467113,0.955981
158188505,1.87429,-0.502967,-0.0413674,0.936599
158220473,1.55156,-0.427998,-0.0385785,0.913924
158252599,1.244,-0.358356,-0.0364507,0.88216
158284574,1.07803,-0.320791,-0.0347652,0.849837
158316486,0.891432,-0.281687,-0.0337614,0.815912
158348479,0.771705,-0.249761,-0.0347569,0.785526
158377485,0.690209,-0.229826,-0.035373,0.763731
158408483,0.5584,-0.201852,-0.0384967,0.736813
158440504,0.499059,-0.182357,-0.0417564,0.715195
158472652,-3.14723,0.737346,-0.0771008,1.0
158505708,-2.68663,0.636633,-0.08246,1.0
158536524,-2.33171,0.55221,-0.0869028,1.0
158568482,-1.76155,0.417351,-0.0909569,1.0
158600550,-1.26601,0.297409,-0.0947036,1.0
158628481,-0.923342,0.214506,-0.0974242,1.0
158660641,-0.528117,0.117613,-0.100219,1.0
158693603,-0.297434,0.0592725,-0.102361,1.0
158724483,-0.0724629,0.00211583,-0.104599,1.0
158756493,0.0244901,-0.0239149,-0.10559,1.0
158788511,0.145089,-0.0557245,-0.106391,1.0
158820483,0.223435,-0.0780048,-0.106621,1.0
158852548,0.221576,-0.0819872,-0.106745,1.0
158883167,0.282465,-0.0961769,-0.105856,1.0
158912487,0.259095,-0.0951826,-0.105539,1.0
158944521,0.277381,-0.099589,-0.103699,1.0
158977485,0.28566,-0.103085,-0.102352,1.0
159008483,0.287861,-0.100325,-0.100978,1.0
159039134,0.312924,-0.10766,-0.0995482,1.0
159072483,0.290449,-0.100433,-0.097704,1.0
159104534,0.292293,-0.101712,-0.0957048,1.0
159132480,0.275447,-0.096066,-0.0932835,1.0
159164494,0.275034,-0.0965041,-0.0916686,1.0
159195179,0.269342,-0.0941311,-0.0889201,1.0
159228483,0.251974,-0.0885738,-0.0866332,1.0
159260472,0.250045,-0.0870058,-0.0841583,1.0
