timestamp,rollspeed,pitchspeed,yawspeed,q[0],q[1],q[2],q[3],delta_q_reset[0],delta_q_reset[1],delta_q_reset[2],delta_q_reset[3],quat_reset_counter
18411741,-0.00737787,0.0015019,0.00901069,0.99982,0.00102835,0.0010491,-0.0189359,1.0,0.0,0.0,0.0,0
18415741,0.00279572,-0.0210801,0.00714896,0.99982,0.00103308,0.00100677,-0.0189146,1.0,0.0,0.0,0.0,0
18447746,-0.0140316,0.00349818,-0.00593223,0.999822,0.00100351,0.000955012,-0.0188196,1.0,0.0,0.0,0.0,0
18474764,-0.00292615,0.000298229,0.0190435,0.999825,0.00105878,0.000839014,-0.018671,1.0,0.0,0.0,0.0,0
18507735,0.00916261,-0.00245835,-0.000815219,0.999826,0.00106827,0.000805726,-0.0185975,1.0,0.0,0.0,0.0,0
18542238,3.83258e-05,-0.0120439,0.00359558,0.999829,0.00100587,0.000829361,-0.0184409,1.0,0.0,0.0,0.0,0
18571739,0.0139875,0.000824924,-0.00359352,0.999828,0.000958991,0.000843505,-0.0184933,1.0,0.0,0.0,0.0,0
18603757,0.000710751,-0.00029178,0.0066084,0.999828,0.000864799,0.000820771,-0.0185045,1.0,0.0,0.0,0.0,0
18635735,0.0025106,0.00865173,0.000764202,0.999829,0.000849208,0.000867483,-0.0184544,1.0,0.0,0.0,0.0,0
18667734,0.00974668,0.00790348,-0.0036765,0.999828,0.00087344,0.000902744,-0.018484,1.0,0.0,0.0,0.0,0
18699747,0.000310134,-0.0287332,-0.002943,0.999828,0.000829051,0.000841369,-0.018517,1.0,0.0,0.0,0.0,0
18728910,-0.00766713,0.0060136,-0.0126641,0.999829,0.000660629,0.00070166,-0.0184732,1.0,0.0,0.0,0.0,0
18758732,-0.00332061,-0.00252132,0.00562392,0.999832,0.000604431,0.000516474,-0.018327,1.0,0.0,0.0,0.0,0
18791775,-0.00190545,-0.0127083,-0.0183527,0.999832,0.00042597,0.000502576,-0.0183335,1.0,0.0,0.0,0.0,0
18823745,-0.0376995,-0.000254839,0.000407571,0.999833,0.000388692,0.000228281,-0.0182798,1.0,0.0,0.0,0.0,0
18854752,0.0181807,-0.0346862,-0.00400335,0.999834,0.00022251,0.000236926,-0.0181986,1.0,0.0,0.0,0.0,0
18887741,-0.0125957,0.0175338,-0.00342151,0.999834,9.41381e-05,-1.85745e-05,-0.0182118,1.0,0.0,0.0,0.0,0
18919739,-0.00813943,-0.0130709,0.000980316,0.999833,0.000180955,-0.000167895,-0.0182565,1.0,0.0,0.0,0.0,0
18947746,0.00037422,0.0162707,-0.0152173,0.999835,-0.000112907,-4.42682e-05,-0.0181545,1.0,0.0,0.0,0.0,0
18979743,-0.0255305,-0.0180554,0.0178808,0.999838,-6.0951e-05,-0.000235299,-0.0180066,1.0,0.0,0.0,0.0,0
19014777,0.0089723,-0.0223488,-0.00736507,0.999839,-2.0779e-05,-0.000238658,-0.0179583,1.0,0.0,0.0,0.0,0
19043740,-0.00467089,0.0331584,0.000617832,0.999839,-0.000171794,-0.000289963,-0.0179256,1.0,0.0,0.0,0.0,0
19075731,-0.0108183,-0.0355088,-0.000307972,0.999841,-0.000182749,-0.000294671,-0.0178544,1.0,0.0,0.0,0.0,0
19107738,0.00792944,0.0280334,-0.0117685,0.99984,-0.000287231,-0.000242473,-0.0178572,1.0,0.0,0.0,0.0,0
19139738,-0.0236598,-0.042182,-0.001848,0.999838,-0.000434079,-0.000322449,-0.018003,1.0,0.0,0.0,0.0,0
19171719,0.0112919,0.0304533,0.0134621,0.999839,-0.000389136,-0.000261148,-0.0179497,1.0,0.0,0.0,0.0,0
19202913,0.00964098,0.0112124,0.00761666,0.999838,-0.000451444,-0.000227304,-0.017974,1.0,0.0,0.0,0.0,0
19231740,-0.00981737,-0.0201881,-0.00479369,0.999839,-0.000384592,-0.000200151,-0.0179672,1.0,0.0,0.0,0.0,0
19265898,0.0180135,0.0144865,-0.0020372,0.99984,-0.000291038,-0.000145565,-0.0179069,1.0,0.0,0.0,0.0,0
19295737,0.00402952,-0.0214856,0.00779255,0.999841,-0.000329324,-0.000141821,-0.01782,1.0,0.0,0.0,0.0,0
19327733,-0.00839558,0.0217662,0.0015945,0.999842,-4.84305e-05,6.87104e-07,-0.0177973,1.0,0.0,0.0,0.0,0
19359735,0.00526779,-0.00647027,-0.00970474,0.999841,-4.29727e-05,2.39777e-05,-0.01786,1.0,0.0,0.0,0.0,0
19391744,-0.00296648,-0.00622444,-0.00209684,0.999841,-0.000101361,0.000127041,-0.0178442,1.0,0.0,0.0,0.0,0
19422705,0.0197677,-0.0106109,-0.00168992,0.999838,-1.37827e-05,-2.17665e-05,-0.0179806,1.0,0.0,0.0,0.0,0
19454738,-0.0312596,0.00323778,-0.02107,0.999836,-0.000123755,6.4554e-05,-0.018129,1.0,0.0,0.0,0.0,0
19483749,-0.000643938,0.00559658,-0.0071069,0.999834,8.29493e-05,-0.000176051,-0.0182089,1.0,0.0,0.0,0.0,0
19518772,0.00781482,-0.0206841,-0.000362397,0.999833,-0.000234767,4.09378e-05,-0.0182878,1.0,0.0,0.0,0.0,0
19547737,-0.0165866,0.0272187,-0.00813741,0.999832,-0.000191807,0.000141512,-0.0183506,1.0,0.0,0.0,0.0,0
19578077,0.0284504,-0.0304337,0.00813283,0.999832,-0.000418882,0.000166411,-0.0183077,1.0,0.0,0.0,0.0,0
19611746,-0.0193745,0.0028594,0.00835531,0.999832,-0.000433178,0.00030024,-0.018311,1.0,0.0,0.0,0.0,0
19643875,0.0222322,-0.0180566,-0.0163903,0.99983,-0.000339349,0.000280554,-0.0184409,1.0,0.0,0.0,0.0,0
19674781,-0.00598826,-0.00373335,-0.0170986,0.999829,-0.0003729,0.000606851,-0.0184792,1.0,0.0,0.0,0.0,0
19706898,0.0269749,0.0111822,0.0138034,0.999827,-0.000265339,0.000370712,-0.0185907,1.0,0.0,0.0,0.0,0
19733962,-0.0272518,-0.040594,-0.0019458,0.999825,-0.000365122,0.000200055,-0.018678,1.0,0.0,0.0,0.0,0
19770789,0.0249987,0.0017613,-0.00853357,0.999827,-0.000158242,0.000305734,-0.0186223,1.0,0.0,0.0,0.0,0
19799749,0.0065985,0.00391506,0.00110493,0.999825,-0.000400707,-4.87684e-06,-0.0187035,1.0,0.0,0.0,0.0,0
19831733,0.00821329,-0.0260553,0.0206322,0.999825,0.000353804,0.000436508,-0.0186775,1.0,0.0,0.0,0.0,0
19863870,0.0787385,0.0404449,-0.0118437,0.999823,0.00054718,0.000345763,-0.0188239,1.0,0.0,0.0,0.0,0
19895746,-0.0242551,-0.0143149,-0.0034851,0.999821,0.000869228,0.000869346,-0.0188905,1.0,0.0,0.0,0.0,0
19927719,0.0290557,0.0101889,0.00474562,0.99982,0.000984913,0.000588758,-0.0189463,1.0,0.0,0.0,0.0,0
19959746,-0.0471184,-0.0228669,-0.0223489,0.99982,0.000645953,0.00070528,-0.0189465,1.0,0.0,0.0,0.0,0
19986756,0.01043,-0.00158243,0.0193372,0.99982,0.00115879,0.000526695,-0.0189214,1.0,0.0,0.0,0.0,0
20022774,0.0591222,-0.0256499,0.00758625,0.99982,0.00069903,0.000335079,-0.0189349,1.0,0.0,0.0,0.0,0
20051862,-0.0996043,-0.00131311,-0.00800406,0.999821,0.000538553,0.000121169,-0.0188929,1.0,0.0,0.0,0.0,0
20083738,0.0667554,0.0139435,0.000460216,0.999822,0.000400052,0.000120601,-0.0188786,1.0,0.0,0.0,0.0,0
20114732,-0.0104261,-0.0172038,0.0119903,0.999823,0.000519963,-9.68357e-06,-0.0188214,1.0,0.0,0.0,0.0,0
20147732,0.0165296,-0.0177126,0.0068498,0.999826,0.000921966,1.71783e-05,-0.0186583,1.0,0.0,0.0,0.0,0
20179729,-0.000536682,-0.00337908,0.00821124,0.999828,0.000568608,-3.12657e-05,-0.0185182,1.0,0.0,0.0,0.0,0
20211801,-0.0382385,0.00046469,0.000182929,0.99983,0.00068548,-6.41114e-05,-0.0184229,1.0,0.0,0.0,0.0,0
20238916,0.0239531,0.0118752,0.00707794,0.99983,0.0004723,-6.21742e-05,-0.0184298,1.0,0.0,0.0,0.0,0
20271890,-0.0470673,-0.00298559,0.00177315,0.99983,0.000474013,-1.81931e-06,-0.0184111,1.0,0.0,0.0,0.0,0
20305966,0.00410299,0.00776205,0.0232675,0.999834,0.000449789,7.65693e-05,-0.0181913,1.0,0.0,0.0,0.0,0
20335726,0.00414743,-0.00729942,-0.0040731,0.999836,0.000106614,-7.21184e-05,-0.018106,1.0,0.0,0.0,0.0,0
20366773,-0.00289807,-0.0261103,-0.00271394,0.999835,0.000295126,3.21734e-05,-0.0181437,1.0,0.0,0.0,0.0,0
20399776,0.0357838,0.0135124,0.00104789,0.999834,6.58237e-05,-0.00011896,-0.0182089,1.0,0.0,0.0,0.0,0
20427748,-0.0329595,-0.0358599,-0.00254706,0.999833,0.00018234,-1.99324e-05,-0.0182576,1.0,0.0,0.0,0.0,0
20458855,0.0137283,-0.00422054,-0.0142427,0.999832,0.000104714,-0.000165546,-0.0183512,1.0,0.0,0.0,0.0,0
20491977,-0.00631569,0.0128261,0.000244967,0.999832,-0.000140913,-0.000232561,-0.0183403,1.0,0.0,0.0,0.0,0
20522747,0.0032929,-0.00587193,0.00600362,0.999833,-6.02235e-05,-0.000207857,-0.0182956,1.0,0.0,0.0,0.0,0
20554731,-0.00216974,0.015373,-0.00455709,0.999831,-0.000268295,-0.000273536,-0.0183568,1.0,0.0,0.0,0.0,0
20587735,-0.000897629,0.0157912,0.0159473,0.999831,-0.000155699,-0.000220055,-0.0183572,1.0,0.0,0.0,0.0,0
20617677,0.00513729,-0.00199208,0.00541319,0.999832,-0.000154987,-0.0002759,-0.0183321,1.0,0.0,0.0,0.0,0
20651797,-0.00523235,-0.000208669,-0.00852801,0.999834,-0.000189247,-9.44105e-05,-0.0182085,1.0,0.0,0.0,0.0,0
20683731,-0.00894491,0.0223356,-0.00880524,0.999836,-8.92316e-05,-0.000192593,-0.0181212,1.0,0.0,0.0,0.0,0
20715739,0.0196939,-0.0133229,0.00108854,0.999836,-2.16859e-06,-0.00014923,-0.0180977,1.0,0.0,0.0,0.0,0
20743743,-0.0225438,0.0152709,-0.00764579,0.999836,-0.000215468,9.59748e-06,-0.0180877,1.0,0.0,0.0,0.0,0
20774039,-0.0182324,-0.0167622,-0.00607091,0.999836,7.05906e-06,1.69544e-06,-0.0181092,1.0,0.0,0.0,0.0,0
20807751,0.0456571,-0.00814852,0.01446,0.999836,-9.55566e-05,4.06846e-05,-0.0180857,1.0,0.0,0.0,0.0,0
20838763,-0.0177294,0.00374388,-0.0267495,0.999834,-0.000177618,0.000115885,-0.0182018,1.0,0.0,0.0,0.0,0
20871736,-0.000341919,0.0046628,0.0027783,0.999834,-0.000200866,5.2601e-05,-0.0182207,1.0,0.0,0.0,0.0,0
20903798,-0.0161146,-0.0206704,-0.00652402,0.999832,-0.000118846,-2.61287e-05,-0.0183125,1.0,0.0,0.0,0.0,0
20935739,0.0210134,0.0170921,0.00593171,0.999833,-0.000361329,4.47218e-05,-0.0182959,1.0,0.0,0.0,0.0,0
20967744,-0.0291872,-0.00841344,-0.00360982,0.999832,-0.000506946,-5.50809e-05,-0.0183112,1.0,0.0,0.0,0.0,0
20995761,0.0168565,0.0120019,0.0162907,0.999832,-0.000260762,8.12944e-05,-0.0183187,1.0,0.0,0.0,0.0,0
21027728,-0.0059254,-0.00139643,0.000184534,0.999831,-0.000492874,-1.28679e-05,-0.0183805,1.0,0.0,0.0,0.0,0
21059738,-0.016959,-0.0220574,0.00458457,0.999831,-0.000266967,5.49528e-05,-0.0183643,1.0,0.0,0.0,0.0,0
21091785,0.0487561,0.0306916,0.0124799,0.999833,-0.000260483,1.22344e-05,-0.0182813,1.0,0.0,0.0,0.0,0
21123742,-0.0510136,-0.0280512,0.00923859,0.999833,-0.000351629,-5.65645e-05,-0.0182895,1.0,0.0,0.0,0.0,0
21155726,0.00444415,-0.00372189,0.00389368,0.999831,-0.000340251,-0.000168831,-0.0183555,1.0,0.0,0.0,0.0,0
21187751,0.00190705,-0.00193124,0.00575607,0.999833,-0.000654886,-0.000395535,-0.018267,1.0,0.0,0.0,0.0,0
21219747,0.00104812,-0.0066719,0.0104835,0.999835,-0.000464001,-0.000477398,-0.0181619,1.0,0.0,0.0,0.0,0
21250876,-0.00328501,-0.000141718,-0.00993118,0.999836,-0.00057223,-0.000424571,-0.0180964,1.0,0.0,0.0,0.0,0
21279717,-0.0101184,0.00571742,-0.000332555,0.999837,-0.000531777,-0.000287295,-0.0180624,1.0,0.0,0.0,0.0,0
21311744,-0.0058286,0.0234535,-0.00795592,0.999837,-0.000432221,-0.000238911,-0.0180521,1.0,0.0,0.0,0.0,0
21343797,-0.00258531,-0.0320066,0.00511231,0.999839,-0.00023603,-0.000246452,-0.0179696,1.0,0.0,0.0,0.0,0
21375740,0.0161192,-0.00329363,-0.000756327,0.999839,-0.000169874,-2.13186e-05,-0.0179219,1.0,0.0,0.0,0.0,0
21407889,0.00644458,0.00834328,-0.00755449,0.999838,-3.41449e-05,-0.000185646,-0.0180058,1.0,0.0,0.0,0.0,0
21438846,0.00139549,-0.0166675,-0.00580344,0.999837,0.000179096,-0.000119468,-0.0180471,1.0,0.0,0.0,0.0,0
21471743,0.00808624,0.00522835,0.00230589,0.999837,0.000115648,-0.000207931,-0.0180614,1.0,0.0,0.0,0.0,0
21501821,-0.00833619,0.00777233,-0.0109966,0.999835,0.000113612,-0.000198411,-0.0181509,1.0,0.0,0.0,0.0,0
21531796,-0.019352,0.000742206,-0.00302622,0.999836,0.000122526,-0.000288904,-0.0181025,1.0,0.0,0.0,0.0,0
21563742,0.0181158,-0.00100418,0.0174822,0.999838,0.000192649,-7.87682e-05,-0.0180182,1.0,0.0,0.0,0.0,0
21594815,-0.0156046,0.0104076,0.000485476,0.999836,-4.98173e-05,-0.000138922,-0.018098,1.0,0.0,0.0,0.0,0
21627767,-0.00277009,0.00222707,0.00046953,0.999836,-0.000272802,-0.000265323,-0.0180892,1.0,0.0,0.0,0.0,0
21657975,-0.0142119,-0.00686584,0.0186474,0.999836,-0.000316857,-0.000170965,-0.0180964,1.0,0.0,0.0,0.0,0
21691850,-0.00235832,0.0139607,-0.0137225,0.999837,-0.000317377,-0.000169599,-0.018061,1.0,0.0,0.0,0.0,0
21723760,0.0177551,0.0088086,-0.0134467,0.999836,-0.000264288,-0.000205131,-0.0181167,1.0,0.0,0.0,0.0,0
21751744,-0.000240278,-0.0176307,0.00627675,0.999836,-0.000282837,-0.000377186,-0.0180986,1.0,0.0,0.0,0.0,0
21783735,0.0113075,0.00190914,0.00153015,0.999837,-0.000232447,-0.000233408,-0.0180669,1.0,0.0,0.0,0.0,0
21813855,-0.00516988,0.0284086,-0.00986725,0.999836,-0.000217984,-0.000307569,-0.0181147,1.0,0.0,0.0,0.0,0
21847786,0.0237451,-0.0265176,0.00495883,0.999837,-0.000213511,-0.000259246,-0.0180789,1.0,0.0,0.0,0.0,0
21879735,-0.00344259,0.0268991,-0.00471934,0.999837,-0.000228199,1.5343e-05,-0.0180791,1.0,0.0,0.0,0.0,0
21911878,0.00507795,0.0207721,-0.00660353,0.999836,-9.44821e-05,-0.000149295,-0.0181101,1.0,0.0,0.0,0.0,0
21943750,0.00559465,-0.00159175,-0.0163675,0.999835,-0.000173365,0.000185279,-0.0181596,1.0,0.0,0.0,0.0,0
21975743,0.00342673,0.00809152,0.00726585,0.999834,-3.35961e-05,4.13064e-05,-0.0182198,1.0,0.0,0.0,0.0,0
22003740,0.023722,-0.0217815,-0.0114516,0.999834,0.0001269,6.6053e-05,-0.018213,1.0,0.0,0.0,0.0,0
22038766,-0.0186116,0.00250786,-0.0119993,0.999835,-5.73279e-05,5.73752e-05,-0.0181833,1.0,0.0,0.0,0.0,0
22067737,0.0132668,-0.0210313,-0.00340556,0.999835,0.000139448,-5.66633e-05,-0.0181621,1.0,0.0,0.0,0.0,0
22099863,0.000903952,0.00173745,0.0246161,0.999837,-1.07711e-05,1.92126e-05,-0.0180694,1.0,0.0,0.0,0.0,0
22131763,-0.0356008,0.00586866,-0.00441789,0.999835,-8.58915e-05,-0.000119935,-0.0181535,1.0,0.0,0.0,0.0,0
22163727,0.0595068,0.0107599,0.00654656,0.999836,0.000119422,0.000112004,-0.0180913,1.0,0.0,0.0,0.0,0
22195737,-0.0107658,0.0146945,-0.0255024,0.999836,0.000131048,2.33919e-05,-0.018095,1.0,0.0,0.0,0.0,0
22227744,-1.71816e-05,-0.0384767,0.000735393,0.999836,0.000223625,0.00011082,-0.0181219,1.0,0.0,0.0,0.0,0
22258750,0.00499788,0.0357455,-0.0134922,0.999836,0.000125357,5.2074e-05,-0.0181295,1.0,0.0,0.0,0.0,0
22287797,-0.0130952,-0.0389939,-0.00236234,0.999835,-2.49686e-05,6.94696e-05,-0.0181695,1.0,0.0,0.0,0.0,0
22319862,0.0139519,0.0491216,-0.00882687,0.999833,-0.000102623,0.000301076,-0.0182913,1.0,0.0,0.0,0.0,0
22351738,-0.01963,-0.0096034,-0.0142887,0.999831,-0.000236947,-1.05147e-05,-0.0183626,1.0,0.0,0.0,0.0,0
22383784,0.00190248,-0.0146827,0.0165481,0.999831,-0.000182527,0.0001992,-0.0183685,1.0,0.0,0.0,0.0,0
22415733,0.0160946,0.0255822,-0.00784453,0.999833,-0.000244697,0.000119408,-0.0182562,1.0,0.0,0.0,0.0,0
22446783,0.00494816,-0.0180531,0.0019284,0.999834,-8.51942e-05,0.000203216,-0.0182368,1.0,0.0,0.0,0.0,0
22479739,0.00191654,0.0437112,-0.0117304,0.999833,-6.82458e-05,0.000588459,-0.0182623,1.0,0.0,0.0,0.0,0
22507990,-0.0167446,-0.0239959,0.00575911,0.999832,-4.02321e-05,0.000403114,-0.0183225,1.0,0.0,0.0,0.0,0
22542266,0.00239065,-0.0379311,0.000116213,0.999831,-3.5572e-05,0.000574647,-0.0183848,1.0,0.0,0.0,0.0,0
22571746,0.00992607,0.0331252,0.00148156,0.999831,-6.75455e-05,0.000425039,-0.0183707,1.0,0.0,0.0,0.0,0
22603744,0.0167678,-0.019599,-0.0143421,0.999831,2.84237e-05,0.000255836,-0.0183934,1.0,0.0,0.0,0.0,0
22635851,-0.00807009,-0.00234294,0.000339916,0.999831,-0.000322397,0.00035804,-0.0184036,1.0,0.0,0.0,0.0,0
22667731,-0.00411183,0.00190097,-0.00663637,0.99983,-9.21336e-05,4.59215e-05,-0.0184405,1.0,0.0,0.0,0.0,0
22694841,0.0106563,0.00297982,0.005573,0.999829,-0.000175774,0.000150824,-0.018473,1.0,0.0,0.0,0.0,0
22730733,-0.0130716,0.00750237,-0.020297,0.999829,-9.19699e-05,3.11438e-05,-0.018492,1.0,0.0,0.0,0.0,0
22759732,-0.00459848,-0.00767225,0.000893476,0.99983,-0.000137702,0.000103604,-0.0184641,1.0,0.0,0.0,0.0,0
22791731,-0.00787811,0.0123547,0.00608646,0.99983,-5.26932e-05,2.12591e-05,-0.0184702,1.0,0.0,0.0,0.0,0
22822730,0.00224443,-0.0378295,-0.00121664,0.99983,-4.04795e-05,-0.000116487,-0.018461,1.0,0.0,0.0,0.0,0
22855733,-0.0117862,0.00697739,-0.00743467,0.999829,3.72377e-07,-9.87537e-05,-0.0185006,1.0,0.0,0.0,0.0,0
22886750,0.0197626,0.00256473,0.0162305,0.999831,-1.19761e-05,-0.000211866,-0.0184136,1.0,0.0,0.0,0.0,0
22919741,-0.0247221,-0.0158234,0.00591666,0.999831,-5.87854e-05,-0.000120674,-0.018381,1.0,0.0,0.0,0.0,0
22951740,0.0171463,-0.00549142,-0.022788,0.999831,7.62803e-05,-0.000161585,-0.0184144,1.0,0.0,0.0,0.0,0
22983740,0.00543403,-0.00469752,0.00685393,0.999833,0.000145606,-9.87871e-05,-0.0182916,1.0,0.0,0.0,0.0,0
23011766,0.000600483,0.00355716,0.0148342,0.999834,0.000148267,-0.000112531,-0.018201,1.0,0.0,0.0,0.0,0
23043804,-0.00101583,-0.0336067,-0.0185125,0.999833,0.000208169,-0.000122289,-0.018276,1.0,0.0,0.0,0.0,0
23075733,0.00423719,0.0202164,-0.0188077,0.999834,0.000135765,-0.000205179,-0.0182167,1.0,0.0,0.0,0.0,0
23107750,-0.00719617,-0.0288369,-0.00723393,0.999834,7.02451e-05,-0.000364456,-0.0182409,1.0,0.0,0.0,0.0,0
23139736,0.00915085,0.0125535,0.00881185,0.999835,0.000103329,-8.52232e-05,-0.0181665,1.0,0.0,0.0,0.0,0
23171732,-0.0138041,0.0346168,-0.0104864,0.999834,8.32549e-05,2.07792e-05,-0.0181964,1.0,0.0,0.0,0.0,0
23202822,0.0234399,-0.0373781,-0.00577093,0.999835,5.50589e-05,-3.06533e-05,-0.0181882,1.0,0.0,0.0,0.0,0
23235772,-0.0162684,-0.00114027,0.0143605,0.999835,0.000105596,-4.32594e-05,-0.0181515,1.0,0.0,0.0,0.0,0
23265905,0.0104791,0.0187688,-0.00340858,0.999835,8.70784e-05,-0.000177874,-0.0181448,1.0,0.0,0.0,0.0,0
23295738,-0.0177022,-0.00431714,0.000688715,0.999833,1.8579e-06,-6.83104e-05,-0.0182688,1.0,0.0,0.0,0.0,0
23327733,0.013169,0.0105677,-0.0212981,0.999834,6.37088e-05,-0.000136308,-0.0182475,1.0,0.0,0.0,0.0,0
23358964,0.00292526,-0.00637652,0.00366975,0.999833,-0.000276206,-0.00030712,-0.0182597,1.0,0.0,0.0,0.0,0
23391741,-0.0417568,-0.00644656,0.0143684,0.999835,-0.000101674,-4.07943e-05,-0.0181749,1.0,0.0,0.0,0.0,0
23422167,0.0278618,0.029058,0.0132356,0.999835,-0.000116487,-0.000283743,-0.0181565,1.0,0.0,0.0,0.0,0
23454873,-0.012681,-0.0307075,0.0234332,0.999837,-1.95348e-05,-0.00029353,-0.0180521,1.0,0.0,0.0,0.0,0
23483759,0.0210291,0.0221615,0.00598037,0.999837,7.43987e-05,-0.000143717,-0.0180566,1.0,0.0,0.0,0.0,0
23518738,-0.0327583,0.00656591,-0.0129204,0.999838,-0.000107615,-0.000215933,-0.0180176,1.0,0.0,0.0,0.0,0
23547733,0.00880977,-0.013877,-0.0127358,0.999839,1.24467e-05,-0.000195566,-0.0179436,1.0,0.0,0.0,0.0,0
23578127,-0.00125915,0.0321506,-0.00818936,0.999838,-0.00017441,-0.000323879,-0.0180003,1.0,0.0,0.0,0.0,0
23611748,-0.015865,-0.0378768,0.00689008,0.999839,-7.38758e-05,-0.000399308,-0.0179455,1.0,0.0,0.0,0.0,0
23643733,-0.00689848,0.00615416,0.0289327,0.999839,-0.000298642,-0.000400351,-0.0179276,1.0,0.0,0.0,0.0,0
23675948,-0.0169474,-0.00599833,-0.0180053,0.999839,-0.000386919,-0.000518191,-0.0179463,1.0,0.0,0.0,0.0,0
23707818,0.0146256,-0.0045711,-0.0106994,0.999839,-0.000285244,-0.000485662,-0.017923,1.0,0.0,0.0,0.0,0
23738782,-0.00419616,-0.00177175,0.000898643,0.999838,-0.000442144,-0.00039085,-0.0180072,1.0,0.0,0.0,0.0,0
23770721,0.00110659,0.016825,-0.00246036,0.999837,-0.000349022,-0.000311356,-0.0180626,1.0,0.0,0.0,0.0,0
23799736,-0.012853,-0.00826091,-0.0108624,0.999835,-0.000488337,-0.000277485,-0.0181478,1.0,0.0,0.0,0.0,0
23831732,0.0211952,0.003155,-0.0222504,0.999833,-0.000109695,-0.000295146,-0.0182852,1.0,0.0,0.0,0.0,0
23864739,0.00926498,-0.00600004,-0.0127374,0.999829,-0.00026045,-0.000194243,-0.0184918,1.0,0.0,0.0,0.0,0
23889865,0.0298333,-0.00262685,0.00465007,0.999829,7.05997e-05,-9.84197e-05,-0.0185073,1.0,0.0,0.0,0.0,0
23927806,0.0148175,0.0102337,-0.0144701,0.999828,-7.47632e-05,-8.79253e-05,-0.0185477,1.0,0.0,0.0,0.0,0
23958924,-0.000650753,-0.006489,0.002284,0.999828,0.000123678,7.10009e-05,-0.0185408,1.0,0.0,0.0,0.0,0
23991744,0.0196738,-0.00503939,0.00486082,0.999828,0.000170645,0.000119143,-0.0185366,1.0,0.0,0.0,0.0,0
24018760,-0.0101484,-0.00721065,-0.0136495,0.999828,0.000189781,1.97332e-05,-0.0185701,1.0,0.0,0.0,0.0,0
24051609,0.0249357,-0.0139197,-0.00428638,0.999828,0.000317084,6.01311e-05,-0.0185594,1.0,0.0,0.0,0.0,0
24083641,0.007017,-0.0859736,0.000138891,0.999826,0.000409281,-0.000725851,-0.0186209,1.0,0.0,0.0,0.0,0
24115616,0.0060713,-0.139618,0.0218553,0.999824,0.000501405,-0.00254574,-0.0186068,1.0,0.0,0.0,0.0,0
24146611,0.00176609,-0.197338,-0.0102809,0.999814,0.000636655,-0.00522004,-0.0185709,1.0,0.0,0.0,0.0,0
24179615,0.0187375,-0.257911,0.00908892,0.999788,0.000987169,-0.00903177,-0.0185012,1.0,0.0,0.0,0.0,0
24211619,0.0431975,-0.319773,-0.000285531,0.999733,0.00138877,-0.0136947,-0.0185406,1.0,0.0,0.0,0.0,0
24243613,0.0266597,-0.380734,0.00225721,0.999644,0.00173195,-0.0192004,-0.0184378,1.0,0.0,0.0,0.0,0
24271646,0.0474192,-0.419121,-0.00878042,0.999519,0.00207582,-0.024886,-0.0183862,1.0,0.0,0.0,0.0,0
24305751,0.0281404,-0.475616,0.00669152,0.999295,0.00267971,-0.0326691,-0.0183196,1.0,0.0,0.0,0.0,0
24335598,0.0398965,-0.533711,0.0108429,0.999014,0.00326056,-0.0403564,-0.0182099,1.0,0.0,0.0,0.0,0
24367687,0.0415132,-0.586743,0.00421632,0.998601,0.00392491,-0.0495663,-0.0180209,1.0,0.0,0.0,0.0,0
24399611,0.0670443,-0.639612,0.0162789,0.99805,0.0045859,-0.0596284,-0.0178539,1.0,0.0,0.0,0.0,0
24431626,0.0578161,-0.719997,-0.0210402,0.997325,0.00525859,-0.0706999,-0.017775,1.0,0.0,0.0,0.0,0
24463611,0.0560868,-0.764611,0.0196875,0.996402,0.00608907,-0.082688,-0.0175817,1.0,0.0,0.0,0.0,0
24495620,0.080912,-0.821079,0.00469782,0.995242,0.00694593,-0.0955996,-0.0174973,1.0,0.0,0.0,0.0,0
24523630,0.0949917,-0.890212,0.00391618,0.994006,0.00778375,-0.107653,-0.017397,1.0,0.0,0.0,0.0,0
24558636,0.0755636,-0.953974,0.0214598,0.992139,0.0087805,-0.123652,-0.0171586,1.0,0.0,0.0,0.0,0
24587694,0.0753347,-0.99994,0.014913,0.990268,0.00962296,-0.137789,-0.0170691,1.0,0.0,0.0,0.0,0
24617550,0.0937817,-1.04729,0.01126,0.988016,0.0106108,-0.153058,-0.0168924,1.0,0.0,0.0,0.0,0
24650612,0.0892756,-1.11745,0.023354,0.985085,0.0117611,-0.170852,-0.0166816,1.0,0.0,0.0,0.0,0
24683620,0.101131,-1.18771,0.00939378,0.981624,0.0129916,-0.189672,-0.0164598,1.0,0.0,0.0,0.0,0
24715616,0.11423,-1.23845,0.0290894,0.977755,0.0140857,-0.208649,-0.0162183,1.0,0.0,0.0,0.0,0
24747611,0.099032,-1.30262,0.0329753,0.973283,0.0153034,-0.228539,-0.0159809,1.0,0.0,0.0,0.0,0
24773638,0.116121,-1.3252,-0.00202172,0.969208,0.016342,-0.245192,-0.0157948,1.0,0.0,0.0,0.0,0
24806605,0.106927,-1.40299,0.0145098,0.963354,0.0176837,-0.267199,-0.0155293,1.0,0.0,0.0,0.0,0
24839605,0.132624,-1.46476,0.00211301,0.956683,0.0191059,-0.290108,-0.0151562,1.0,0.0,0.0,0.0,0
24871628,0.121852,-1.52174,0.0128276,0.949418,0.0204806,-0.312995,-0.0148301,1.0,0.0,0.0,0.0,0
24902609,0.129991,-1.59208,0.0261551,0.94152,0.0219249,-0.335929,-0.0145063,1.0,0.0,0.0,0.0,0
24935611,0.134947,-1.65039,0.0121942,0.932168,0.0236061,-0.360979,-0.014152,1.0,0.0,0.0,0.0,0
24967628,0.160167,-1.68228,0.0113085,0.922114,0.0251805,-0.385853,-0.0137618,1.0,0.0,0.0,0.0,0
24999612,0.13643,-1.75049,0.0149069,0.911001,0.0267564,-0.411314,-0.0134923,1.0,0.0,0.0,0.0,0
25027614,0.155449,-1.79905,0.015765,0.90039,0.0281696,-0.433975,-0.0130507,1.0,0.0,0.0,0.0,0
25058618,0.154696,-1.88856,0.0128353,0.887591,0.029751,-0.459495,-0.0126862,1.0,0.0,0.0,0.0,0
25091610,0.147179,-1.91433,0.0260909,0.872743,0.0314935,-0.487013,-0.0120838,1.0,0.0,0.0,0.0,0
25123609,0.165147,-1.96759,0.0304754,0.856978,0.0331709,-0.514154,-0.0115593,1.0,0.0,0.0,0.0,0
25155623,0.162721,-2.05338,0.00290082,0.839886,0.0349549,-0.541526,-0.0109333,1.0,0.0,0.0,0.0,0
25187598,0.161436,-2.11246,0.02559,0.821395,0.036624,-0.569088,-0.0103789,1.0,0.0,0.0,0.0,0
25218712,0.186896,-2.17301,0.0233476,0.802015,0.0383555,-0.595992,-0.0097169,1.0,0.0,0.0,0.0,0
25251648,0.187618,-2.23697,0.0311422,0.779877,0.0401615,-0.624578,-0.00907018,1.0,0.0,0.0,0.0,0
25279613,0.16544,-2.28974,0.0295583,0.759832,0.0416177,-0.648732,-0.00837986,1.0,0.0,0.0,0.0,0
25311633,0.190803,-2.33433,0.0276032,0.73541,0.0433343,-0.676192,-0.00760668,1.0,0.0,0.0,0.0,0
25343612,0.210836,-2.39781,0.0105335,0.709263,0.0451163,-0.703465,-0.00690924,1.0,0.0,0.0,0.0,0
25374714,0.221154,-2.43814,0.0428505,0.682311,0.0468667,-0.729533,-0.00599845,1.0,0.0,0.0,0.0,0
25407623,0.229177,-2.50945,0.0243304,0.652012,0.0486253,-0.756631,-0.00507342,1.0,0.0,0.0,0.0,0
25439615,0.218834,-2.55954,0.00631727,0.620723,0.0503693,-0.782399,-0.00410061,1.0,0.0,0.0,0.0,0
25471642,0.226833,-2.62472,0.0226141,0.58776,0.0520161,-0.807355,-0.00313463,1.0,0.0,0.0,0.0,0
25503614,0.233316,-2.669,0.0368962,0.553008,0.0535368,-0.831451,-0.00209876,1.0,0.0,0.0,0.0,0
25531609,0.230328,-2.74469,0.0396294,0.521178,0.0549372,-0.851677,-0.00104406,1.0,0.0,0.0,0.0,0
25566636,0.230909,-2.79304,0.0279075,0.47941,0.056555,-0.875767,0.000102743,1.0,0.0,0.0,0.0,0
25595616,0.248921,-2.86278,0.0293779,0.443295,0.0578864,-0.894504,0.00119388,1.0,0.0,0.0,0.0,0
25627620,0.259534,-2.91428,0.0146425,0.401629,0.0593359,-0.913875,0.00246068,1.0,0.0,0.0,0.0,0
25659614,0.253132,-2.97411,0.0296149,0.358331,0.0606137,-0.931618,0.00369835,1.0,0.0,0.0,0.0,0
25691656,0.266154,-3.01741,0.0404624,0.313403,0.0617523,-0.947597,0.00496534,1.0,0.0,0.0,0.0,0
25723606,0.278918,-3.07659,0.0210524,0.267066,0.0628427,-0.961607,0.00626341,1.0,0.0,0.0,0.0,0
25755612,0.280116,-3.13111,0.0320141,0.219103,0.0638105,-0.973583,0.00760754,1.0,0.0,0.0,0.0,0
25786601,0.2833,-3.20426,0.0325115,0.171323,0.064601,-0.983054,0.00892919,1.0,0.0,0.0,0.0,0
25813617,0.292871,-3.26235,0.0213971,0.128558,0.0651798,-0.989506,0.010111,1.0,0.0,0.0,0.0,0
25847614,0.296152,-3.3202,0.0344216,0.0734825,0.0657882,-0.995057,0.0115919,1.0,0.0,0.0,0.0,0
25879612,0.310101,-3.35703,0.0148507,0.020563,0.0662261,-0.997508,0.0130234,1.0,0.0,0.0,0.0,0
25911652,0.324189,-3.42246,0.0336088,-0.0335096,0.0664021,-0.997126,0.0144047,1.0,0.0,0.0,0.0,0
25943598,0.322795,-3.4878,0.0405337,-0.0881536,0.0664092,-0.993766,0.0157787,1.0,0.0,0.0,0.0,0
25975626,0.325575,-3.54391,0.0507112,-0.143528,0.0662543,-0.987276,0.0172269,1.0,0.0,0.0,0.0,0
26006602,0.339346,-3.6087,0.0388554,-0.197585,0.0657822,-0.977899,0.0186226,1.0,0.0,0.0,0.0,0
26035615,0.335438,-3.64601,0.028742,-0.24849,0.0652842,-0.966227,0.0199078,1.0,0.0,0.0,0.0,0
26067611,0.331047,-3.70974,0.0517815,-0.304554,0.064508,-0.950072,0.0211987,1.0,0.0,0.0,0.0,0
26099611,0.370367,-3.77043,0.0352645,-0.360504,0.0633766,-0.930327,0.0226506,1.0,0.0,0.0,0.0,0
26131645,0.382356,-3.82708,0.0461323,-0.416042,0.0618929,-0.90692,0.023945,1.0,0.0,0.0,0.0,0
26163611,0.377993,-3.89222,0.0495039,-0.470746,0.0602403,-0.879848,0.0252436,1.0,0.0,0.0,0.0,0
26196670,0.401476,-3.94898,0.0439485,-0.526417,0.058271,-0.847812,0.0265554,1.0,0.0,0.0,0.0,0
26226747,0.381129,-3.98644,0.0396511,-0.57562,0.0563308,-0.815304,0.0277174,1.0,0.0,0.0,0.0,0
26259613,0.417346,-4.06424,0.0297574,-0.628032,0.0539439,-0.775776,0.028942,1.0,0.0,0.0,0.0,0
26290681,0.400165,-4.12229,0.0554056,-0.675641,0.0513055,-0.734835,0.02992,1.0,0.0,0.0,0.0,0
26318642,0.427411,-4.16495,0.0375103,-0.716778,0.0485945,-0.694925,0.0307864,1.0,0.0,0.0,0.0,0
26350615,0.43558,-4.22798,0.0318897,-0.76146,0.0452732,-0.645846,0.0318067,1.0,0.0,0.0,0.0,0
26383614,0.444489,-4.29919,0.0389475,-0.804735,0.0415382,-0.591273,0.0327396,1.0,0.0,0.0,0.0,0
26415692,0.44678,-4.35696,0.0268722,-0.843554,0.0377079,-0.534669,0.0335185,1.0,0.0,0.0,0.0,0
26447602,0.450142,-4.3959,0.0437128,-0.878674,0.0335978,-0.475019,0.0340674,1.0,0.0,0.0,0.0,0
26478637,0.471862,-4.46573,0.0400699,-0.909125,0.0293114,-0.414066,0.03438,1.0,0.0,0.0,0.0,0
26511618,0.472614,-4.51948,0.0427854,-0.937199,0.0244699,-0.346197,0.0347382,1.0,0.0,0.0,0.0,0
26537598,0.48408,-4.56488,0.0479459,-0.955942,0.0204734,-0.290769,0.0347731,1.0,0.0,0.0,0.0,0
26571654,0.489804,-4.63029,0.0314006,-0.975755,0.0149468,-0.215553,0.0348557,1.0,0.0,0.0,0.0,0
26603700,0.511744,-4.6687,0.0299225,-0.989122,0.00955226,-0.142614,0.0347498,1.0,0.0,0.0,0.0,0
26635617,0.490718,-4.74062,0.0319544,-0.997054,0.00422795,-0.068377,0.0344861,1.0,0.0,0.0,0.0,0
26667662,0.517255,-4.81081,0.0459465,-0.99939,-0.00141017,0.00764695,0.0340401,1.0,0.0,0.0,0.0,0
26697765,0.526819,-4.87563,0.0477664,-0.996218,-0.00681278,0.0799701,0.0332943,1.0,0.0,0.0,0.0,0
26731616,0.542156,-4.90385,0.0625759,-0.986243,-0.0129458,0.161607,0.0322673,1.0,0.0,0.0,0.0,0
26763616,0.546342,-4.96548,0.0525659,-0.970393,-0.018879,0.238797,0.0309337,1.0,0.0,0.0,0.0,0
26794601,0.575957,-5.03544,0.033054,-0.948982,-0.0246408,0.312964,0.0296449,1.0,0.0,0.0,0.0,0
26823702,0.58169,-5.07328,0.0452269,-0.923354,-0.0299782,0.381742,0.0281166,1.0,0.0,0.0,0.0,0
26855612,0.594335,-5.14287,0.0660118,-0.889097,-0.0357058,0.455571,0.0262012,1.0,0.0,0.0,0.0,0
26887615,0.576769,-5.19845,0.0505904,-0.848274,-0.0414354,0.527384,0.0240943,1.0,0.0,0.0,0.0,0
26918622,0.615012,-5.281,0.0564732,-0.802642,-0.0467757,0.594219,0.021924,1.0,0.0,0.0,0.0,0
26951601,0.629532,-5.32248,0.0527381,-0.747688,-0.0522811,0.661708,0.0192623,1.0,0.0,0.0,0.0,0
26983610,0.624063,-5.37042,0.0486976,-0.688249,-0.05728,0.723023,0.0164362,1.0,0.0,0.0,0.0,0
27014609,0.635751,-5.43306,0.0514363,-0.62515,-0.0618326,0.777934,0.0135422,1.0,0.0,0.0,0.0,0
27043698,0.648174,-5.48339,0.0619478,-0.561256,-0.0657953,0.824955,0.0106264,1.0,0.0,0.0,0.0,0
27075732,0.157532,-4.34571,0.0416414,-0.490417,-0.0689795,0.868712,0.00849645,1.0,0.0,0.0,0.0,0
27110074,-2.09144,0.0008039,0.0335479,-0.460183,-0.0583883,0.885449,0.0283365,1.0,0.0,0.0,0.0,0
27144809,-2.86646,1.52472,-0.15801,-0.478565,-0.0399047,0.874662,0.0659481,1.0,0.0,0.0,0.0,0
27175865,-3.47848,3.56938,-0.317291,-0.518815,-0.0216419,0.84729,0.111634,1.0,0.0,0.0,0.0,0
27207744,-3.75937,3.54665,-0.499246,-0.562053,-0.00379716,0.811229,0.161213,1.0,0.0,0.0,0.0,0
27238726,-3.67464,3.55967,-0.651905,-0.608229,0.012422,0.764304,0.213877,1.0,0.0,0.0,0.0,0
27265790,-4.171,4.07098,-0.859016,-0.642367,0.0255371,0.720515,0.259944,1.0,0.0,0.0,0.0,0
27299794,-3.71686,3.8039,-1.03715,-0.68218,0.0394521,0.656484,0.319534,1.0,0.0,0.0,0.0,0
27331736,-4.07775,4.29704,-1.21637,-0.714461,0.0495414,0.588766,0.37476,1.0,0.0,0.0,0.0,0
27363742,-3.79467,4.02521,-1.34889,-0.739302,0.0565221,0.517439,0.427195,1.0,0.0,0.0,0.0,0
27395823,-3.80169,4.12568,-1.47553,-0.757523,0.0618429,0.440283,0.478002,1.0,0.0,0.0,0.0,0
27427782,-3.8448,4.13431,-1.59907,-0.76762,0.0654499,0.361886,0.524894,1.0,0.0,0.0,0.0,0
27459739,-3.31843,3.68865,-1.7651,-0.77001,0.0666917,0.281641,0.568608,1.0,0.0,0.0,0.0,0
27491761,-2.92508,3.42869,-1.88908,-0.763245,0.0641775,0.213052,0.606586,1.0,0.0,0.0,0.0,0
27519786,-2.13421,2.67783,-2.08261,-0.751727,0.0592622,0.159745,0.637084,1.0,0.0,0.0,0.0,0
27551735,-1.80649,2.46577,-2.28349,-0.732937,0.0512167,0.111479,0.669144,1.0,0.0,0.0,0.0,0
27583736,-1.10375,1.72092,-2.42284,-0.709173,0.0419607,0.0752616,0.699749,1.0,0.0,0.0,0.0,0
27614734,-0.830086,1.44932,-2.59322,-0.682499,0.0328872,0.0448371,0.728768,1.0,0.0,0.0,0.0,0
27647743,-0.66236,1.1918,-2.75662,-0.649839,0.0242556,0.0267415,0.759214,1.0,0.0,0.0,0.0,0
27679738,-0.182279,0.662735,-2.90619,-0.614864,0.0165047,0.0119359,0.78837,1.0,0.0,0.0,0.0,0
27711739,-0.396617,0.839237,-2.9894,-0.57696,0.0102608,0.0017194,0.816707,1.0,0.0,0.0,0.0,0
27743740,0.119773,0.148264,-3.01214,-0.536863,0.00579236,-0.00281559,0.843645,1.0,0.0,0.0,0.0,0
27771741,-0.193325,0.532283,-3.01988,-0.500452,0.00209846,-0.00789864,0.865726,1.0,0.0,0.0,0.0,0
27803949,0.0525082,0.131439,-2.98476,-0.45774,0.000487319,-0.007905,0.889051,1.0,0.0,0.0,0.0,0
27838131,0.189473,-0.0409597,-2.89932,-0.411922,-0.00199425,-0.0105304,0.911156,1.0,0.0,0.0,0.0,0
27867741,-0.135727,0.321287,-2.8304,-0.372701,-0.00274095,-0.0106425,0.927887,1.0,0.0,0.0,0.0,0
27899737,0.266326,-0.195579,-2.71362,-0.331104,-0.00277284,-0.00906403,0.943547,1.0,0.0,0.0,0.0,0
27932730,0.0407299,0.131784,-2.59042,-0.289495,-0.00343274,-0.0093137,0.957128,1.0,0.0,0.0,0.0,0
27963750,0.0954857,-0.0107688,-2.45697,-0.251593,-0.00234227,-0.00678526,0.967807,1.0,0.0,0.0,0.0,0
27993951,0.135321,-0.0373182,-2.36152,-0.216166,-0.00241534,-0.00597723,0.976335,1.0,0.0,0.0,0.0,0
28024734,0.0379302,0.0464146,-2.25222,-0.181285,-0.00211539,-0.00473145,0.983417,1.0,0.0,0.0,0.0,0
28055744,0.0954786,-0.0278289,-2.11172,-0.14775,-0.00181353,-0.00337789,0.989017,1.0,0.0,0.0,0.0,0
28087733,0.128712,-0.00665966,-1.97934,-0.115067,-0.00125845,-0.00155855,0.993356,1.0,0.0,0.0,0.0,0
28119750,0.0981623,-0.034241,-1.86534,-0.084429,-0.000337201,0.000121954,0.99643,1.0,0.0,0.0,0.0,0
28150403,0.106509,-0.049235,-1.72201,-0.0568327,0.00048614,0.00189042,0.998382,1.0,0.0,0.0,0.0,0
28183734,0.0919611,-0.0508892,-1.59274,-0.0292848,0.00152553,0.00360344,0.999564,1.0,0.0,0.0,0.0,0
28215791,0.0965919,-0.035685,-1.42641,-0.00498392,0.00254443,0.00542958,0.99997,1.0,0.0,0.0,0.0,0
28246815,0.0814667,-0.0415175,-1.29699,0.0162274,0.00372906,0.00692921,0.999837,1.0,0.0,0.0,0.0,0
28276016,0.0923442,-0.0816558,-1.17169,0.0340159,0.00480581,0.00845475,0.999374,1.0,0.0,0.0,0.0,0
28305931,0.0972669,-0.0565243,-1.01483,0.0503119,0.00615629,0.00981185,0.998666,1.0,0.0,0.0,0.0,0
28339735,0.0754041,-0.0764629,-0.83431,0.0658266,0.00762297,0.0114855,0.997736,1.0,0.0,0.0,0.0,0
28371735,0.0865037,-0.0580883,-0.661693,0.0777369,0.00890976,0.0130402,0.996849,1.0,0.0,0.0,0.0,0
28403759,0.0800714,-0.0800745,-0.513673,0.0870032,0.0104706,0.0142516,0.996051,1.0,0.0,0.0,0.0,0
28435785,0.0697754,-0.103295,-0.321406,0.0934041,0.0120015,0.0155391,0.995435,1.0,0.0,0.0,0.0,0
28467732,0.0756203,-0.0533672,-0.153377,0.0970591,0.0135226,0.0168269,0.995045,1.0,0.0,0.0,0.0,0
28499755,0.0371926,-0.0514385,0.0208161,0.0978316,0.0151469,0.0179542,0.994926,1.0,0.0,0.0,0.0,0
28527747,-0.148314,0.150924,0.131643,0.0966989,0.0135211,0.0167142,0.995081,1.0,0.0,0.0,0.0,0
28559748,-0.118564,0.106996,0.25794,0.0934911,0.0117251,0.0151057,0.995437,1.0,0.0,0.0,0.0,0
28591744,-0.130045,0.115454,0.393018,0.0881473,0.0100069,0.0137042,0.995963,1.0,0.0,0.0,0.0,0
28623732,-0.0935867,0.105028,0.538955,0.0806329,0.0086064,0.0120686,0.996634,1.0,0.0,0.0,0.0,0
28655798,-0.109885,0.114536,0.654264,0.070969,0.00725315,0.0103735,0.997398,1.0,0.0,0.0,0.0,0
28687722,-0.11746,0.104412,0.75376,0.0593965,0.00576391,0.00895195,0.998178,1.0,0.0,0.0,0.0,0
28718739,-0.100374,0.107891,0.845251,0.0468112,0.00456807,0.00731427,0.998867,1.0,0.0,0.0,0.0,0
28751746,-0.110331,0.100153,0.917359,0.0321962,0.00313332,0.00573116,0.99946,1.0,0.0,0.0,0.0,0
28779741,-0.106983,0.122348,0.9383,0.0191268,0.00183292,0.00427797,0.999806,1.0,0.0,0.0,0.0,0
28811746,-0.0964412,0.103901,0.962502,0.00388587,0.000465478,0.00264916,0.999989,1.0,0.0,0.0,0.0,0
28843752,-0.0848422,0.107335,0.950621,-0.0113493,-0.00091173,0.00122754,0.999934,1.0,0.0,0.0,0.0,0
28875779,-0.0970573,0.115664,0.935662,-0.0265014,-0.00195249,-0.00016413,0.999647,1.0,0.0,0.0,0.0,0
28907842,-0.0688493,0.0621471,0.928777,-0.0413812,-0.00259853,-0.00126186,0.999139,1.0,0.0,0.0,0.0,0
28939744,-0.0587439,0.0488876,0.876014,-0.0555412,-0.00311064,-0.00242874,0.998449,1.0,0.0,0.0,0.0,0
28971735,-0.0490887,0.0570976,0.836806,-0.069207,-0.00335368,-0.00316939,0.997592,1.0,0.0,0.0,0.0,0
29003754,-0.0325818,0.022994,0.761465,-0.0820675,-0.00340943,-0.00388492,0.996613,1.0,0.0,0.0,0.0,0
29031746,-0.0547334,0.0114176,0.733724,-0.0925935,-0.00330988,-0.00441405,0.995689,1.0,0.0,0.0,0.0,0
29066741,-0.0310729,-0.000157607,0.673962,-0.104779,-0.00291253,-0.00480332,0.99448,1.0,0.0,0.0,0.0,0
29095738,-0.0191454,0.00578281,0.611323,-0.113927,-0.00280564,-0.00534142,0.993471,1.0,0.0,0.0,0.0,0
29127727,-0.0346796,0.00316928,0.572021,-0.123251,-0.00231146,-0.00552945,0.992357,1.0,0.0,0.0,0.0,0
29159747,-0.0210778,0.00183469,0.488686,-0.131504,-0.0018823,-0.00602953,0.991296,1.0,0.0,0.0,0.0,0
29190406,-0.0192771,-0.00173875,0.406276,-0.138373,-0.00129533,-0.00624399,0.99036,1.0,0.0,0.0,0.0,0
29223796,-0.0172547,-0.0190556,0.375329,-0.144899,-0.000839016,-0.00674293,0.989423,1.0,0.0,0.0,0.0,0
29251722,-0.0352498,0.0235123,0.304842,-0.149478,-0.000492874,-0.00701461,0.98874,1.0,0.0,0.0,0.0,0
29283803,-0.0118264,-0.0266841,0.260489,-0.1539,9.12797e-06,-0.00744812,0.988058,1.0,0.0,0.0,0.0,0
29318761,-0.047667,0.0172321,0.180513,-0.157682,0.000603017,-0.00796926,0.987458,1.0,0.0,0.0,0.0,0
29346557,-0.00408808,-0.0140537,0.139098,-0.159856,0.00107924,-0.00830393,0.987105,1.0,0.0,0.0,0.0,0
29379735,0.00644232,0.052702,0.0953936,-0.161732,0.00158576,-0.00860846,0.986796,1.0,0.0,0.0,0.0,0
29411797,0.0421197,0.0334612,0.0621328,-0.162928,0.00127356,-0.00835397,0.986602,1.0,0.0,0.0,0.0,0
29443741,0.028929,0.0722107,0.0322139,-0.163656,0.00113535,-0.00815212,0.986483,1.0,0.0,0.0,0.0,0
29475924,0.0630734,0.0708692,0.0210122,-0.164067,0.000429418,-0.00747446,0.986421,1.0,0.0,0.0,0.0,0
29507747,0.0681926,0.0609342,-0.00528141,-0.164045,-0.000140362,-0.00706773,0.986428,1.0,0.0,0.0,0.0,0
29535747,0.0446739,0.0699205,-0.0133322,-0.163888,-0.000533829,-0.00663379,0.986457,1.0,0.0,0.0,0.0,0
29567737,0.0565641,0.0337365,-0.0430868,-0.163452,-0.00102707,-0.00626933,0.986531,1.0,0.0,0.0,0.0,0
29599748,0.0421363,0.050263,-0.0473219,-0.162824,-0.0014283,-0.00583767,0.986637,1.0,0.0,0.0,0.0,0
29631732,0.0365448,0.0328819,-0.0588458,-0.161957,-0.0017125,-0.00554756,0.986781,1.0,0.0,0.0,0.0,0
29663727,0.0325584,0.0413744,-0.0672512,-0.160988,-0.00201226,-0.00519191,0.986941,1.0,0.0,0.0,0.0,0
29695821,0.0159641,0.0476478,-0.0741555,-0.159889,-0.00211424,-0.00517021,0.987119,1.0,0.0,0.0,0.0,0
29727743,0.00905587,0.0435446,-0.0647087,-0.15888,-0.0026039,-0.0048201,0.987283,1.0,0.0,0.0,0.0,0
29758844,0.0479294,0.0483238,-0.0673958,-0.157792,-0.0025567,-0.0047966,0.987458,1.0,0.0,0.0,0.0,0
29787751,0.0227324,0.0478787,-0.0776676,-0.15676,-0.00305739,-0.00453559,0.987622,1.0,0.0,0.0,0.0,0
29819874,0.0353437,0.0421475,-0.0697512,-0.15555,-0.00279207,-0.00448466,0.987814,1.0,0.0,0.0,0.0,0
29851731,-0.000930339,0.0137709,-0.0702289,-0.15441,-0.00299326,-0.00433181,0.987993,1.0,0.0,0.0,0.0,0
29883820,0.0250671,0.0740127,-0.0837762,-0.153272,-0.00275628,-0.00428391,0.988171,1.0,0.0,0.0,0.0,0
29915813,0.0104451,0.0131154,-0.0656188,-0.152145,-0.00283549,-0.0041584,0.988345,1.0,0.0,0.0,0.0,0
29947735,0.0341148,0.0645738,-0.0822158,-0.150985,-0.00329395,-0.00400146,0.988523,1.0,0.0,0.0,0.0,0
29979796,0.0295416,0.0209593,-0.0786839,-0.149889,-0.00316072,-0.00391339,0.98869,1.0,0.0,0.0,0.0,0
30011755,0.0312931,0.0104727,-0.0672638,-0.148916,-0.00332826,-0.00375879,0.988837,1.0,0.0,0.0,0.0,0
30039742,0.0122316,0.0378694,-0.0628423,-0.148241,-0.00319299,-0.00366812,0.988939,1.0,0.0,0.0,0.0,0
30073942,0.0103907,-0.00261992,-0.0630255,-0.147374,-0.00302964,-0.00355757,0.98907,1.0,0.0,0.0,0.0,0
30103807,0.0211934,0.0483914,-0.0417156,-0.146613,-0.00301895,-0.0035239,0.989183,1.0,0.0,0.0,0.0,0
30135732,0.00187947,-0.00863228,-0.0482024,-0.145893,-0.00267744,-0.00351869,0.989291,1.0,0.0,0.0,0.0,0
30167801,0.0157346,0.0432465,-0.0453502,-0.14528,-0.00287659,-0.00346703,0.98938,1.0,0.0,0.0,0.0,0
30199736,0.0192911,0.0399531,-0.0388868,-0.144709,-0.00246393,-0.00345404,0.989465,1.0,0.0,0.0,0.0,0
30231804,0.00773457,0.0228181,-0.0318494,-0.14424,-0.00285868,-0.00350026,0.989532,1.0,0.0,0.0,0.0,0
30259738,0.0229053,0.0535877,-0.0298788,-0.143865,-0.00267148,-0.00340427,0.989588,1.0,0.0,0.0,0.0,0
30291732,0.0216786,0.0212236,-0.0131572,-0.14352,-0.00312103,-0.00341201,0.989637,1.0,0.0,0.0,0.0,0
30323809,0.00683331,0.0268586,-0.0125489,-0.143174,-0.00306285,-0.00337355,0.989687,1.0,0.0,0.0,0.0,0
30355786,0.0358513,0.00966944,0.0011969,-0.14296,-0.00302359,-0.00320022,0.989719,1.0,0.0,0.0,0.0,0
30387734,0.0297762,0.0204601,0.00592496,-0.142759,-0.00303728,-0.00319445,0.989748,1.0,0.0,0.0,0.0,0
30419733,-0.0101563,0.0100785,-0.0163031,-0.142565,-0.00284574,-0.00329358,0.989776,1.0,0.0,0.0,0.0,0
30451739,0.0172695,0.0364652,-0.00885175,-0.142485,-0.00308998,-0.0032974,0.989787,1.0,0.0,0.0,0.0,0
30483721,0.00436508,0.0620912,-0.00258211,-0.142418,-0.0034987,-0.00357449,0.989794,1.0,0.0,0.0,0.0,0
30514766,-0.0142462,0.0475484,0.0015746,-0.142345,-0.00381995,-0.0037045,0.989803,1.0,0.0,0.0,0.0,0
30543742,0.0587529,-0.00740419,-0.00828229,-0.142245,-0.00360416,-0.00351271,0.989819,1.0,0.0,0.0,0.0,0
30575775,-0.00475749,0.030844,-0.00915362,-0.142246,-0.00368573,-0.0034354,0.989818,1.0,0.0,0.0,0.0,0
30607825,0.0244146,0.0125413,-0.00898191,-0.142173,-0.0034079,-0.003285,0.989831,1.0,0.0,0.0,0.0,0
30640736,0.00134622,0.0219489,0.00852043,-0.142254,-0.00328081,-0.00352228,0.989819,1.0,0.0,0.0,0.0,0
30671742,0.163113,0.00800365,-0.00156115,-0.142333,-0.00323551,-0.00237368,0.989811,1.0,0.0,0.0,0.0,0
30701888,0.637599,0.0178909,0.0236648,-0.1424,-0.00414179,0.00310153,0.989796,1.0,0.0,0.0,0.0,0
30735764,1.02463,0.0139248,0.0174729,-0.142507,-0.00575571,0.0164011,0.989641,1.0,0.0,0.0,0.0,0
30767743,2.05314,0.0087679,0.0322368,-0.142447,-0.00982826,0.0430218,0.988818,1.0,0.0,0.0,0.0,0
30795797,2.67631,0.0135081,0.0168212,-0.142126,-0.0143359,0.0750859,0.986893,1.0,0.0,0.0,0.0,0
30827737,2.45359,-0.0114334,-0.00046708,-0.141461,-0.0207946,0.118579,0.982596,1.0,0.0,0.0,0.0,0
30858088,2.74461,0.0341749,-0.00843071,-0.140762,-0.026146,0.155737,0.977368,1.0,0.0,0.0,0.0,0
30891737,1.88606,-0.00401334,0.0161167,-0.139737,-0.0317987,0.193638,0.97055,1.0,0.0,0.0,0.0,0
30923746,1.77199,0.020943,-0.015944,-0.138866,-0.0365141,0.223545,0.964059,1.0,0.0,0.0,0.0,0
30955780,1.11355,0.00747398,0.011027,-0.138129,-0.038913,0.24314,0.959317,1.0,0.0,0.0,0.0,0
30987726,0.82909,-0.0210064,0.00114476,-0.137611,-0.0415758,0.260323,0.95476,1.0,0.0,0.0,0.0,0
31019731,0.142642,0.03873,0.0197967,-0.137507,-0.042049,0.265332,0.953374,1.0,0.0,0.0,0.0,0
31047794,-0.491926,-0.0231137,0.0182451,-0.137739,-0.0417201,0.263609,0.953833,1.0,0.0,0.0,0.0,0
31079740,-1.19409,0.0227278,0.0197152,-0.138637,-0.0398179,0.248954,0.957714,1.0,0.0,0.0,0.0,0
31111746,-2.45914,-0.000837767,0.026092,-0.139857,-0.0355247,0.220474,0.96466,1.0,0.0,0.0,0.0,0
31143737,-2.22849,-0.0291085,0.00219928,-0.141142,-0.0302622,0.183304,0.972401,1.0,0.0,0.0,0.0,0
31175814,-2.76328,0.0247107,0.0113657,-0.142349,-0.024441,0.142293,0.97923,1.0,0.0,0.0,0.0,0
31207744,-2.19581,-0.0270266,0.00390955,-0.143183,-0.0192341,0.10699,0.983708,1.0,0.0,0.0,0.0,0
31239812,-1.91273,-0.00934724,0.00670495,-0.143821,-0.0142022,0.070627,0.986978,1.0,0.0,0.0,0.0,0
31271729,-2.10799,0.0188375,0.00344779,-0.144237,-0.0098341,0.0418023,0.988611,1.0,0.0,0.0,0.0,0
31299741,-1.27293,-0.0140845,0.00588391,-0.144516,-0.00672181,0.0169184,0.989335,1.0,0.0,0.0,0.0,0
31331769,-1.41549,0.0217962,-9.77445e-05,-0.144677,-0.00366906,-0.00179801,0.989471,1.0,0.0,0.0,0.0,0
31364732,-0.518012,-0.0482567,0.00626516,-0.144787,-0.0014712,-0.0160069,0.989332,1.0,0.0,0.0,0.0,0
31395768,-0.696998,-0.0245691,0.0117519,-0.144931,0.000477232,-0.0276334,0.989056,1.0,0.0,0.0,0.0,0
31427742,-0.20707,-0.147928,-0.000702675,-0.145009,0.0026046,-0.0315168,0.988925,1.0,0.0,0.0,0.0,0
31459808,0.199566,-0.115256,0.00836828,-0.145265,0.00449232,-0.0329132,0.988835,1.0,0.0,0.0,0.0,0
31491732,0.146319,-0.05891,0.00739651,-0.14552,0.00512769,-0.0289389,0.988919,1.0,0.0,0.0,0.0,0
31523744,0.468387,0.0107171,-0.00784579,-0.145924,0.00408909,-0.0232609,0.989014,1.0,0.0,0.0,0.0,0
31551753,0.231254,0.0379098,0.00650426,-0.14636,0.00289938,-0.0191479,0.989042,1.0,0.0,0.0,0.0,0
31586039,0.294879,0.044367,-0.00945594,-0.1468,0.00128012,-0.0138487,0.989069,1.0,0.0,0.0,0.0,0
31615821,0.167799,0.0346183,-0.00882001,-0.147166,0.000166346,-0.0110241,0.98905,1.0,0.0,0.0,0.0,0
31647745,0.129312,0.0297227,-0.00719756,-0.147488,-0.00104408,-0.00797776,0.989031,1.0,0.0,0.0,0.0,0
31679735,0.132206,0.006715,-0.0188187,-0.147847,-0.00189007,-0.00623681,0.988989,1.0,0.0,0.0,0.0,0
31711743,0.0342637,0.0164405,-0.00656908,-0.148291,-0.00264582,-0.00461487,0.98893,1.0,0.0,0.0,0.0,0
31742221,0.0887795,-0.0145313,-0.0138321,-0.148778,-0.00306472,-0.00352682,0.98886,1.0,0.0,0.0,0.0,0
31775745,-0.0116227,0.0183795,-0.0138594,-0.149142,-0.00360533,-0.00312826,0.988804,1.0,0.0,0.0,0.0,0
31803954,0.0230919,-0.0133555,-0.0303876,-0.149357,-0.00386534,-0.00248147,0.988773,1.0,0.0,0.0,0.0,0
31835728,0.00723336,-0.0268418,-0.0322008,-0.149699,-0.00423657,-0.00240371,0.98872,1.0,0.0,0.0,0.0,0
31867739,-0.00682448,0.0113123,-0.0327159,-0.149941,-0.00433433,-0.00175657,0.988684,1.0,0.0,0.0,0.0,0
31898106,0.0206693,-0.0387269,-0.0568357,-0.150139,-0.00463214,-0.001699,0.988653,1.0,0.0,0.0,0.0,0
31932777,-0.0514381,0.0255989,-0.0379643,-0.150238,-0.00473721,-0.00154067,0.988637,1.0,0.0,0.0,0.0,0
31963730,0.0215246,-0.0208758,-0.0205601,-0.150311,-0.00471198,-0.0012774,0.988627,1.0,0.0,0.0,0.0,0
31995733,-0.0574276,0.0146776,-0.0235165,-0.150363,-0.00512937,-0.00147906,0.988616,1.0,0.0,0.0,0.0,0
32027785,0.00105985,-0.0398067,-0.0441972,-0.150348,-0.00494493,-0.001019,0.98862,1.0,0.0,0.0,0.0,0
32053962,-0.0470525,-0.0269313,-0.0348282,-0.150312,-0.00509867,-0.0013518,0.988625,1.0,0.0,0.0,0.0,0
32087753,-0.0178506,-0.0128053,-0.025162,-0.150171,-0.00489831,-0.00109311,0.988647,1.0,0.0,0.0,0.0,0
32119746,0.00310209,-0.041018,-0.0522215,-0.149981,-0.00486428,-0.00114422,0.988676,1.0,0.0,0.0,0.0,0
32151730,-0.0317791,-0.024092,-0.0339911,-0.149733,-0.00479304,-0.000953786,0.988714,1.0,0.0,0.0,0.0,0
32183739,0.0223779,-0.0435714,-0.043328,-0.149354,-0.00471561,-0.000769886,0.988772,1.0,0.0,0.0,0.0,0
32215863,-0.0483424,-0.0191353,-0.0398474,-0.148988,-0.00466697,-0.000768315,0.988828,1.0,0.0,0.0,0.0,0
32247766,0.0397537,-0.0332493,-0.0411093,-0.148688,-0.00479928,-0.000294719,0.988873,1.0,0.0,0.0,0.0,0
32279754,-0.0335262,-0.0410056,-0.0313878,-0.148408,-0.00480086,-0.000477536,0.988914,1.0,0.0,0.0,0.0,0
32308101,-0.00698527,-0.0299214,-0.0487098,-0.148124,-0.00492107,-0.00017024,0.988956,1.0,0.0,0.0,0.0,0
32339721,-0.526771,-0.418263,-0.0465255,-0.147683,-0.00182353,-0.00287416,0.989029,1.0,0.0,0.0,0.0,0
32371787,-1.45852,-0.924335,-0.0470739,-0.147176,0.011578,-0.0177111,0.988884,1.0,0.0,0.0,0.0,0
32403731,-2.40563,-1.45715,-0.0397412,-0.146327,0.035194,-0.0458505,0.987546,1.0,0.0,0.0,0.0,0
32435733,-2.97598,-1.88245,-0.0234088,-0.145348,0.0690191,-0.0868873,0.983138,1.0,0.0,0.0,0.0,0
32468743,-2.9749,-2.12169,0.0350589,-0.145045,0.107321,-0.128683,0.975133,1.0,0.0,0.0,0.0,0
32499928,-2.35736,-2.09387,0.0929084,-0.14587,0.145508,-0.164975,0.964538,1.0,0.0,0.0,0.0,0
32531751,-2.10147,-2.27695,0.183566,-0.148546,0.182523,-0.192877,0.952585,1.0,0.0,0.0,0.0,0
32564730,-1.35883,-2.06072,0.23307,-0.153228,0.219173,-0.214494,0.939402,1.0,0.0,0.0,0.0,0
32595730,-1.08493,-2.03258,0.315576,-0.160016,0.250665,-0.227339,0.927296,1.0,0.0,0.0,0.0,0
32626206,-0.413543,-1.79376,0.367685,-0.168373,0.277043,-0.233632,0.916686,1.0,0.0,0.0,0.0,0
32659745,-0.254833,-1.5852,0.409281,-0.179438,0.302542,-0.235912,0.905879,1.0,0.0,0.0,0.0,0
32691739,0.149576,-1.38751,0.462851,-0.191654,0.320867,-0.232698,0.897867,1.0,0.0,0.0,0.0,0
32723732,0.3076,-1.0798,0.502807,-0.204008,0.336226,-0.229605,0.890289,1.0,0.0,0.0,0.0,0
32751718,0.350093,-1.00698,0.535708,-0.216066,0.345426,-0.223399,0.885488,1.0,0.0,0.0,0.0,0
32782186,0.538818,-0.637509,0.582395,-0.22824,0.35296,-0.219139,0.880513,1.0,0.0,0.0,0.0,0
32815746,0.411318,-0.572453,0.622544,-0.24269,0.357014,-0.211832,0.876795,1.0,0.0,0.0,0.0,0
32848875,0.595101,-0.350366,0.63023,-0.256169,0.357596,-0.206164,0.87407,1.0,0.0,0.0,0.0,0
32879761,0.450684,-0.124537,0.668863,-0.268399,0.356489,-0.202057,0.871809,1.0,0.0,0.0,0.0,0
32911748,0.419564,-0.157538,0.668184,-0.281009,0.353617,-0.198025,0.869928,1.0,0.0,0.0,0.0,0
32943847,0.381902,0.0501716,0.694722,-0.292656,0.349873,-0.19653,0.867939,1.0,0.0,0.0,0.0,0
32975734,0.267274,0.00566524,0.722104,-0.304289,0.345848,-0.195302,0.865826,1.0,0.0,0.0,0.0,0
33007758,0.248426,0.122004,0.728527,-0.31497,0.340204,-0.196393,0.863994,1.0,0.0,0.0,0.0,0
33035727,0.107341,0.0716405,0.726745,-0.324571,0.336621,-0.197314,0.861631,1.0,0.0,0.0,0.0,0
33066939,0.157415,0.110664,0.732562,-0.334449,0.331517,-0.199898,0.859233,1.0,0.0,0.0,0.0,0
33099754,0.0183932,0.147434,0.729565,-0.344954,0.327008,-0.202751,0.856134,1.0,0.0,0.0,0.0,0
33131738,0.0948349,0.0313601,0.738125,-0.355236,0.322644,-0.205498,0.852924,1.0,0.0,0.0,0.0,0
33163749,-0.0354114,0.105726,0.758465,-0.365045,0.318572,-0.209701,0.849282,1.0,0.0,0.0,0.0,0
33195729,-0.045265,0.0570149,0.752303,-0.375089,0.314771,-0.213346,0.845406,1.0,0.0,0.0,0.0,0
33227731,0.0209751,0.072468,0.757857,-0.384724,0.31099,-0.217901,0.841303,1.0,0.0,0.0,0.0,0
33259728,-0.115932,0.0616986,0.770036,-0.394646,0.307731,-0.221864,0.836859,1.0,0.0,0.0,0.0,0
33287743,-0.0181658,0.0332852,0.761815,-0.403049,0.304773,-0.225898,0.832848,1.0,0.0,0.0,0.0,0
33319816,-0.094081,0.0435744,0.767454,-0.413004,0.301827,-0.230018,0.827901,1.0,0.0,0.0,0.0,0
33354010,-0.0108848,-0.00868206,0.770985,-0.423596,0.298538,-0.234407,0.822493,1.0,0.0,0.0,0.0,0
33383732,-0.0933454,0.0592526,0.77834,-0.432735,0.295934,-0.2384,0.817514,1.0,0.0,0.0,0.0,0
33415728,-0.0332393,-0.0284434,0.780631,-0.442744,0.293117,-0.242345,0.811991,1.0,0.0,0.0,0.0,0
33447737,-0.067789,0.0222287,0.782692,-0.452491,0.2902,-0.246465,0.806406,1.0,0.0,0.0,0.0,0
33479734,-0.0516508,-0.024713,0.783117,-0.462424,0.287391,-0.250056,0.800651,1.0,0.0,0.0,0.0,0
33510094,-0.0333143,-0.024178,0.783674,-0.471733,0.284622,-0.253902,0.79498,1.0,0.0,0.0,0.0,0
33541735,-0.0654428,-0.00482655,0.777826,-0.481561,0.281833,-0.257393,0.788935,1.0,0.0,0.0,0.0,0
33573890,-0.0417127,-0.0238894,0.753994,-0.491207,0.278883,-0.26127,0.782738,1.0,0.0,0.0,0.0,0
33603756,-0.0607365,0.0216799,0.772464,-0.500333,0.276236,-0.264453,0.776804,1.0,0.0,0.0,0.0,0
33636767,-0.021524,-0.00633801,0.77769,-0.510206,0.272981,-0.268277,0.770194,1.0,0.0,0.0,0.0,0
33665800,-0.0465374,-0.0223143,0.780696,-0.518919,0.270249,-0.271368,0.76423,1.0,0.0,0.0,0.0,0
33699735,-0.0166585,-0.0396754,0.763182,-0.529058,0.26712,-0.274778,0.757127,1.0,0.0,0.0,0.0,0
33731729,-0.0282842,0.00610243,0.768404,-0.538512,0.26394,-0.278022,0.750363,1.0,0.0,0.0,0.0,0
33763743,-0.0319667,-0.0241498,0.786037,-0.548062,0.260928,-0.281018,0.743353,1.0,0.0,0.0,0.0,0
33791749,-0.0174126,-0.0038109,0.78844,-0.556194,0.257765,-0.283894,0.737299,1.0,0.0,0.0,0.0,0
33822817,-0.0332417,-0.0337177,0.795017,-0.565235,0.254816,-0.286778,0.730299,1.0,0.0,0.0,0.0,0
33855868,-0.0125285,-0.0291742,0.797758,-0.57467,0.251366,-0.289996,0.722823,1.0,0.0,0.0,0.0,0
33887820,-0.0160124,-0.00233173,0.794481,-0.583752,0.247967,-0.293099,0.71543,1.0,0.0,0.0,0.0,0
33919739,-0.00323055,-0.0230034,0.784016,-0.592801,0.244555,-0.296024,0.707919,1.0,0.0,0.0,0.0,0
33951809,-0.0121326,0.00532196,0.79899,-0.601797,0.24093,-0.298964,0.700295,1.0,0.0,0.0,0.0,0
33983854,-0.00784078,-0.00188301,0.782405,-0.610642,0.237464,-0.301861,0.692536,1.0,0.0,0.0,0.0,0
34015747,-0.0141658,0.00455474,0.780086,-0.619357,0.233772,-0.304698,0.684768,1.0,0.0,0.0,0.0,0
34043744,-0.0200022,-0.0164679,0.782091,-0.626936,0.230777,-0.307209,0.677728,1.0,0.0,0.0,0.0,0
34075742,-0.0286291,0.00713865,0.793409,-0.635549,0.226986,-0.309953,0.669689,1.0,0.0,0.0,0.0,0
34107737,0.0231471,-0.0371433,0.793506,-0.644047,0.223351,-0.312665,0.661482,1.0,0.0,0.0,0.0,0
34139848,-0.0459227,0.00138238,0.798478,-0.652412,0.219426,-0.315583,0.65316,1.0,0.0,0.0,0.0,0
34171727,0.0095512,0.0111829,0.789196,-0.660821,0.215628,-0.318108,0.644692,1.0,0.0,0.0,0.0,0
34203773,-0.0125023,-0.0452541,0.775768,-0.66893,0.211947,-0.320905,0.636106,1.0,0.0,0.0,0.0,0
34231730,-0.00362263,0.0178952,0.768068,-0.676118,0.20861,-0.322912,0.62855,1.0,0.0,0.0,0.0,0
34267742,0.00773677,-0.0446106,0.791363,-0.685144,0.204356,-0.325722,0.618645,1.0,0.0,0.0,0.0,0
34295782,-0.0147193,0.0239188,0.789213,-0.692111,0.200812,-0.327798,0.610906,1.0,0.0,0.0,0.0,0
34327729,0.0210497,-0.00700123,0.782456,-0.699964,0.197071,-0.330089,0.601876,1.0,0.0,0.0,0.0,0
34359830,-0.020519,0.0196311,0.792458,-0.707511,0.192768,-0.332809,0.59288,1.0,0.0,0.0,0.0,0
34392852,0.00590128,0.0182273,0.765624,-0.715418,0.188907,-0.334749,0.583468,1.0,0.0,0.0,0.0,0
34423729,-0.00819705,-0.0708839,0.794741,-0.722619,0.18496,-0.336976,0.574508,1.0,0.0,0.0,0.0,0
34455744,-0.0272434,0.0838908,0.778949,-0.729815,0.180896,-0.339383,0.565213,1.0,0.0,0.0,0.0,0
34487801,0.0387586,-0.0839765,0.78475,-0.737247,0.176849,-0.34118,0.555687,1.0,0.0,0.0,0.0,0
34519743,-0.0135523,0.0356217,0.77972,-0.744133,0.172703,-0.343591,0.546246,1.0,0.0,0.0,0.0,0
34550878,-0.0121478,0.0279937,0.770952,-0.75093,0.168812,-0.345354,0.536971,1.0,0.0,0.0,0.0,0
34580718,0.0107721,-0.0157355,0.791715,-0.757209,0.164707,-0.347689,0.527842,1.0,0.0,0.0,0.0,0
34611897,-0.0130433,0.0329857,0.805275,-0.763806,0.160702,-0.349497,0.518293,1.0,0.0,0.0,0.0,0
34644754,0.0106573,-0.0232835,0.7819,-0.77062,0.156283,-0.351455,0.508133,1.0,0.0,0.0,0.0,0
34675793,0.0153596,0.0246944,0.797529,-0.776755,0.1519,-0.353649,0.498509,1.0,0.0,0.0,0.0,0
34706064,-0.0299463,0.00635542,0.796657,-0.782791,0.147713,-0.355271,0.489082,1.0,0.0,0.0,0.0,0
34739770,0.0220527,-0.0143333,0.79592,-0.789319,0.142865,-0.35738,0.478377,1.0,0.0,0.0,0.0,0
34771757,-0.00107101,0.00143785,0.787774,-0.79533,0.138578,-0.359284,0.468146,1.0,0.0,0.0,0.0,0
34799754,0.00879833,-0.0240255,0.772151,-0.800542,0.134659,-0.360636,0.459284,1.0,0.0,0.0,0.0,0
34831770,0.0066493,-0.0167177,0.788645,-0.806389,0.130306,-0.362412,0.448792,1.0,0.0,0.0,0.0,0
34862225,-0.00466382,0.0202933,0.811761,-0.811894,0.125825,-0.363703,0.438994,1.0,0.0,0.0,0.0,0
34895733,0.0328596,-0.0363888,0.787999,-0.817753,0.121205,-0.365269,0.427981,1.0,0.0,0.0,0.0,0
34927737,0.00247887,0.0192725,0.784962,-0.823148,0.116579,-0.366794,0.417491,1.0,0.0,0.0,0.0,0
34959766,0.0301313,-0.0024878,0.802844,-0.828558,0.11198,-0.367886,0.406954,1.0,0.0,0.0,0.0,0
34991807,0.0101271,-0.0130737,0.784041,-0.833635,0.10752,-0.369503,0.396181,1.0,0.0,0.0,0.0,0
35023797,-0.018218,0.0206379,0.784498,-0.83877,0.102865,-0.370444,0.385557,1.0,0.0,0.0,0.0,0
35055748,0.0375359,-0.0264261,0.781623,-0.84362,0.0984258,-0.371803,0.374674,1.0,0.0,0.0,0.0,0
35087730,-0.0323827,0.0270929,0.781441,-0.848455,0.0937316,-0.372783,0.363829,1.0,0.0,0.0,0.0,0
35119740,0.0320418,-0.0175738,0.782416,-0.853101,0.0892638,-0.373849,0.352827,1.0,0.0,0.0,0.0,0
35151732,-0.0124245,0.0301185,0.789438,-0.857429,0.0845578,-0.375192,0.341901,1.0,0.0,0.0,0.0,0
35183721,0.0242558,-0.00710547,0.787866,-0.861879,0.0797405,-0.375921,0.330891,1.0,0.0,0.0,0.0,0
35215739,-0.00769119,0.0214431,0.794757,-0.86592,0.0750242,-0.377306,0.319676,1.0,0.0,0.0,0.0,0
35244755,0.00381748,0.00219831,0.774682,-0.869642,0.0707146,-0.378008,0.309567,1.0,0.0,0.0,0.0,0
35277913,0.0185965,-0.00736414,0.770003,-0.873555,0.0657305,-0.379218,0.297953,1.0,0.0,0.0,0.0,0
35307732,0.0185387,0.0349126,0.783871,-0.87703,0.0610425,-0.380083,0.287455,1.0,0.0,0.0,0.0,0
35339735,0.0102939,-0.0135686,0.79311,-0.880562,0.0561304,-0.381031,0.27618,1.0,0.0,0.0,0.0,0
35371739,0.0260061,0.0426384,0.783601,-0.883963,0.0510151,-0.381832,0.264974,1.0,0.0,0.0,0.0,0
35403741,0.0376474,-0.0125529,0.788366,-0.887352,0.0461113,-0.382373,0.253517,1.0,0.0,0.0,0.0,0
35434171,0.00795108,0.0192704,0.783099,-0.890384,0.0412196,-0.382878,0.242737,1.0,0.0,0.0,0.0,0
35467887,0.0517846,-0.00782608,0.781961,-0.893656,0.0356969,-0.383149,0.230869,1.0,0.0,0.0,0.0,0
35499740,0.0336398,0.0211651,0.774062,-0.896482,0.0305113,-0.383631,0.219583,1.0,0.0,0.0,0.0,0
35527958,0.0337795,-0.00966949,0.787818,-0.899004,0.0258864,-0.38357,0.209755,1.0,0.0,0.0,0.0,0
35559719,0.0625877,-0.000417542,0.808168,-0.901561,0.0207671,-0.383963,0.198317,1.0,0.0,0.0,0.0,0
35589868,-0.0020936,0.00154275,0.783905,-0.904014,0.0157413,-0.383861,0.187513,1.0,0.0,0.0,0.0,0
35623741,0.0839904,0.0049773,0.777466,-0.906432,0.0100945,-0.384048,0.175458,1.0,0.0,0.0,0.0,0
35655748,0.0187899,0.011733,0.787942,-0.908596,0.00480806,-0.384099,0.164008,1.0,0.0,0.0,0.0,0
35687879,0.0548352,0.00855058,0.798598,-0.91063,-0.000787241,-0.38399,0.15266,1.0,0.0,0.0,0.0,0
35719726,0.0505463,-0.0180922,0.786398,-0.912477,-0.00579767,-0.383938,0.141222,1.0,0.0,0.0,0.0,0
35751752,0.0534046,0.0595299,0.758539,-0.914115,-0.0116886,-0.383818,0.130156,1.0,0.0,0.0,0.0,0
35779744,0.0926528,-0.0444812,0.732608,-0.915641,-0.0162161,-0.383202,0.120394,1.0,0.0,0.0,0.0,0
35811728,0.0445492,0.0284727,0.771028,-0.916782,-0.0218131,-0.383428,0.109626,1.0,0.0,0.0,0.0,0
35843742,0.0900952,0.0497395,0.707468,-0.918094,-0.0267477,-0.382835,0.0991268,1.0,0.0,0.0,0.0,0
35875879,0.0357211,-0.143519,0.670525,-0.919299,-0.0317797,-0.381963,0.0893491,1.0,0.0,0.0,0.0,0
35907739,0.0902129,-0.102685,0.615049,-0.921066,-0.0363071,-0.379337,0.0801457,1.0,0.0,0.0,0.0,0
35939747,0.0254868,-0.388617,0.608486,-0.923602,-0.0401649,-0.374494,0.0714131,1.0,0.0,0.0,0.0,0
35971731,0.0624165,-0.351299,0.538507,-0.926181,-0.0442049,-0.369044,0.0635725,1.0,0.0,0.0,0.0,0
36003747,0.0287638,-0.507444,0.510684,-0.929816,-0.0468002,-0.360698,0.0561224,1.0,0.0,0.0,0.0,0
36031751,-0.00118424,-0.535155,0.46714,-0.932687,-0.0492854,-0.353758,0.0502061,1.0,0.0,0.0,0.0,0
36063731,0.0534322,-0.57887,0.406255,-0.936545,-0.0510734,-0.343997,0.0440556,1.0,0.0,0.0,0.0,0
36095730,-0.0408478,-0.650451,0.383276,-0.940103,-0.0528989,-0.334558,0.0384711,1.0,0.0,0.0,0.0,0
36128738,0.0499877,-0.560717,0.350806,-0.943821,-0.0543141,-0.324257,0.0333162,1.0,0.0,0.0,0.0,0
36159760,-0.048332,-0.653302,0.285,-0.947177,-0.0554306,-0.314537,0.0291623,1.0,0.0,0.0,0.0,0
36191732,0.0233449,-0.57149,0.255134,-0.9504,-0.0563431,-0.304838,0.0252952,1.0,0.0,0.0,0.0,0
36223851,-0.0454764,-0.575496,0.248984,-0.953493,-0.0568263,-0.295206,0.0218028,1.0,0.0,0.0,0.0,0
36255752,0.035505,-0.54919,0.208151,-0.95626,-0.0573477,-0.286219,0.018902,1.0,0.0,0.0,0.0,0
36283745,-0.032031,-0.534761,0.184708,-0.958607,-0.0575174,-0.27836,0.0167206,1.0,0.0,0.0,0.0,0
36318011,-0.0208968,-0.499564,0.15164,-0.961088,-0.0578431,-0.269719,0.0147019,1.0,0.0,0.0,0.0,0
36347731,-0.0189979,-0.446773,0.114725,-0.963161,-0.0578734,-0.262294,0.0131811,1.0,0.0,0.0,0.0,0
36379729,-0.0154101,-0.461099,0.0848353,-0.965197,-0.0578651,-0.254764,0.0119175,1.0,0.0,0.0,0.0,0
36411750,0.00586546,-0.363194,0.0726642,-0.967018,-0.0577931,-0.247826,0.0108526,1.0,0.0,0.0,0.0,0
36443734,0.00230099,-0.374303,0.0380496,-0.968717,-0.0574996,-0.241197,0.0102897,1.0,0.0,0.0,0.0,0
36473862,-0.0149201,-0.354308,0.0399423,-0.970077,-0.0573623,-0.235717,0.0098591,1.0,0.0,0.0,0.0,0
36507750,0.0161504,-0.314024,0.0191621,-0.971616,-0.0570726,-0.22937,0.00970972,1.0,0.0,0.0,0.0,0
36535742,-0.00131787,-0.334143,0.0253581,-0.97271,-0.056878,-0.224737,0.00964774,1.0,0.0,0.0,0.0,0
36567744,-0.000349524,-0.292548,-0.0038105,-0.974004,-0.0567205,-0.219094,0.00979893,1.0,0.0,0.0,0.0,0
36599731,-0.000101801,-0.354382,-0.0203231,-0.975132,-0.0564157,-0.214087,0.0100793,1.0,0.0,0.0,0.0,0
36629970,0.0178038,-0.267979,-0.0298314,-0.976217,-0.0564719,-0.209048,0.0105043,1.0,0.0,0.0,0.0,0
36663730,0.0380033,-0.337005,-0.0223815,-0.977339,-0.0564118,-0.203726,0.0110507,1.0,0.0,0.0,0.0,0
36694770,0.0164497,-0.269746,-0.0257276,-0.978251,-0.0562535,-0.199315,0.011598,1.0,0.0,0.0,0.0,0
36727731,0.0384726,-0.287147,-0.0250319,-0.979316,-0.0565097,-0.193887,0.0124652,1.0,0.0,0.0,0.0,0
36755744,0.00853578,-0.247313,-0.0386233,-0.979999,-0.0564708,-0.190375,0.0130318,1.0,0.0,0.0,0.0,0
36785840,0.0187641,-0.253009,-0.0443226,-0.980839,-0.0565207,-0.185936,0.0137461,1.0,0.0,0.0,0.0,0
36819759,0.0375431,-0.276058,-0.0279285,-0.981623,-0.0563235,-0.181753,0.0145027,1.0,0.0,0.0,0.0,0
36851734,0.0182582,-0.201457,-0.036701,-0.982392,-0.0563055,-0.177494,0.0152427,1.0,0.0,0.0,0.0,0
36883733,0.0345762,-0.238516,-0.0223173,-0.983038,-0.0562531,-0.173839,0.0158441,1.0,0.0,0.0,0.0,0
36915746,0.0141882,-0.173436,-0.0445744,-0.983674,-0.0563781,-0.170088,0.0166274,1.0,0.0,0.0,0.0,0
36947880,0.0476483,-0.221279,-0.0293372,-0.984278,-0.0562927,-0.166537,0.0171433,1.0,0.0,0.0,0.0,0
36979858,-0.0550569,-0.454643,-0.0214953,-0.985234,-0.0560222,-0.160814,0.0177166,1.0,0.0,0.0,0.0,0
37011739,-0.0562648,-0.672658,-0.0258532,-0.986781,-0.0547687,-0.151419,0.0183393,1.0,0.0,0.0,0.0,0
37039740,-0.160192,-0.940905,0.0034302,-0.988614,-0.052841,-0.13963,0.0188121,1.0,0.0,0.0,0.0,0
37071796,-0.138979,-1.08467,-0.00832153,-0.990947,-0.0499615,-0.12309,0.0194094,1.0,0.0,0.0,0.0,0
37103736,-0.211971,-1.33688,-0.0144747,-0.993365,-0.0463034,-0.103371,0.0198995,1.0,0.0,0.0,0.0,0
37135732,-0.252916,-1.40701,0.012842,-0.995557,-0.0425044,-0.0815702,0.0201524,1.0,0.0,0.0,0.0,0
37167732,-0.229467,-1.51326,0.010987,-0.997425,-0.037744,-0.0575052,0.0202901,1.0,0.0,0.0,0.0,0
37199733,-0.271014,-1.56749,0.0478702,-0.998675,-0.0333817,-0.0335352,0.0202389,1.0,0.0,0.0,0.0,0
37231722,-0.230579,-1.51525,0.043229,-0.999357,-0.0284256,-0.0084891,0.0201524,1.0,0.0,0.0,0.0,0
37263738,-0.292237,-1.54964,0.0396332,-0.999399,-0.0236011,0.0157325,0.01993,1.0,0.0,0.0,0.0,0
37291741,-0.249367,-1.4559,0.0676915,-0.998927,-0.0194273,0.0371515,0.0196818,1.0,0.0,0.0,0.0,0
37323843,-0.249356,-1.44825,0.0695265,-0.997893,-0.0144036,0.0602809,0.0191764,1.0,0.0,0.0,0.0,0
37357857,-0.25738,-1.28449,0.0580835,-0.996248,-0.00964395,0.0839657,0.0186363,1.0,0.0,0.0,0.0,0
37387730,-0.195667,-1.33334,0.0640262,-0.994429,-0.00552315,0.103697,0.0180777,1.0,0.0,0.0,0.0,0
